timeTick, n_out0, n_out1, n_out2, n_out3, cmd_thrust, gyro_x, gyro_y, gyro_z, n_12, otX0, otY0, otZ0, otRoll0, otPitch0, otYaw0
36454, 0.0, 0.0, 0.0, 0.0, 0.0, 0, 0, 0, 0, 0.035958584398031235, 0.05485682561993599, 0.03397718071937561, -0.7402939258391489, -0.16375310201763682, 3.3946993432342287
36464, 0.0, 0.0, 0.0, 0.0, 0.0, 0.0037882376927882433, 0.03939299285411835, 0.04049335792660713, 0.0, 0.03589465841650963, 0.05497979745268822, 0.033955153077840805, -0.7452780932189904, -0.173561888217165, 3.4460551409220335
36474, 0.0, 0.0, 0.0, 0.0, 0.0, 0.004191252402961254, -0.19136150181293488, 0.034348372370004654, 0.0, 0.035853467881679535, 0.05498101934790611, 0.033981189131736755, -0.7731083305625047, -0.16216969911116053, 3.436712884027581
36484, 0.0, 0.0, 0.0, 0.0, 0.0, 0.03876136988401413, -0.2685542702674866, -0.047407325357198715, 0.0, 0.035975150763988495, 0.054865505546331406, 0.0339583195745945, -0.7552876241161237, -0.2073296122487136, 3.3967511736961105
36494, 0.0, 0.0, 0.0, 0.0, 0.0, -0.21207724511623383, 0.12612703442573547, -0.11316676437854767, 0.0, 0.035860590636730194, 0.05499538034200668, 0.03397094085812569, -0.7730323430586874, -0.1600090703681758, 3.435568533306641
36504, 0.0, 0.0, 0.0, 0.0, 0.0, 0.21486634016036987, -0.300521582365036, -0.302444189786911, 0.0, 0.035963527858257294, 0.05485502630472183, 0.0339239239692688, -0.7443920614967833, -0.1925089413853982, 3.3885224889216072
36514, 0.0, 0.0, 0.0, 0.0, 0.0, 0.06689856946468353, 0.14182931184768677, 0.0785704106092453, 0.0, 0.035971056669950485, 0.054861292243003845, 0.0339730866253376, -0.77859012301547, -0.18726868654994178, 3.3980100659722736
36524, 0.0, 0.0, 0.0, 0.0, 0.0, -0.08316599577665329, 0.04759954661130905, -0.05198347941040993, 0.0, 0.03595877066254616, 0.054859746247529984, 0.03397322818636894, -0.7219521121894995, -0.16182920516266108, 3.3877846976267922
36534, 0.0, 0.0, 0.0, 0.0, 0.0, -0.18588028848171234, 0.19698087871074677, 0.09194375574588776, 0.0, 0.03596579656004906, 0.05486277490854263, 0.03394802659749985, -0.7193128297713373, -0.17408716106010047, 3.386945018451594
36544, 0.0, 0.0, 0.0, 0.0, 0.0, 0.04363570362329483, -0.22494396567344666, -0.1725904643535614, 0.0, 0.03576141223311424, 0.05494050309062004, 0.03403720259666443, -0.8209370958038885, 0.02458636769961231, 3.3568469036605912
36554, 0.0, 0.0, 0.0, 0.0, 0.0, 0.030327502638101578, -0.0008151045185513794, -0.04374377056956291, 0.0, 0.03595928102731705, 0.054880231618881226, 0.033972661942243576, -0.759453225500027, -0.23352971971553416, 3.3955926225596618
36564, 0.0, 0.0, 0.0, 0.0, 0.0, -0.027975305914878845, 0.13197192549705505, -0.09383472800254822, 0.0, 0.03597581014037132, 0.054846156388521194, 0.033926934003829956, -0.7632283840195248, -0.21351331931327877, 3.383811365311756
36574, 0.0, 0.0, 0.0, 0.0, 0.0, 0.053338341414928436, -0.13922318816184998, -0.15497265756130219, 0.0, 0.03593531996011734, 0.05486626178026199, 0.03396982327103615, -0.7365529211198913, -0.18883331295631933, 3.3886995663626296
36584, 0.0, 0.0, 0.0, 0.0, 0.0, -0.22987420856952667, 0.3019060790538788, 0.01279811654239893, 0.0, 0.03596355393528938, 0.05486982688307762, 0.03397443890571594, -0.7130518001407183, -0.19612371181545996, 3.393842040661948
36594, 0.0, 0.0, 0.0, 0.0, 0.0, 0.17982548475265503, -0.02305806428194046, -0.06062140688300133, 0.0, 0.03588001802563667, 0.0549774244427681, 0.033940307796001434, -0.7636459738634045, -0.20517405786071663, 3.447874739690822
36604, 0.0, 0.0, 0.0, 0.0, 0.0, 0.08082610368728638, -0.025039907544851303, 0.058506518602371216, 0.0, 0.03595253825187683, 0.054860301315784454, 0.03397860750555992, -0.723842929886745, -0.15343858336328253, 3.387819269609305
36614, 0.0, 0.0, 0.0, 0.0, 0.0, -0.05403375253081322, 0.1375931352376938, 0.04604244604706764, 0.0, 0.03596005588769913, 0.05488097295165062, 0.03398524969816208, -0.7355204359386702, -0.16967092781854376, 3.4008377243702683
36624, 0.0, 0.0, 0.0, 0.0, 0.0, -0.07648874819278717, 0.026500489562749863, 0.1268114149570465, 0.0, 0.03582795336842537, 0.05486353114247322, 0.03415175899863243, -0.9742644303127833, 0.29051674298727903, 3.3220983958828554
36634, 0.0, 0.0, 0.0, 0.0, 0.0, 0.24718669056892395, 0.0556555800139904, -0.1655377745628357, 0.0, 0.03596283495426178, 0.054860834032297134, 0.03397354483604431, -0.7189044986952666, -0.13965940934497212, 3.3911662581665385
36644, 0.0, 0.0, 0.0, 0.0, 0.0, 0.10178066790103912, 0.032607100903987885, 0.059236571192741394, 0.0, 0.03587054833769798, 0.05496755614876747, 0.033937253057956696, -0.7677059616359325, -0.20400308290700764, 3.444021565213043
36654, 0.0, 0.0, 0.0, 0.0, 0.0, 0.2189398854970932, 0.033946000039577484, 0.1609259694814682, 0.0, 0.035860005766153336, 0.054973818361759186, 0.0339539609849453, -0.7658511085177552, -0.17118812093556812, 3.4360678535264575
36664, 0.0, 0.0, 0.0, 0.0, 0.0, -0.044742219150066376, -0.26890766620635986, 0.03912423923611641, 0.0, 0.035814929753541946, 0.05481833219528198, 0.03416948765516281, -0.7800474607465683, -0.3693920450407404, 3.428775973964594
36674, 0.0, 0.0, 0.0, 0.0, 0.0, 0.0484316311776638, 0.003892468987032771, 0.008943868800997734, 0.0, 0.03597433865070343, 0.05487802252173424, 0.03396577015519142, -0.7314146097842636, -0.1867876236507584, 3.3823340905541888
36684, 0.0, 0.0, 0.0, 0.0, 0.0, -0.060657426714897156, -0.02690141648054123, 0.08891472220420837, 0.0, 0.03596647083759308, 0.05484936386346817, 0.033962853252887726, -0.7442111962131132, -0.17473430606494844, 3.3926696187465266
36694, 0.0, 0.0, 0.0, 0.0, 0.0, 0.004959735553711653, -0.01007112581282854, -0.2572565972805023, 0.0, 0.03594820946455002, 0.05503128841519356, 0.03410321846604347, -0.5981454589528198, -0.18794963562388034, 3.3708343590317673
36704, 0.0, 0.0, 0.0, 0.0, 0.0, 0.08760233968496323, 0.1294320970773697, -0.2830456793308258, 0.0, 0.03603830561041832, 0.05484645068645477, 0.033880751579999924, -0.8009893587281824, -0.13825028000326256, 3.320995279211467
36714, 0.0, 0.0, 0.0, 0.0, 0.0, -0.22874955832958221, -0.30365514755249023, 0.09161630272865295, 0.0, 0.03597281128168106, 0.05485551059246063, 0.03397997096180916, -0.7338372444225186, -0.1752069411653565, 3.396828244641262
36724, 0.0, 0.0, 0.0, 0.0, 0.0, 0.013474980369210243, -0.1478559374809265, -0.14976711571216583, 0.0, 0.03596428036689758, 0.054843634366989136, 0.03399048000574112, -0.7246514674575869, -0.21007753338417956, 3.4049092619938417
36734, 0.0, 0.0, 0.0, 0.0, 0.0, -0.1354377567768097, 0.21920514106750488, 0.11100846529006958, 0.0, 0.03597913309931755, 0.0548568069934845, 0.03398313745856285, -0.7402045462777452, -0.14967846791458328, 3.3980602296285873
36744, 0.0, 0.0, 0.0, 0.0, 0.0, -0.06359648704528809, 0.01095452532172203, 0.22637046873569489, 0.0, 0.03595761954784393, 0.05486343428492546, 0.03395769000053406, -0.7910981333282635, -0.23356322287980902, 3.384314510602001
36754, 0.0, 0.0, 0.0, 0.0, 0.0, -0.1468024104833603, -0.04943419620394707, -0.1083599254488945, 0.0, 0.035867709666490555, 0.05496647581458092, 0.03394899517297745, -0.790785615800313, -0.19877562362520962, 3.4388028658835084
36764, 0.0, 0.0, 0.0, 0.0, 0.0, 0.03522976115345955, -0.09786590933799744, 0.07638512551784515, 0.0, 0.0359557680785656, 0.054869942367076874, 0.03396081551909447, -0.7574048329433996, -0.14702110416644132, 3.3761231393905295
36774, 0.0, 0.0, 0.0, 0.0, 0.0, 0.08298595249652863, -0.05456000193953514, 0.20306874811649323, 0.0, 0.03595155104994774, 0.05485980212688446, 0.033985961228609085, -0.7192279682791726, -0.16986570151368596, 3.39336117887779
36784, 0.0, 0.0, 0.0, 0.0, 0.0, -0.02637627348303795, -0.02507012151181698, -0.03581788390874863, 0.0, 0.035879697650671005, 0.05498601496219635, 0.0339515246450901, -0.7760781740321011, -0.17176913166974828, 3.4321102256415417
36794, 0.0, 0.0, 0.0, 0.0, 0.0, 0.0059744324535131454, -0.1101016029715538, 0.1090749129652977, 0.0, 0.03597037121653557, 0.0548660084605217, 0.03396787866950035, -0.7294141092065817, -0.17374110384588448, 3.3775167168611646
36804, 0.0, 0.0, 0.0, 0.0, 0.0, -0.09183414280414581, 0.2373255342245102, -0.008508327417075634, 0.0, 0.03597128763794899, 0.054864559322595596, 0.03401464968919754, -0.734154432240034, -0.16942171600584288, 3.392141198011361
36814, 0.0, 0.0, 0.0, 0.0, 0.0, -0.14393821358680725, 0.022739948704838753, -0.1652967929840088, 0.0, 0.03585236519575119, 0.05496770143508911, 0.03397664800286293, -0.7668537404431489, -0.13341758208494525, 3.449178824596929
36824, 0.0, 0.0, 0.0, 0.0, 0.0, -0.08991481363773346, 0.0608147494494915, -0.1350400447845459, 0.0, 0.03595520928502083, 0.05488033965229988, 0.03396740183234215, -0.7472712999134977, -0.18487191696368654, 3.384829111780821
36834, 0.0, 0.0, 0.0, 0.0, 0.0, 0.09697355329990387, -0.029029589146375656, 0.013461140915751457, 0.0, 0.03572732210159302, 0.05493578687310219, 0.03411285951733589, -0.81250644105989, -0.38208083075468835, 3.4660649039167675
36844, 0.0, 0.0, 0.0, 0.0, 0.0, -0.023010654374957085, -0.07382694631814957, 0.03076343983411789, 0.0, 0.035955045372247696, 0.054869748651981354, 0.03395742177963257, -0.7495695465601693, -0.1842333204877491, 3.3972219934308177
36854, 0.0, 0.0, 0.0, 0.0, 0.0, -0.04989209398627281, 0.051230210810899734, -0.07605018466711044, 0.0, 0.035864632576704025, 0.054983172565698624, 0.03398099169135094, -0.7554038399107513, -0.19431082081680984, 3.4564828876870095
36864, 0.0, 0.0, 0.0, 0.0, 0.0, -0.1192774698138237, -0.022402403876185417, -0.14755110442638397, 0.0, 0.035883788019418716, 0.05497470498085022, 0.03394078463315964, -0.7765256754649973, -0.17027636628159826, 3.436019930770402
36874, 0.0, 0.0, 0.0, 0.0, 0.0, 0.024667421355843544, 0.03812681511044502, 0.047426722943782806, 0.0, 0.035974375903606415, 0.05485299974679947, 0.0339646078646183, -0.74034520189404, -0.192852944766571, 3.38928919066683
36884, 0.0, 0.0, 0.0, 0.0, 0.0, 0.11293047666549683, 0.11475352197885513, -0.11118031293153763, 0.0, 0.03596767783164978, 0.0548919178545475, 0.0339500829577446, -0.7721684359042017, -0.20837794582459424, 3.390400405368881
36894, 0.0, 0.0, 0.0, 0.0, 0.0, -0.07925772666931152, -0.2067805528640747, 0.1452045440673828, 0.0, 0.03596071898937225, 0.0548635870218277, 0.033956628292798996, -0.7500636361866105, -0.16151004957501414, 3.3910283500443055
36904, 0.0, 0.0, 0.0, 0.0, 0.0, 0.06424269080162048, -0.17599564790725708, 0.032556965947151184, 0.0, 0.03594037517905235, 0.054870929569005966, 0.033971164375543594, -0.755453143603385, -0.15781532709976887, 3.398469639801283
36914, 0.0, 0.0, 0.0, 0.0, 0.0, -0.06782226264476776, 0.18022067844867706, 0.0272385086864233, 0.0, 0.03606120124459267, 0.05470224469900131, 0.0341729000210762, -0.9742984348174646, 0.21673127992838204, 3.3572845563895672
36924, 0.0, 0.0, 0.0, 0.0, 0.0, -0.010773750953376293, -0.07429774850606918, -0.1329786777496338, 0.0, 0.03595016896724701, 0.054840315133333206, 0.034171830862760544, -0.9470042131528157, 0.23537292560354217, 3.3997058055557936
36934, 0.0, 0.0, 0.0, 0.0, 0.0, -0.0048260134644806385, -0.05047566443681717, -0.017178714275360107, 0.0, 0.035870034247636795, 0.05498318374156952, 0.033944763243198395, -0.7991084994667493, -0.20954343710181433, 3.4453641246485063
36944, 0.0, 0.0, 0.0, 0.0, 0.0, -0.11695975065231323, 0.06859960407018661, 0.14481724798679352, 0.0, 0.035862043499946594, 0.054979681968688965, 0.03394957631826401, -0.7673828308195931, -0.17292267276624784, 3.4413839924239413
36954, 0.0, 0.0, 0.0, 0.0, 0.0, -0.19393345713615417, -0.20253153145313263, -0.0032093978952616453, 0.0, 0.03595733270049095, 0.05486363545060158, 0.033981990069150925, -0.7482794828861946, -0.17520208935502524, 3.373209247840651
36964, 0.0, 0.0, 0.0, 0.0, 0.0, 0.17398983240127563, 0.3009207248687744, -0.19688864052295685, 0.0, 0.03586781397461891, 0.054972510784864426, 0.03396151587367058, -0.7758793326142742, -0.19441038743659078, 3.430990375497131
36974, 0.0, 0.0, 0.0, 0.0, 0.0, -0.030708542093634605, 0.025418175384402275, 0.001901268376968801, 0.0, 0.03596169874072075, 0.05485329031944275, 0.03394530341029167, -0.7363144755601098, -0.17252944918618596, 3.390967902142881
36984, 0.0, 0.0, 0.0, 0.0, 0.0, 0.037561867386102676, 0.09174316376447678, 0.044716253876686096, 0.0, 0.03585578501224518, 0.054978638887405396, 0.0339420884847641, -0.7761392421915035, -0.16238147502019729, 3.4473898607227214
36994, 0.0, 0.0, 0.0, 0.0, 0.0, 0.09349256008863449, -0.2085299789905548, 0.14977508783340454, 0.0, 0.036000318825244904, 0.05491224303841591, 0.03393665701150894, -0.7716132243449261, -0.19138021331977484, 3.354788696348966
37004, 0.0, 0.0, 0.0, 0.0, 0.0, -0.04149526730179787, 0.08605998754501343, -0.1372460573911667, 0.0, 0.03596377745270729, 0.054867565631866455, 0.03395823761820793, -0.7651221775531091, -0.18699966758430264, 3.3950096159252565
37014, 0.0, 0.0, 0.0, 0.0, 0.0, -0.04235195368528366, -0.259290486574173, 0.16285079717636108, 0.0, 0.03587570786476135, 0.05498933792114258, 0.0339515395462513, -0.7689744072194746, -0.1942187800395061, 3.4414550008724385
37024, 0.0, 0.0, 0.0, 0.0, 0.0, 0.26660844683647156, -0.063545361161232, -0.01783108338713646, 0.0, 0.035872213542461395, 0.05498046800494194, 0.033936161547899246, -0.7842131416655929, -0.17842937846805285, 3.4411155993133193
37034, 0.0, 0.0, 0.0, 0.0, 0.0, 0.04749251529574394, 0.10510247200727463, 0.0021101590245962143, 0.0, 0.035872895270586014, 0.05498173087835312, 0.03391142934560776, -0.7734628923463265, -0.18627152987207296, 3.442199608047269
37044, 0.0, 0.0, 0.0, 0.0, 0.0, -0.12545765936374664, 0.31409773230552673, -0.022847792133688927, 0.0, 0.03596479073166847, 0.05487857013940811, 0.033960603177547455, -0.7289312519733779, -0.1967519581480417, 3.386187972507409
37054, 0.0, 0.0, 0.0, 0.0, 0.0, 0.14259953796863556, -0.10787958651781082, 0.14710217714309692, 0.0, 0.03585526719689369, 0.05498693510890007, 0.03395254164934158, -0.7710144571370213, -0.14720996961736432, 3.4440349618973833
37064, 0.0, 0.0, 0.0, 0.0, 0.0, 0.009318593889474869, -0.08952539414167404, 0.014398259110748768, 0.0, 0.03595399484038353, 0.05486416444182396, 0.03397786244750023, -0.7271608830211387, -0.16135229102607695, 3.3928979216392956
37074, 0.0, 0.0, 0.0, 0.0, 0.0, -0.0927523598074913, 0.1427679806947708, 0.009860718622803688, 0.0, 0.03586356341838837, 0.0549897775053978, 0.03395254909992218, -0.7897073826759007, -0.17079987004771624, 3.4400020387021217
37084, 0.0, 0.0, 0.0, 0.0, 0.0, 0.07744093984365463, 0.2346297800540924, 0.05939674749970436, 0.0, 0.03589008376002312, 0.05497041344642639, 0.03399180620908737, -0.7429167100372469, -0.1685637342869768, 3.4477835539371964
37094, 0.0, 0.0, 0.0, 0.0, 0.0, -0.13927270472049713, -0.14400418102741241, 0.18275785446166992, 0.0, 0.03588004782795906, 0.05496454983949661, 0.03397870436310768, -0.7466607487252689, -0.16438089637395592, 3.4399305549106813
37104, 0.0, 0.0, 0.0, 0.0, 0.0, 0.11551900207996368, 0.333272248506546, -0.011545388959348202, 0.0, 0.035944659262895584, 0.054886698722839355, 0.033990278840065, -0.7739239433404574, -0.17314763382191245, 3.391567422641291
37114, 0.0, 0.0, 0.0, 0.0, 0.0, 0.053236205130815506, -0.07789302617311478, 0.23210512101650238, 0.0, 0.03585774451494217, 0.05499066784977913, 0.03397894650697708, -0.8002283155382285, -0.16772161864233226, 3.441296704715143
37124, 0.0, 0.0, 0.0, 0.0, 0.0, -0.13032911717891693, 0.004816733300685883, 0.028256408870220184, 0.0, 0.03589209169149399, 0.054962124675512314, 0.033968351781368256, -0.751932444573977, -0.15760138096848664, 3.426316587223836
37134, 0.0, 0.0, 0.0, 0.0, 0.0, 0.14353226125240326, 0.1407952457666397, -0.16380652785301208, 0.0, 0.03598158806562424, 0.05486470088362694, 0.033931098878383636, -0.7554379002807419, -0.16572272451085723, 3.3734172795739843
37144, 0.0, 0.0, 0.0, 0.0, 0.0, 0.21639995276927948, 0.023738278076052666, 0.12340313196182251, 0.0, 0.03596477210521698, 0.05487041175365448, 0.03395303338766098, -0.78530884093457, -0.20065469700548988, 3.3858120696482588
37154, 0.0, 0.0, 0.0, 0.0, 0.0, 0.04994649812579155, 0.034390103071928024, 0.14127540588378906, 0.0, 0.03589446097612381, 0.05497431755065918, 0.0339491069316864, -0.7834079517372642, -0.1618644822766271, 3.444505319207302
37164, 0.0, 0.0, 0.0, 0.0, 0.0, -0.17362290620803833, 0.09974351525306702, -0.038754165172576904, 0.0, 0.035953082144260406, 0.054860763251781464, 0.0339396595954895, -0.7074862683974784, -0.1415614645363803, 3.410491211060567
37174, 0.0, 0.0, 0.0, 0.0, 0.0, -0.014323974959552288, -0.0894288644194603, -0.1223742663860321, 0.0, 0.03587103635072708, 0.05499529838562012, 0.03393536061048508, -0.786614792141173, -0.1745955172531808, 3.4339777517495804
37184, 0.0, 0.0, 0.0, 0.0, 0.0, 0.0274431724101305, -0.14435450732707977, 0.08274093270301819, 0.0, 0.03594847768545151, 0.054881252348423004, 0.033962927758693695, -0.7303452477247395, -0.1912844943044547, 3.3828896669886808
37194, 0.0, 0.0, 0.0, 0.0, 0.0, 0.07369977235794067, -0.009931175038218498, 0.20906515419483185, 0.0, 0.03588668629527092, 0.054986804723739624, 0.03395417332649231, -0.768189165354345, -0.17312600020238733, 3.442034694910964
37204, 0.0, 0.0, 0.0, 0.0, 0.0, -0.01013661827892065, 0.03653271868824959, 0.1577901393175125, 0.0, 0.03587464243173599, 0.05495504289865494, 0.03398691862821579, -0.7812659734856722, -0.2022139509073213, 3.4355501827610864
37214, 0.0, 0.0, 0.0, 0.0, 0.0, -0.05704830214381218, 0.025465231388807297, 0.10069327801465988, 0.0, 0.0359833650290966, 0.05486242473125458, 0.03397565335035324, -0.73513416575015, -0.18017694386355743, 3.3904995194777294
37224, 0.0, 0.0, 0.0, 0.0, 0.0, -0.24919100105762482, -0.04442983493208885, -0.0058898357674479485, 0.0, 0.035968851298093796, 0.05485467240214348, 0.03395453095436096, -0.7489180973085376, -0.1574230830202339, 3.387029291879734
37234, 0.0, 0.0, 0.0, 0.0, 0.0, -0.05097286030650139, -0.04433943331241608, -0.14819808304309845, 0.0, 0.03586377203464508, 0.05497267097234726, 0.033950746059417725, -0.7882027910162057, -0.19228814102288538, 3.437217928369072
37244, 0.0, 0.0, 0.0, 0.0, 0.0, 0.05451222509145737, -0.02411636710166931, 0.11761517822742462, 0.0, 0.03596310317516327, 0.05502566695213318, 0.03410070016980171, -0.5662251978720936, -0.21237909237413533, 3.363230941451954
37254, 0.0, 0.0, 0.0, 0.0, 0.0, -0.21707861125469208, -0.038555655628442764, -0.23422448337078094, 0.0, 0.03586485981941223, 0.054982028901576996, 0.03395726904273033, -0.7779529068071893, -0.1453977797312973, 3.452157173864917
37264, 0.0, 0.0, 0.0, 0.0, 0.0, 0.03282074257731438, 0.2289581298828125, -0.05213185027241707, 0.0, 0.035869479179382324, 0.05497288703918457, 0.033968206495046616, -0.7549604679115048, -0.1617222971764818, 3.453667665782295
37274, 0.0, 0.0, 0.0, 0.0, 0.0, -0.14514438807964325, 0.07369648665189743, -0.21211405098438263, 0.0, 0.03591276332736015, 0.05491724610328674, 0.033950865268707275, -0.7626764673728567, -0.18496606980485808, 3.4046116119188086
37284, 0.0, 0.0, 0.0, 0.0, 0.0, 0.1301308423280716, -0.054553356021642685, -0.12037014216184616, 0.0, 0.035974886268377304, 0.054852455854415894, 0.033971868455410004, -0.7226278407722343, -0.17900454965325707, 3.3873298305274817
37294, 0.0, 0.0, 0.0, 0.0, 0.0, -0.06884752213954926, 0.20161712169647217, 0.057127442210912704, 0.0, 0.035947706550359726, 0.054854944348335266, 0.03396524116396904, -0.7504564683441498, -0.21422403551238745, 3.3788248551167595
37304, 0.0, 0.0, 0.0, 0.0, 0.0, 0.11659472435712814, 0.008854597806930542, 0.07064773142337799, 0.0, 0.035874608904123306, 0.054971255362033844, 0.0339839868247509, -0.771163988946232, -0.14942931071570342, 3.4423627451533063
37314, 0.0, 0.0, 0.0, 0.0, 0.0, -0.017771312966942787, 0.13146807253360748, 0.22477145493030548, 0.0, 0.036015287041664124, 0.054878752678632736, 0.03396657109260559, -0.7603217915245409, -0.16499767518786257, 3.3388802600926155
37324, 0.0, 0.0, 0.0, 0.0, 0.0, -0.02896418236196041, -0.14824946224689484, 0.113848976790905, 0.0, 0.035877909511327744, 0.054962802678346634, 0.033952634781599045, -0.8023723289509129, -0.1969927082638776, 3.4393990117615085
37334, 0.0, 0.0, 0.0, 0.0, 0.0, 0.0459289625287056, 0.03440401330590248, -0.015278401784598827, 0.0, 0.03586411476135254, 0.054968953132629395, 0.03391899913549423, -0.776775258576482, -0.18043392464051067, 3.444458851004313
37344, 0.0, 0.0, 0.0, 0.0, 0.0, -0.04578493535518646, 0.19510197639465332, -0.06684643030166626, 0.0, 0.03588307648897171, 0.05497489124536514, 0.03396076336503029, -0.7796826781473936, -0.19079912706524738, 3.4384237251951424
37354, 0.0, 0.0, 0.0, 0.0, 0.0, 0.2313554584980011, 0.12368407845497131, -0.07249559462070465, 0.0, 0.03588081896305084, 0.054971132427453995, 0.033981803804636, -0.7740032840780641, -0.1977984771469039, 3.441629746665038
37364, 0.0, 0.0, 0.0, 0.0, 0.0, 0.02965572476387024, 0.13297206163406372, -0.02449273318052292, 0.0, 0.03587542474269867, 0.05497284606099129, 0.033966001123189926, -0.7574563098700683, -0.16685371973076712, 3.444914022663655
37374, 0.0, 0.0, 0.0, 0.0, 0.0, 0.1441095471382141, -0.1392141580581665, -0.15555618703365326, 0.0, 0.03588394820690155, 0.054965175688266754, 0.03393038362264633, -0.772144767231244, -0.15350154240385905, 3.431565713474218
37384, 0.0, 0.0, 0.0, 0.0, 0.0, 0.015153900720179081, 0.06213681772351265, -0.08076804876327515, 0.0, 0.035889968276023865, 0.054890990257263184, 0.034075502306222916, -0.899337366983406, 0.07615630770723669, 3.407967292407844
37394, 0.0, 0.0, 0.0, 0.0, 0.0, -0.04322214052081108, 0.0073594278655946255, 0.08790149539709091, 0.0, 0.03588821738958359, 0.0549730584025383, 0.03393419459462166, -0.7702111045597431, -0.17856724212049357, 3.443913123247216
37404, 0.0, 0.0, 0.0, 0.0, 0.0, 0.18048697710037231, 0.06230917572975159, 0.2003353089094162, 0.0, 0.03586650267243385, 0.0549824982881546, 0.03394434601068497, -0.7808065264255806, -0.17118293498083403, 3.45258904047293
37414, 0.0, 0.0, 0.0, 0.0, 0.0, -0.01767633855342865, 0.017453758046030998, 0.10410889983177185, 0.0, 0.03587694838643074, 0.05497904494404793, 0.03395361453294754, -0.7521944448812177, -0.19345767528352553, 3.4420244081766342
37424, 0.0, 0.0, 0.0, 0.0, 0.0, 0.08356968313455582, -0.23966659605503082, -0.05046434700489044, 0.0, 0.03587449714541435, 0.054958850145339966, 0.03395117074251175, -0.7747049191635863, -0.18330422805001945, 3.4414764531780278
37434, 0.0, 0.0, 0.0, 0.0, 0.0, -0.15536591410636902, -0.04720528423786163, -0.10583265870809555, 0.0, 0.03598484396934509, 0.054865337908267975, 0.03397766873240471, -0.7609603398391259, -0.17167423903688928, 3.39517463909616
37444, 0.0, 0.0, 0.0, 0.0, 0.0, -0.06624066829681396, -0.040920279920101166, 0.060503095388412476, 0.0, 0.03600141033530235, 0.0548865906894207, 0.03393460810184479, -0.7740078812110889, -0.19826904391638323, 3.3479526213382096
37454, 0.0, 0.0, 0.0, 0.0, 0.0, -0.05083288997411728, 0.12901581823825836, -0.11460745334625244, 0.0, 0.03586822748184204, 0.054982226341962814, 0.03395191207528114, -0.7550171151458278, -0.14726696950350515, 3.4519739356663086
37464, 0.0, 0.0, 0.0, 0.0, 0.0, 0.026370488107204437, -0.02074897661805153, 0.025346895679831505, 0.0, 0.03587930276989937, 0.05499427020549774, 0.033945560455322266, -0.7946566848818093, -0.1359495220236795, 3.4541821841248166
37474, 0.0, 0.0, 0.0, 0.0, 0.0, -0.1169428601861, 0.11479576677083969, -0.10395394265651703, 0.0, 0.03587596118450165, 0.054957807064056396, 0.0339401550590992, -0.7562025347589395, -0.20667864251683454, 3.440392830841255
37484, 0.0, 0.0, 0.0, 0.0, 0.0, 0.09961584210395813, -0.10049004852771759, 0.16065889596939087, 0.0, 0.035977207124233246, 0.05486692860722542, 0.03393791243433952, -0.7614650185263261, -0.19176699050183288, 3.3793705263762286
37494, 0.0, 0.0, 0.0, 0.0, 0.0, 0.008205384016036987, -0.046063125133514404, -0.17737284302711487, 0.0, 0.036004688590765, 0.05488438531756401, 0.033964790403842926, -0.7350751856736345, -0.16105174576028958, 3.3390911989742813
37504, 0.0, 0.0, 0.0, 0.0, 0.0, 0.03218087553977966, 0.008799789473414421, 0.009781579487025738, 0.0, 0.0358627587556839, 0.05496355518698692, 0.03392285108566284, -0.766015389031282, -0.18472434799804205, 3.45236698075483
37514, 0.0, 0.0, 0.0, 0.0, 0.0, -0.007954289205372334, -0.0664752796292305, 0.07289248704910278, 0.0, 0.03597036376595497, 0.05487228184938431, 0.03393443301320076, -0.7699252084682342, -0.17141083395245005, 3.3873711759182723
37524, 0.0, 0.0, 0.0, 0.0, 0.0, -0.18047328293323517, -0.15563759207725525, 0.01350620947778225, 0.0, 0.03597375750541687, 0.05484921112656593, 0.033965591341257095, -0.760332642227098, -0.19629403639305565, 3.3999245490145125
37534, 0.0, 0.0, 0.0, 0.0, 0.0, -0.15110471844673157, 0.32384347915649414, 0.045911308377981186, 0.0, 0.03597242012619972, 0.054862476885318756, 0.03394995629787445, -0.7436023154372249, -0.1967668304131962, 3.3945683044055777
37544, 0.0, 0.0, 0.0, 0.0, 0.0, 0.015054869465529919, -0.22867752611637115, -0.049386560916900635, 0.0, 0.035938479006290436, 0.05486714839935303, 0.03392443060874939, -0.7456935770256218, -0.20732911452327585, 3.3927819057651645
37554, 0.0, 0.0, 0.0, 0.0, 0.0, 0.10746472328901291, -0.07358106225728989, 0.022125912830233574, 0.0, 0.03600101172924042, 0.054916057735681534, 0.03395580127835274, -0.7444932669995863, -0.12972962148529632, 3.348789618912883
37564, 0.0, 0.0, 0.0, 0.0, 0.0, 0.01603679358959198, 0.14429223537445068, -0.09932584315538406, 0.0, 0.03586476668715477, 0.05498313158750534, 0.03394164890050888, -0.7474290722755779, -0.1493318918320483, 3.4373482692067987
37574, 0.0, 0.0, 0.0, 0.0, 0.0, 0.04850245639681816, -0.2620430290699005, -0.027417559176683426, 0.0, 0.03587231785058975, 0.05497048422694206, 0.03391098231077194, -0.765539518725704, -0.13377081959916381, 3.4295914529067746
37584, 0.0, 0.0, 0.0, 0.0, 0.0, 0.01172406505793333, -0.08669246733188629, -0.1965118944644928, 0.0, 0.03585659712553024, 0.05499028414487839, 0.03394026681780815, -0.752241835893088, -0.14514670242968464, 3.4255387011936524
37594, 0.0, 0.0, 0.0, 0.0, 0.0, -0.14662738144397736, 0.1429666429758072, 0.10834213346242905, 0.0, 0.03585042804479599, 0.054995760321617126, 0.033948853611946106, -0.7523346389687199, -0.1355466639050178, 3.4443473876816464
37604, 0.0, 0.0, 0.0, 0.0, 0.0, 0.15450574457645416, 0.014214325696229935, -0.01343449018895626, 0.0, 0.03587130084633827, 0.05498330295085907, 0.03392547369003296, -0.7762812969469842, -0.1813421752715101, 3.4445139452951943
37614, 0.0, 0.0, 0.0, 0.0, 0.0, 0.0679745227098465, 0.04452428221702576, -0.01773332990705967, 0.0, 0.03595088794827461, 0.05485093966126442, 0.033950820565223694, -0.7041002730029517, -0.1394559503471271, 3.3909956299887303
37624, 0.0, 0.0, 0.0, 0.0, 0.0, -0.00724532175809145, -0.07296577841043472, -0.07927463203668594, 0.0, 0.03584322705864906, 0.054983463138341904, 0.03396749123930931, -0.7682106057111002, -0.15074129735043584, 3.4440844927341936
37634, 0.0, 0.0, 0.0, 0.0, 0.0, 0.051528722047805786, -0.33982086181640625, -0.11194484680891037, 0.0, 0.03587028756737709, 0.054970718920230865, 0.033950794488191605, -0.788272584986281, -0.15940260809799156, 3.442104256817926
37644, 0.0, 0.0, 0.0, 0.0, 0.0, -0.01888924092054367, -0.18264202773571014, -0.14099368453025818, 0.0, 0.03596316650509834, 0.05485611408948898, 0.03395334631204605, -0.7447222360411911, -0.2197221673619083, 3.3869318416724794
37654, 0.0, 0.0, 0.0, 0.0, 0.0, -0.16312232613563538, -0.13447844982147217, 0.15604199469089508, 0.0, 0.035966336727142334, 0.054859694093465805, 0.03397352248430252, -0.7718887876832888, -0.17393435152342818, 3.3847601181590563
37664, 0.0, 0.0, 0.0, 0.0, 0.0, 0.21543151140213013, -0.031819287687540054, 0.03803776204586029, 0.0, 0.03603265807032585, 0.05481920391321182, 0.03409777209162712, -0.8982637309558921, 0.08893434360030028, 3.320757499392521
37674, 0.0, 0.0, 0.0, 0.0, 0.0, -0.08401870727539062, 0.01470915600657463, -0.04598722234368324, 0.0, 0.03586488217115402, 0.05497100204229355, 0.03392669931054115, -0.7760077196946261, -0.17144320553634884, 3.444019795920227
37684, 0.0, 0.0, 0.0, 0.0, 0.0, -0.0004179328680038452, 0.23412203788757324, 0.1298900991678238, 0.0, 0.03585483878850937, 0.054998673498630524, 0.03394455835223198, -0.7910217029742107, -0.14630576473626888, 3.460509538237603
37694, 0.0, 0.0, 0.0, 0.0, 0.0, -0.040521521121263504, 0.009419594891369343, 0.0815202072262764, 0.0, 0.03586361184716225, 0.05483683571219444, 0.03404316306114197, -0.7908782632121502, 0.0015165736415099218, 3.3035933565814664
37704, 0.0, 0.0, 0.0, 0.0, 0.0, -0.0045317430049180984, 0.014760607853531837, 0.12278223037719727, 0.0, 0.03583930432796478, 0.05480607971549034, 0.03415326029062271, -0.7918223144071977, -0.40253867303508173, 3.419797813298832
37714, 0.0, 0.0, 0.0, 0.0, 0.0, -0.22830089926719666, -0.064323291182518, 0.11074943840503693, 0.0, 0.03585987910628319, 0.05499749258160591, 0.033958736807107925, -0.771437589691797, -0.1682828163795307, 3.453491318558741
37724, 0.0, 0.0, 0.0, 0.0, 0.0, -0.010682925581932068, 0.25776249170303345, -0.05656164139509201, 0.0, 0.03589272126555443, 0.05495227873325348, 0.03393387794494629, -0.7632350071319922, -0.16700786636354792, 3.453009590280349
37734, 0.0, 0.0, 0.0, 0.0, 0.0, 0.007714594714343548, 0.10464084893465042, -0.060797739773988724, 0.0, 0.035919539630413055, 0.0548875518143177, 0.03394753113389015, -0.764007620887338, -0.17553520562935887, 3.3845031207610186
37744, 0.0, 0.0, 0.0, 0.0, 0.0, 0.020705096423625946, 0.08963214606046677, 0.04467207193374634, 0.0, 0.03576027974486351, 0.05494149029254913, 0.034021928906440735, -0.8287125411429743, 0.038841065135756025, 3.3553068367362036
37754, 0.0, 0.0, 0.0, 0.0, 0.0, 0.03346988931298256, -0.10293281823396683, 0.040289126336574554, 0.0, 0.03585672006011009, 0.054992299526929855, 0.0339575931429863, -0.7657511507054052, -0.1556392259029451, 3.4488956997783022
37764, 0.0, 0.0, 0.0, 0.0, 0.0, -0.15257719159126282, 0.14805009961128235, 0.32327595353126526, 0.0, 0.03596247732639313, 0.05487275868654251, 0.03398970887064934, -0.7370802704474314, -0.16907965883629572, 3.384259591502139
37774, 0.0, 0.0, 0.0, 0.0, 0.0, -0.1057760939002037, 0.08521438390016556, 0.03214222937822342, 0.0, 0.0358746238052845, 0.054980214685201645, 0.033944062888622284, -0.7696655869746918, -0.18553224626128895, 3.4486197668075063
37784, 0.0, 0.0, 0.0, 0.0, 0.0, -0.053486716002225876, -0.21514514088630676, 0.004717565607279539, 0.0, 0.035963524132966995, 0.05487477034330368, 0.03393245115876198, -0.7370284434948963, -0.15112859785574528, 3.4003851428728864
37794, 0.0, 0.0, 0.0, 0.0, 0.0, 0.12765797972679138, 0.07488145679235458, -0.1592625081539154, 0.0, 0.03586059808731079, 0.054972585290670395, 0.03400787338614464, -0.7715112772664688, -0.18088985044406058, 3.434291435741314
37804, 0.0, 0.0, 0.0, 0.0, 0.0, -0.1360049545764923, -0.01583639718592167, 0.0961267501115799, 0.0, 0.03595598042011261, 0.054848186671733856, 0.03393926844000816, -0.714577876661303, -0.17365146080140903, 3.38456767333999
37814, 0.0, 0.0, 0.0, 0.0, 0.0, 0.08575788140296936, 0.0630250796675682, -0.030276473611593246, 0.0, 0.03596021607518196, 0.05484452843666077, 0.0341353565454483, -0.9305978149734522, 0.27747073425462077, 3.377789671186677
37824, 0.0, 0.0, 0.0, 0.0, 0.0, -0.16529539227485657, -0.12467709928750992, -0.031094925478100777, 0.0, 0.0359746590256691, 0.054857272654771805, 0.0339360237121582, -0.7487108287474885, -0.13334536667829866, 3.398208859306811
37834, 0.0, 0.0, 0.0, 0.0, 0.0, 0.08504362404346466, -0.20628026127815247, -0.052012503147125244, 0.0, 0.03596204146742821, 0.05485586076974869, 0.03398202359676361, -0.7383805398341938, -0.16933825523057067, 3.3883214048949166
37844, 0.0, 0.0, 0.0, 0.0, 0.0, 0.09287823736667633, -0.037273310124874115, 0.2261989861726761, 0.0, 0.03586288541555405, 0.054996225982904434, 0.03397282958030701, -0.746474154636014, -0.18689580844159082, 3.454129684064784
37854, 0.0, 0.0, 0.0, 0.0, 0.0, -0.14003968238830566, -0.039330337196588516, 0.1319776475429535, 0.0, 0.03607962280511856, 0.054702259600162506, 0.03415282815694809, -0.9372668329189109, 0.24369802271178287, 3.3703462424310926
37864, 0.0, 0.0, 0.0, 0.0, 0.0, 0.16561837494373322, -0.13587169349193573, 0.29823294281959534, 0.0, 0.03585038706660271, 0.054980844259262085, 0.033950258046388626, -0.7976508054029002, -0.17464095872907137, 3.4285295235838444
37874, 0.0, 0.0, 0.0, 0.0, 0.0, 0.07575345784425735, 0.2036312371492386, 0.07614514231681824, 0.0, 0.03588270768523216, 0.05497664958238602, 0.03395666554570198, -0.7553242690144237, -0.17129445248966135, 3.436708298116753
37884, 0.0, 0.0, 0.0, 0.0, 0.0, 0.07878522574901581, -0.0711391493678093, 0.058336324989795685, 0.0, 0.035967957228422165, 0.05485391616821289, 0.03396489843726158, -0.7368456278690044, -0.20034917008823072, 3.3899412604891674
37894, 0.0, 0.0, 0.0, 0.0, 0.0, 0.10356684029102325, -0.1305699646472931, -0.04616054147481918, 0.0, 0.035821009427309036, 0.054811395704746246, 0.03412356600165367, -0.7717242771485625, -0.3874612920688776, 3.426460451474502
37904, 0.0, 0.0, 0.0, 0.0, 0.0, 0.009525585919618607, 0.16700533032417297, 0.004229764919728041, 0.0, 0.035969268530607224, 0.05486470088362694, 0.033927157521247864, -0.7419104448892231, -0.21276981782853, 3.379852207187212
37914, 0.0, 0.0, 0.0, 0.0, 0.0, 0.030865946784615517, -0.2446078509092331, 0.13740208745002747, 0.0, 0.036000002175569534, 0.05490192770957947, 0.03395678475499153, -0.7880062049043227, -0.19511045614598288, 3.3443587915851576
37924, 0.0, 0.0, 0.0, 0.0, 0.0, -0.12482902407646179, -0.05596179887652397, -0.11373668909072876, 0.0, 0.03586578369140625, 0.05498672276735306, 0.03399660065770149, -0.7690616100176054, -0.1719597140056237, 3.4450470119394403
37934, 0.0, 0.0, 0.0, 0.0, 0.0, 0.2179040014743805, 0.08682426810264587, 0.02702472358942032, 0.0, 0.03598080202937126, 0.05485736206173897, 0.033965691924095154, -0.7670509801289366, -0.18545932558896538, 3.3738580764238444
37944, 0.0, 0.0, 0.0, 0.0, 0.0, -0.11880741268396378, -0.1844625622034073, 0.03420651704072952, 0.0, 0.03584575280547142, 0.05499134212732315, 0.033946432173252106, -0.7829180247728655, -0.1759016444432291, 3.4352406519861924
37954, 0.0, 0.0, 0.0, 0.0, 0.0, 0.08708618581295013, -0.004760919138789177, -0.017617391422390938, 0.0, 0.035881407558918, 0.05496295541524887, 0.033887460827827454, -0.801450593046235, -0.15306617851652504, 3.4467965203341757
37964, 0.0, 0.0, 0.0, 0.0, 0.0, 0.07994667440652847, -0.10299478471279144, 0.03755534067749977, 0.0, 0.03586918115615845, 0.05496580898761749, 0.033943060785532, -0.7833945122700964, -0.20019099536580143, 3.443203004845016
37974, 0.0, 0.0, 0.0, 0.0, 0.0, 0.0926978811621666, 0.12496542930603027, 0.21269918978214264, 0.0, 0.035872526466846466, 0.05498997122049332, 0.03397524729371071, -0.7905417868584046, -0.19319313051329345, 3.4202733413738846
37984, 0.0, 0.0, 0.0, 0.0, 0.0, -0.10026939958333969, 0.17741714417934418, -0.047128964215517044, 0.0, 0.03596983850002289, 0.054854948073625565, 0.033971358090639114, -0.7366678770068743, -0.18077822115606068, 3.3844099076371923
37994, 0.0, 0.0, 0.0, 0.0, 0.0, -0.20795093476772308, 0.1341676265001297, 0.2012001872062683, 0.0, 0.035861771553754807, 0.05497125908732414, 0.033947233110666275, -0.7624293215980715, -0.14046239067562283, 3.4415781372699796
38004, 0.0, 0.0, 0.0, 0.0, 0.0, 0.014830955304205418, -0.19631348550319672, 0.08953090012073517, 0.0, 0.03582678362727165, 0.05482935532927513, 0.034137509763240814, -0.7858219643442167, -0.40189197092041695, 3.4159551677834865
38014, 0.0, 0.0, 0.0, 0.0, 0.0, -0.1540529429912567, 0.09484336525201797, -0.16777397692203522, 0.0, 0.03596499562263489, 0.05485888943076134, 0.03392937779426575, -0.7644578105556781, -0.17177409301413604, 3.3764326569858194
38024, 0.0, 0.0, 0.0, 0.0, 0.0, 0.10017482191324234, 0.001441734959371388, 0.0526852048933506, 0.0, 0.03596868738532066, 0.05485875532031059, 0.03396618366241455, -0.734289441882037, -0.15006954314966947, 3.3754344237113867
38034, 0.0, 0.0, 0.0, 0.0, 0.0, -0.05980288237333298, 0.04597805440425873, 0.12649014592170715, 0.0, 0.035860031843185425, 0.054969873279333115, 0.03393835201859474, -0.7737083360534545, -0.1986390022736657, 3.443992160165424
38044, 0.0, 0.0, 0.0, 0.0, 0.0, 0.004465247970074415, 0.11474829167127609, 0.1011722981929779, 0.0, 0.035860031843185425, 0.054969873279333115, 0.03393835201859474, -0.7737083360534545, -0.1986390022736657, 3.443992160165424
38054, 0.0, 0.0, 0.0, 0.0, 0.0, 0.09720216691493988, 0.10158927738666534, 0.13884781301021576, 0.0, 0.035873427987098694, 0.05498369783163071, 0.03392481803894043, -0.7702613897445314, -0.18214928410662878, 3.4407838277250242
38064, 0.0, 0.0, 0.0, 0.0, 0.0, 0.08420618623495102, 0.14847995340824127, 0.04046686738729477, 0.0, 0.0358683243393898, 0.054961368441581726, 0.033953625708818436, -0.7616765196706101, -0.15955672983020008, 3.4436308343049964
38074, 0.0, 0.0, 0.0, 0.0, 0.0, 0.018746916204690933, -0.15502667427062988, 0.12849922478199005, 0.0, 0.03593695908784866, 0.05487414076924324, 0.03394822031259537, -0.7452584986714347, -0.1412267002608587, 3.385435407870544
38084, 0.0, 0.0, 0.0, 0.0, 0.0, -0.10866551846265793, 0.09883340448141098, -0.10491600632667542, 0.0, 0.035954419523477554, 0.05485934019088745, 0.03397224470973015, -0.7246645126116218, -0.16487987323898778, 3.40012115417327
38094, 0.0, 0.0, 0.0, 0.0, 0.0, -0.04268288239836693, 0.09222806990146637, -0.020162245258688927, 0.0, 0.03595687076449394, 0.05484334006905556, 0.033980224281549454, -0.7464039388788082, -0.18765105296395745, 3.382436096987878
38104, 0.0, 0.0, 0.0, 0.0, 0.0, -0.09986690431833267, 0.16345731914043427, 0.060348521918058395, 0.0, 0.03587803989648819, 0.05494897440075874, 0.03392597287893295, -0.7886510076410791, -0.1482636844604599, 3.434688438699343
38114, 0.0, 0.0, 0.0, 0.0, 0.0, 0.2007787823677063, -0.05971943214535713, -0.09458358585834503, 0.0, 0.0359189473092556, 0.05491507425904274, 0.03397523984313011, -0.7624438097516536, -0.17410728754532556, 3.415581717504345
38124, 0.0, 0.0, 0.0, 0.0, 0.0, -0.12312175333499908, -0.1798442304134369, 0.06946005672216415, 0.0, 0.035897985100746155, 0.054975397884845734, 0.033965129405260086, -0.7422993458784186, -0.16690076523286734, 3.450496704207678
38134, 0.0, 0.0, 0.0, 0.0, 0.0, 0.030757028609514236, 0.034303370863199234, 0.027152402326464653, 0.0, 0.035965695977211, 0.055015042424201965, 0.034082431346178055, -0.5887411386140734, -0.18269528715418915, 3.375078538022574
38144, 0.0, 0.0, 0.0, 0.0, 0.0, -0.15236711502075195, 0.11960364133119583, -0.004157545045018196, 0.0, 0.035965695977211, 0.055015042424201965, 0.034082431346178055, -0.5887411386140734, -0.18269528715418915, 3.375078538022574
38154, 0.0, 0.0, 0.0, 0.0, 0.0, 0.10767331719398499, 0.12460239976644516, 0.042134590446949005, 0.0, 0.03587211295962334, 0.054988134652376175, 0.03394332900643349, -0.7814321000460687, -0.15698783552755913, 3.4452328598378292
38164, 0.0, 0.0, 0.0, 0.0, 0.0, 0.16474753618240356, 0.0009893174283206463, 0.09203629940748215, 0.0, 0.035863664001226425, 0.05500011891126633, 0.03395375981926918, -0.7544879435395324, -0.16651019059239047, 3.4535112010894244
38174, 0.0, 0.0, 0.0, 0.0, 0.0, -0.029521293938159943, 0.012693991884589195, 0.046578433364629745, 0.0, 0.035862091928720474, 0.054979175329208374, 0.03395913541316986, -0.7283890212628337, -0.15853813053774957, 3.4453116783809015
38184, 0.0, 0.0, 0.0, 0.0, 0.0, -0.2158670723438263, 0.09644213318824768, 0.01661272533237934, 0.0, 0.035966530442237854, 0.0548589825630188, 0.033948272466659546, -0.7810417696298427, -0.15832047228934698, 3.382136621336353
38194, 0.0, 0.0, 0.0, 0.0, 0.0, 0.01100698858499527, 0.3749856650829315, 0.00888308510184288, 0.0, 0.035879869014024734, 0.05495549365878105, 0.033973436802625656, -0.7441330102871766, -0.18007612170683274, 3.4418668041900475
38204, 0.0, 0.0, 0.0, 0.0, 0.0, 0.01800326444208622, -0.2521473169326782, 0.17516228556632996, 0.0, 0.0359579361975193, 0.05486616864800453, 0.0339750237762928, -0.7402600891292231, -0.20073549390104972, 3.388987720514239
38214, 0.0, 0.0, 0.0, 0.0, 0.0, -0.045399878174066544, 0.18978945910930634, -0.13648785650730133, 0.0, 0.03591237589716911, 0.05491450056433678, 0.03397633507847786, -0.7736413460891548, -0.17051601394302907, 3.4179956496289416
38224, 0.0, 0.0, 0.0, 0.0, 0.0, -0.04450454190373421, -0.1386042982339859, -0.04421631246805191, 0.0, 0.03595659136772156, 0.054873377084732056, 0.03393174335360527, -0.7515784877081715, -0.19215510455248364, 3.384162856172451
38234, 0.0, 0.0, 0.0, 0.0, 0.0, 0.10844443738460541, -0.17321151494979858, -0.06885223090648651, 0.0, 0.03586960211396217, 0.05497419089078903, 0.033939484506845474, -0.7594337461378464, -0.14997554749268716, 3.4333232933686104
38244, 0.0, 0.0, 0.0, 0.0, 0.0, -0.22516052424907684, 0.07151185721158981, 0.022353919222950935, 0.0, 0.03594844788312912, 0.05485624819993973, 0.033965881913900375, -0.7103019446675944, -0.18298561046321993, 3.4028021626634586
38254, 0.0, 0.0, 0.0, 0.0, 0.0, 0.13954074680805206, -0.012174798175692558, 0.026928715407848358, 0.0, 0.03585798665881157, 0.05495721474289894, 0.033949531614780426, -0.7862970159012599, -0.17710780523535163, 3.4463629543148233
38264, 0.0, 0.0, 0.0, 0.0, 0.0, -0.07557672262191772, 0.05523398146033287, -0.07886084914207458, 0.0, 0.035955313593149185, 0.05484316498041153, 0.03395457565784454, -0.741197184423459, -0.16719230547639086, 3.39938336454904
38274, 0.0, 0.0, 0.0, 0.0, 0.0, -0.02543485350906849, 0.03298109397292137, 0.045588169246912, 0.0, 0.035925474017858505, 0.054906152188777924, 0.03394642844796181, -0.7646204151100428, -0.18017648846335987, 3.417418021496396
38284, 0.0, 0.0, 0.0, 0.0, 0.0, 0.0842561200261116, -0.3051590025424957, -0.09543310850858688, 0.0, 0.035953544080257416, 0.05487034469842911, 0.03395894542336464, -0.7963414653479073, -0.1918396009617993, 3.3921806229488705
38294, 0.0, 0.0, 0.0, 0.0, 0.0, -0.09242071956396103, 0.09133222699165344, -0.07281613349914551, 0.0, 0.03608206287026405, 0.05469338595867157, 0.03419053927063942, -0.9892352443014371, 0.2399573553918799, 3.3522152137798447
38304, 0.0, 0.0, 0.0, 0.0, 0.0, -0.06161697581410408, -0.17288269102573395, 0.024819007143378258, 0.0, 0.03585943952202797, 0.05500255152583122, 0.03397449478507042, -0.7668869746281218, -0.1409622538756139, 3.444709846217375
38314, 0.0, 0.0, 0.0, 0.0, 0.0, 0.15281613171100616, -0.3339695334434509, 0.0028203611727803946, 0.0, 0.03586467355489731, 0.05499247834086418, 0.03394682705402374, -0.7546844826331054, -0.1586578642625227, 3.436175267181065
38324, 0.0, 0.0, 0.0, 0.0, 0.0, 0.16836333274841309, -0.09011050313711166, -0.03779267519712448, 0.0, 0.035937607288360596, 0.05486153066158295, 0.03400616720318794, -0.7576177168588072, -0.15126130275876903, 3.3822031643019117
38334, 0.0, 0.0, 0.0, 0.0, 0.0, 0.10367576032876968, 0.06488783657550812, 0.19815585017204285, 0.0, 0.03586139157414436, 0.05497919023036957, 0.03393136337399483, -0.7718196009974614, -0.15886839379018625, 3.440971516410877
38344, 0.0, 0.0, 0.0, 0.0, 0.0, 0.11524130403995514, -0.15210703015327454, -0.01923615299165249, 0.0, 0.035955607891082764, 0.05486660078167915, 0.033970631659030914, -0.7254839869395266, -0.24386108407264828, 3.402200670674599
38354, 0.0, 0.0, 0.0, 0.0, 0.0, -0.01029589306563139, -0.07133546471595764, -0.03019776940345764, 0.0, 0.03595684468746185, 0.05488431826233864, 0.03399284929037094, -0.7266987127377892, -0.16674726257190287, 3.3958045826909675
38364, 0.0, 0.0, 0.0, 0.0, 0.0, -0.11567510664463043, -0.036613430827856064, -0.051401954144239426, 0.0, 0.03588414937257767, 0.05497049540281296, 0.03396584838628769, -0.7525447168475614, -0.15349653110698114, 3.4359475012564475
38374, 0.0, 0.0, 0.0, 0.0, 0.0, -0.18319682776927948, 0.18974155187606812, -0.18980613350868225, 0.0, 0.03585740923881531, 0.054998259991407394, 0.03396434336900711, -0.7564991344715402, -0.12415357931058679, 3.4285745062484936
38384, 0.0, 0.0, 0.0, 0.0, 0.0, -0.1040089875459671, -0.05333502218127251, 0.022878149524331093, 0.0, 0.03598758950829506, 0.05485506355762482, 0.03396075218915939, -0.7358166791513304, -0.18158230726984925, 3.3879230178569326
38394, 0.0, 0.0, 0.0, 0.0, 0.0, -0.1623658835887909, -0.08591241389513016, 0.0011616245610639453, 0.0, 0.03587333858013153, 0.05495825409889221, 0.03392592817544937, -0.7832069996123615, -0.18202801222747667, 3.4345996082375976
38404, 0.0, 0.0, 0.0, 0.0, 0.0, 0.10816533118486404, -0.07559976726770401, -0.1468733251094818, 0.0, 0.03587401285767555, 0.05497589707374573, 0.03395487368106842, -0.7646655135039966, -0.1663853622650322, 3.4354388228678117
38414, 0.0, 0.0, 0.0, 0.0, 0.0, 0.042867422103881836, 0.22111447155475616, 0.10688116401433945, 0.0, 0.03588144853711128, 0.055003050714731216, 0.03396392613649368, -0.7676331918902399, -0.1580799482557893, 3.4439954958496237
38424, 0.0, 0.0, 0.0, 0.0, 0.0, 0.1723800003528595, -0.1541614830493927, 0.05575767159461975, 0.0, 0.03596755489706993, 0.05487101525068283, 0.03395439684391022, -0.7479632839883932, -0.20953505065872946, 3.382678689863594
38434, 0.0, 0.0, 0.0, 0.0, 0.0, 0.19856995344161987, 0.0007436528103426099, -0.1363912671804428, 0.0, 0.03596530482172966, 0.05485892668366432, 0.03394273295998573, -0.775273594572725, -0.2098516369615595, 3.394305689085639
38444, 0.0, 0.0, 0.0, 0.0, 0.0, 0.085082046687603, 0.07735516130924225, -0.04706062003970146, 0.0, 0.035911064594984055, 0.05490703508257866, 0.033950481563806534, -0.7568099304866184, -0.17436910137968198, 3.4020670466172893
38454, 0.0, 0.0, 0.0, 0.0, 0.0, 0.05257659777998924, -0.07611387223005295, -0.13675010204315186, 0.0, 0.035964444279670715, 0.05486152321100235, 0.03395719826221466, -0.7052893158978405, -0.19817177231263372, 3.397415796504945
38464, 0.0, 0.0, 0.0, 0.0, 0.0, 0.1245352253317833, -0.016011053696274757, 0.02390316314995289, 0.0, 0.03590588644146919, 0.054939500987529755, 0.033971864730119705, -0.7519572084141386, -0.12277164125541162, 3.404371814475807
38474, 0.0, 0.0, 0.0, 0.0, 0.0, -0.1087862029671669, -0.20906443893909454, -0.03420228883624077, 0.0, 0.03585797920823097, 0.05497084558010101, 0.03396916761994362, -0.776874301777904, -0.16448546924561924, 3.434302812637208
38484, 0.0, 0.0, 0.0, 0.0, 0.0, 0.17557929456233978, -0.3241950273513794, 0.09938061982393265, 0.0, 0.035861339420080185, 0.05498449504375458, 0.03394940122961998, -0.7837391559026049, -0.17312388239565735, 3.4300550599314437
38494, 0.0, 0.0, 0.0, 0.0, 0.0, -0.060876064002513885, -0.002639672253280878, 0.29550427198410034, 0.0, 0.03596145659685135, 0.05486361309885979, 0.03397637605667114, -0.7721118391733663, -0.2012691907079045, 3.3888244553502713
38504, 0.0, 0.0, 0.0, 0.0, 0.0, 0.1328519582748413, -0.12323462218046188, 0.11645126342773438, 0.0, 0.03594532981514931, 0.05489099770784378, 0.03398242965340614, -0.7107409340625953, -0.1463974269581172, 3.3783941318398365
38514, 0.0, 0.0, 0.0, 0.0, 0.0, 0.14098158478736877, -0.001733363838866353, -0.00044706574408337474, 0.0, 0.03594823181629181, 0.0548163503408432, 0.034158919006586075, -0.9710722393902569, 0.26699670279862175, 3.3861761800776633
38524, 0.0, 0.0, 0.0, 0.0, 0.0, -0.06068621948361397, 0.10174140334129333, 0.056882284581661224, 0.0, 0.03583946451544762, 0.05499555170536041, 0.033944595605134964, -0.7331591465721542, -0.14564739164973162, 3.4467496795153205
38534, 0.0, 0.0, 0.0, 0.0, 0.0, 0.23752272129058838, 0.20991107821464539, 0.08565881848335266, 0.0, 0.03584694489836693, 0.05499368533492088, 0.03392874449491501, -0.7689995373270988, -0.18922206379491513, 3.436826290061781
38544, 0.0, 0.0, 0.0, 0.0, 0.0, 0.1115252748131752, -0.1379571557044983, -0.1009240671992302, 0.0, 0.03585193678736687, 0.054994676262140274, 0.033972468227148056, -0.7838214259364933, -0.14111842639971428, 3.440404144123608
38554, 0.0, 0.0, 0.0, 0.0, 0.0, 0.008924971334636211, -0.03573979437351227, 0.043613824993371964, 0.0, 0.035868093371391296, 0.05495266616344452, 0.03393883258104324, -0.7407143641515981, -0.15446019848079118, 3.4447932577305336
38564, 0.0, 0.0, 0.0, 0.0, 0.0, -0.091373011469841, -0.047841962426900864, -0.07599964737892151, 0.0, 0.03592344745993614, 0.054913073778152466, 0.033964358270168304, -0.7617708881591562, -0.16868803910136876, 3.409108096408668
38574, 0.0, 0.0, 0.0, 0.0, 0.0, 0.2601718306541443, -0.2583811283111572, 0.2014114111661911, 0.0, 0.03602990508079529, 0.05490526184439659, 0.0339505672454834, -0.8019656479168036, -0.2149269537491989, 3.3461304557386042
38584, 0.0, 0.0, 0.0, 0.0, 0.0, 0.08505657315254211, 0.009981448762118816, -0.016336770728230476, 0.0, 0.035877078771591187, 0.05496913567185402, 0.033946216106414795, -0.7698240548057105, -0.16301097688653954, 3.4481389207818625
38594, 0.0, 0.0, 0.0, 0.0, 0.0, 0.015792638063430786, -0.008726943284273148, 0.07034940272569656, 0.0, 0.03572693094611168, 0.05485076084733009, 0.03400154784321785, -0.825087085333979, -0.03322888885656994, 3.247933991262018
38604, 0.0, 0.0, 0.0, 0.0, 0.0, -0.13119633495807648, 0.23941564559936523, 0.10068391263484955, 0.0, 0.03587495535612106, 0.05498393997550011, 0.033945392817258835, -0.7658958212214897, -0.175950695695974, 3.4448639290438705
38614, 0.0, 0.0, 0.0, 0.0, 0.0, 0.014370398595929146, -0.058055177330970764, -0.13112196326255798, 0.0, 0.035877615213394165, 0.054962363094091415, 0.0339459590613842, -0.7599195640700682, -0.1662441943202282, 3.4519027013156722
38624, 0.0, 0.0, 0.0, 0.0, 0.0, 0.06649381667375565, 0.04048345237970352, 0.1645820140838623, 0.0, 0.03595398738980293, 0.054861195385456085, 0.03395356982946396, -0.7392100817699998, -0.1752222229637539, 3.383095219860726
38634, 0.0, 0.0, 0.0, 0.0, 0.0, -0.3184140622615814, -0.11293762177228928, 0.08322753012180328, 0.0, 0.0358753465116024, 0.0549786351621151, 0.03393840417265892, -0.7609535046894648, -0.15570388217173559, 3.441261513759137
38644, 0.0, 0.0, 0.0, 0.0, 0.0, -0.03149205073714256, 0.15453971922397614, 0.16078992187976837, 0.0, 0.03586659952998161, 0.05496981739997864, 0.0339498408138752, -0.7825562295307982, -0.1773539243611424, 3.444033000371354
38654, 0.0, 0.0, 0.0, 0.0, 0.0, 0.23637837171554565, -0.02497851848602295, 0.15653575956821442, 0.0, 0.03584232181310654, 0.05497797951102257, 0.03397839888930321, -0.7395237214741782, -0.175953924832271, 3.450328356349042
38664, 0.0, 0.0, 0.0, 0.0, 0.0, 0.2375277429819107, -0.08279956132173538, -0.060132626444101334, 0.0, 0.036013439297676086, 0.054889049381017685, 0.03391951322555542, -0.7658609684507672, -0.17608644773142146, 3.3421581603485935
38674, 0.0, 0.0, 0.0, 0.0, 0.0, -0.03524855896830559, 0.18769875168800354, -0.05081694573163986, 0.0, 0.03590104356408119, 0.054905641824007034, 0.033964548259973526, -0.7800178201560805, -0.1982368952422462, 3.418802796107223
38684, 0.0, 0.0, 0.0, 0.0, 0.0, 0.17911799252033234, -0.14819589257240295, -0.009749568067491055, 0.0, 0.035947151482105255, 0.05486986041069031, 0.03394544869661331, -0.7288335064218847, -0.19699708249942205, 3.3897441089390723
38694, 0.0, 0.0, 0.0, 0.0, 0.0, -0.08256816864013672, 0.3093266785144806, -0.1140357255935669, 0.0, 0.035867635160684586, 0.05496782809495926, 0.03394586592912674, -0.7404865791512936, -0.1482257731749712, 3.430318867220374
38704, 0.0, 0.0, 0.0, 0.0, 0.0, 0.2129906266927719, 0.22681240737438202, 0.1215142160654068, 0.0, 0.035867635160684586, 0.05496782809495926, 0.03394586592912674, -0.7404865791512936, -0.1482257731749712, 3.430318867220374
38714, 0.0, 0.0, 0.0, 0.0, 0.0, -0.03401573374867439, -0.2885022759437561, -0.09441850334405899, 0.0, 0.03589014336466789, 0.054963842034339905, 0.03392360359430313, -0.7772652416302929, -0.1864108118025456, 3.447136443797897
38724, 0.0, 0.0, 0.0, 0.0, 0.0, 0.20585989952087402, -0.16926522552967072, 0.17119643092155457, 0.0, 0.03595142811536789, 0.05487578362226486, 0.03394965082406998, -0.7285370553845876, -0.18821747616397033, 3.3820618045327215
38734, 0.0, 0.0, 0.0, 0.0, 0.0, -0.10897812247276306, 0.049938857555389404, -0.2716425955295563, 0.0, 0.03587399795651436, 0.054993607103824615, 0.03396241366863251, -0.7814381818822465, -0.1697890987640278, 3.442044880075745
38744, 0.0, 0.0, 0.0, 0.0, 0.0, 0.1174975261092186, 0.10736485570669174, -0.05459463968873024, 0.0, 0.035893987864255905, 0.05497400835156441, 0.03392188251018524, -0.7438044713466326, -0.17302603257220994, 3.438873193049697
38754, 0.0, 0.0, 0.0, 0.0, 0.0, 0.006968616973608732, 0.08952751010656357, 0.021925093606114388, 0.0, 0.03584149852395058, 0.054996516555547714, 0.03395644202828407, -0.7755361495213855, -0.18008744087498485, 3.4528078618498634
38764, 0.0, 0.0, 0.0, 0.0, 0.0, -0.06840887665748596, -0.2667677104473114, 0.12450481951236725, 0.0, 0.03594899922609329, 0.05488196015357971, 0.03399687632918358, -0.7237036332413604, -0.17447064636755272, 3.3858282497831884
38774, 0.0, 0.0, 0.0, 0.0, 0.0, -0.009024814702570438, 0.0703873410820961, -0.06534992158412933, 0.0, 0.0358615443110466, 0.05498776584863663, 0.03395339846611023, -0.7434271415112924, -0.16850129473476727, 3.4398125010959086
38784, 0.0, 0.0, 0.0, 0.0, 0.0, 0.050241995602846146, -0.13868393003940582, -0.03878738358616829, 0.0, 0.035866186022758484, 0.054993774741888046, 0.03396772965788841, -0.7449122384859644, -0.14933641401833597, 3.4308211889014775
38794, 0.0, 0.0, 0.0, 0.0, 0.0, -0.031508203595876694, -0.030947761610150337, -0.10856793820858002, 0.0, 0.035965174436569214, 0.054863814264535904, 0.03395203500986099, -0.7224076987098699, -0.13847250116208443, 3.38949977965302
38804, 0.0, 0.0, 0.0, 0.0, 0.0, 0.08926969766616821, 0.13812187314033508, 0.08048443496227264, 0.0, 0.03612643480300903, 0.054738570004701614, 0.0341748371720314, -1.0218512028176523, 0.245453150284078, 3.2864910898399198
38814, 0.0, 0.0, 0.0, 0.0, 0.0, 0.06413420289754868, -0.3082670271396637, -0.18174979090690613, 0.0, 0.03595064952969551, 0.0548810176551342, 0.033999182283878326, -0.7122586117239502, -0.12525742964137976, 3.4057792193120173
38824, 0.0, 0.0, 0.0, 0.0, 0.0, 0.17097842693328857, -0.05041398108005524, 0.17540471255779266, 0.0, 0.035853736102581024, 0.05496831238269806, 0.03390954062342644, -0.7781306306360612, -0.1235682425130733, 3.4420812050578995
38834, 0.0, 0.0, 0.0, 0.0, 0.0, -0.2695033848285675, 0.12698650360107422, 0.13931643962860107, 0.0, 0.03587860241532326, 0.05496746301651001, 0.03396712243556976, -0.7454292202837539, -0.17839578910806608, 3.4383023023455035
38844, 0.0, 0.0, 0.0, 0.0, 0.0, 0.025713540613651276, -0.026941830292344093, -0.11281021684408188, 0.0, 0.03585629165172577, 0.05497460067272186, 0.033955663442611694, -0.757885288185369, -0.16184831116819964, 3.434318008627163
38854, 0.0, 0.0, 0.0, 0.0, 0.0, 0.08979828655719757, -0.0698530375957489, -0.03129706531763077, 0.0, 0.03596044331789017, 0.054790254682302475, 0.034027114510536194, -0.8880949747933782, 0.032210670618297854, 3.2258650075387005
38864, 0.0, 0.0, 0.0, 0.0, 0.0, 0.12434449791908264, 0.1860075145959854, -0.021958908066153526, 0.0, 0.035859059542417526, 0.05497634783387184, 0.03397134318947792, -0.7564023501263106, -0.1358819279299155, 3.434909832265247
38874, 0.0, 0.0, 0.0, 0.0, 0.0, 0.07334353774785995, -0.14419052004814148, 0.1811370700597763, 0.0, 0.035957641899585724, 0.0548679381608963, 0.03397766873240471, -0.7391616980867969, -0.1694887230707991, 3.391040454362262
38884, 0.0, 0.0, 0.0, 0.0, 0.0, 0.15932869911193848, -0.046470873057842255, 0.03685745969414711, 0.0, 0.03586764261126518, 0.054978013038635254, 0.03392461687326431, -0.7620072440425368, -0.17464506762030396, 3.4364612396584384
38894, 0.0, 0.0, 0.0, 0.0, 0.0, -0.046801116317510605, 0.16248153150081635, 0.0557452067732811, 0.0, 0.035771455615758896, 0.054945629090070724, 0.034001950174570084, -0.8552219869971535, 0.04431533292108725, 3.343222211957343
38904, 0.0, 0.0, 0.0, 0.0, 0.0, -0.09562753885984421, -0.09758945554494858, -0.049612704664468765, 0.0, 0.035862334072589874, 0.05498361214995384, 0.033949077129364014, -0.8078801737799602, -0.1889859524644919, 3.4351358688676186
38914, 0.0, 0.0, 0.0, 0.0, 0.0, 0.06861886382102966, 0.12303382903337479, 0.06926902383565903, 0.0, 0.03592360392212868, 0.05485423281788826, 0.033969487994909286, -0.7325113173701502, -0.15978229895821983, 3.3934278739023833
38924, 0.0, 0.0, 0.0, 0.0, 0.0, -0.151108056306839, 0.14158549904823303, 0.18225328624248505, 0.0, 0.035872288048267365, 0.05498376861214638, 0.033979617059230804, -0.7643019061549556, -0.13138929090311535, 3.437633422033689
38934, 0.0, 0.0, 0.0, 0.0, 0.0, 0.10659042745828629, -0.25079697370529175, -0.1407078504562378, 0.0, 0.03601759672164917, 0.054887302219867706, 0.033947449177503586, -0.7721865163256054, -0.20085404633746862, 3.3355707130799077
38944, 0.0, 0.0, 0.0, 0.0, 0.0, -0.061352986842393875, 0.28464049100875854, -0.003609284060075879, 0.0, 0.03601759672164917, 0.054887302219867706, 0.033947449177503586, -0.7721865163256054, -0.20085404633746862, 3.3355707130799077
38954, 0.0, 0.0, 0.0, 0.0, 0.0, 0.026749081909656525, -0.08229811489582062, 0.10079905390739441, 0.0, 0.035843946039676666, 0.05484790354967117, 0.03405322879552841, -0.7954841819606531, 0.016647917513751054, 3.3027463518530666
38964, 0.0, 0.0, 0.0, 0.0, 0.0, -0.036352675408124924, 0.09102042764425278, -0.17110680043697357, 0.0, 0.03588399663567543, 0.05498122423887253, 0.033923305571079254, -0.7856413511702629, -0.18743794678533732, 3.4414490098080774
38974, 0.0, 0.0, 0.0, 0.0, 0.0, -0.03751729428768158, -0.014532831497490406, -0.09572852402925491, 0.0, 0.03596328943967819, 0.05484868586063385, 0.033988043665885925, -0.7472080124293824, -0.1842821551370264, 3.393609607491684
38984, 0.0, 0.0, 0.0, 0.0, 0.0, 0.032998744398355484, 0.019964199513196945, 0.10599485039710999, 0.0, 0.03589027747511864, 0.05497577786445618, 0.03393681347370148, -0.7515750836375482, -0.17375610390899965, 3.4349577102374873
38994, 0.0, 0.0, 0.0, 0.0, 0.0, -0.08302473276853561, -0.24125593900680542, 0.11103442311286926, 0.0, 0.036040596663951874, 0.05488687381148338, 0.03429760783910751, -0.7808057465049092, 0.23284656074986287, 3.3075441501266085
39004, 0.0, 0.0, 0.0, 0.0, 0.0, -0.017986977472901344, 0.096586674451828, 0.05198007822036743, 0.0, 0.03585788607597351, 0.05498439818620682, 0.03395220637321472, -0.7798063970013167, -0.20367266793365957, 3.4262456878363965
39014, 0.0, 0.0, 0.0, 0.0, 0.0, 0.003049307269975543, 0.17547564208507538, -0.04713265597820282, 0.0, 0.03596895560622215, 0.0548439621925354, 0.033957984298467636, -0.7453576472830178, -0.18308326200923375, 3.3907244735470607
39024, 0.0, 0.0, 0.0, 0.0, 0.0, 0.07002147287130356, -0.08803518861532211, -0.08105464279651642, 0.0, 0.03591880202293396, 0.05493423715233803, 0.03396587073802948, -0.747830471892202, -0.11229304181031807, 3.4102089042185617
39034, 0.0, 0.0, 0.0, 0.0, 0.0, -0.17682740092277527, 0.18444283306598663, 0.189233660697937, 0.0, 0.03595089539885521, 0.05486314743757248, 0.034005939960479736, -0.7133699645322943, -0.1555618188442054, 3.3786409548466882
39044, 0.0, 0.0, 0.0, 0.0, 0.0, -0.12614518404006958, -0.07200581580400467, -0.23695315420627594, 0.0, 0.03587551787495613, 0.054962124675512314, 0.03397029638290405, -0.7507635101843544, -0.15414787900681404, 3.445387110542311
39054, 0.0, 0.0, 0.0, 0.0, 0.0, -0.01930144988000393, -0.11429658532142639, -0.1540175974369049, 0.0, 0.03590159863233566, 0.05496414750814438, 0.03390440717339516, -0.7832178872057767, -0.18892430950310768, 3.4426842953265813
39064, 0.0, 0.0, 0.0, 0.0, 0.0, -0.07767625153064728, 0.04503489285707474, 0.0063825249671936035, 0.0, 0.03589435666799545, 0.05491610988974571, 0.03397715091705322, -0.7177675643289835, -0.1512711060831009, 3.41817226050482
39074, 0.0, 0.0, 0.0, 0.0, 0.0, 0.11346814781427383, -0.28043133020401, -0.0962749719619751, 0.0, 0.03587573021650314, 0.054974742233753204, 0.03395232930779457, -0.7153536988642862, -0.17696617860255515, 3.450516852059386
39084, 0.0, 0.0, 0.0, 0.0, 0.0, -0.02519313059747219, -0.027210475876927376, -0.020897937938570976, 0.0, 0.035850901156663895, 0.05499570816755295, 0.03394843265414238, -0.7685467981820503, -0.154846689772711, 3.4378892018564593
