timeTick, roll, pitch, yaw, stateX, stateY, stateZ, stateVX, stateVY, stateVZ, otX0, otY0, otZ0, otRoll0, otPitch0, otYaw0, cmdThrust, cmdRoll, cmdPitch, cmdYaw, actThrust, rRoll, rPitch, rYaw, accx, accy, accz, gyrox, gyroy, gyroz
141801, -0.0003626546822488308, -2.9416969482554123e-05, -0.00012007147597614676, 0, 0, 0, 0, 0, 0, -2.987797260284424, -3.233649969100952, 0.009202451445162296, -0.12621762422376825, 6.381552787034678, 87.2426788138093, 0, 0, 0, 0, 0, 0, 0, 0, 0, 0, 0, 0, 0, 0
141811, -0.000672376889269799, -0.00013144646072760224, -0.00012875453103333712, 4.2330765381848323e-07, -3.077592509725946e-07, 1.8939317669719458e-08, 0.0004233061627019197, -0.0003077594155911356, 1.894166780402884e-05, -2.9877936840057373, -3.233637571334839, 0.009254492819309235, -0.13837289148365164, 6.363320689137311, 87.22773471215591, 0, 0, 0, 0, 0, 0, 0, 0, 0.021103141829371452, -0.015576643869280815, 0.9995988011360168, 0, 0, 0
141821, -0.0009848966728895903, 0.00037540748598985374, 0.0005186016205698252, 1.4783593542233575e-05, -1.0932482837233692e-05, 2.568922354839742e-07, 0.0024487506598234177, -0.0018171854317188263, 2.903233871620614e-05, -2.9877877235412598, -3.233645439147949, 0.0092832762748003, -0.13750187635484276, 6.459246610598285, 87.22568019713701, 0, 0, 0, 0, 0, 0, 0, 0, 0.023685408756136894, -0.016795624047517776, 0.9992082118988037, -0.030782584100961685, -0.132029190659523, 0.052091632038354874
141831, -0.0009176359162665904, 0.0005474517238326371, 0.0007487150724045932, 5.056372538092546e-05, -3.703716356540099e-05, -6.907066563144326e-08, 0.004707294516265392, -0.0034037248697131872, -9.382600546814501e-05, -2.9880638122558594, -3.233626365661621, 0.01042201742529869, 0.6924198974714946, 7.110381898569727, 87.33912103233006, 0, 0, 0, 0, 0, 0, 0, 0, 0.023562202230095863, -0.015782762318849564, 0.999337375164032, -0.018100377172231674, 0.08381204307079315, -0.07819180935621262
141841, -0.0031745906453579664, -0.0009248526766896248, 0.00010784561891341582, 0.0001091140293283388, -7.914968591649085e-05, -9.588911780156195e-07, 0.0070027741603553295, -0.005018769297748804, -8.372736192541197e-05, -2.9877970218658447, -3.2336413860321045, 0.009238951839506626, -0.17266750998757877, 6.397262609798673, 87.23586734094529, 0, 0, 0, 0, 0, 0, 0, 0, 0.024125713855028152, -0.016364939510822296, 0.9995942115783691, -0.18241022527217865, 0.20260024070739746, -0.059683531522750854
141851, -0.004195233341306448, -0.0008563452865928411, -0.0004177965165581554, 0.00019094784511253238, -0.00013725165626965463, -2.3440588847734034e-06, 0.009363969787955284, -0.006601655390113592, -0.00019289512420073152, -2.9877939224243164, -3.2336585521698, 0.009205282665789127, -0.09559591853063924, 6.35897392314817, 87.24003259650253, 0, 0, 0, 0, 0, 0, 0, 0, 0.02308822236955166, -0.015950843691825867, 1.0015954971313477, -0.07216909527778625, -0.23742246627807617, 0.08674996346235275
141861, -0.0062416912987828255, -0.0007051240536384284, -0.0001366519572911784, 0.0002960930287372321, -0.00021101550373714417, -3.369561454746872e-06, 0.01166505180299282, -0.008151130750775337, -1.1767561773012858e-05, -2.9877939224243164, -3.2336585521698, 0.009205282665789127, -0.09559591853063924, 6.35897392314817, 87.24003259650253, 0, 0, 0, 0, 0, 0, 0, 0, 0.0241029541939497, -0.016356434673070908, 0.9993106126785278, -0.38402920961380005, -0.05497182905673981, 0.0384468249976635
141871, -0.006678505800664425, 7.484847446903586e-05, 0.0002999420976266265, 0.00042437828960828483, -0.0003005487669724971, -3.4296317608095706e-06, 0.013992010615766048, -0.009755510836839676, 2.0032891256960283e-07, -2.9878032207489014, -3.233652114868164, 0.009282367303967476, -0.12910977850354444, 6.435521240262119, 87.24458553223131, 0, 0, 0, 0, 0, 0, 0, 0, 0.024231402203440666, -0.014565418474376202, 0.997957170009613, 0.04605695605278015, -0.11360931396484375, 0.20977990329265594
141881, -0.009082659147679806, -0.0029584423173218966, 0.0014986932510510087, 0.0005764390807598829, -0.00040536816231906414, -4.405308573041111e-06, 0.016420159488916397, -0.011208352632820606, -0.00019489519763737917, -2.9878032207489014, -3.233652114868164, 0.009282367303967476, -0.12910977850354444, 6.435521240262119, 87.24458553223131, 0, 0, 0, 0, 0, 0, 0, 0, 0.022300541400909424, -0.013408147729933262, 0.9995476603507996, -0.26811864972114563, 0.3398810625076294, 0.13008877635002136
141891, -0.009082659147679806, -0.0029584423173218966, 0.0014986932510510087, 0.0007703532464802265, -0.0005369275459088385, -7.267786713782698e-06, 0.018836986273527145, -0.012711488641798496, -0.00032518969965167344, -2.9877920150756836, -3.233628988265991, 0.009290468879044056, -0.06476072749780953, 6.4193780855962075, 87.22881796555366, 0, 0, 0, 0, 0, 0, 0, 0, 0.024137038737535477, -0.01731819100677967, 1.0005825757980347, -0.10440636426210403, 0.007754846941679716, -0.12805277109146118
141901, -0.009569528512656689, -0.004192004445940256, 0.000837345200125128, 0.0009703682735562325, -0.0006720866076648235, -1.0203926649410278e-05, 0.0211660023778677, -0.014320350252091885, -0.00026167556643486023, -2.987799644470215, -3.2336373329162598, 0.009252011775970459, -0.1175815700214162, 6.386553188351826, 87.23492783076125, 0, 0, 0, 0, 0, 0, 0, 0, 0.025397293269634247, -0.015470963902771473, 1.0002946853637695, 0.07982373237609863, -0.10341786593198776, 0.07021341472864151
141911, -0.01003990601748228, -0.0033643438946455717, 0.0004112617752980441, 0.0011945718433707952, -0.0008230949169956148, -1.2654090824071318e-05, 0.02367469295859337, -0.015881335362792015, -0.0002279206528328359, -2.987814426422119, -3.2336456775665283, 0.009239527396857738, -0.11998877064298945, 6.380064597198043, 87.23279139814892, 0, 0, 0, 0, 0, 0, 0, 0, 0.025030769407749176, -0.015655677765607834, 0.9991084337234497, -0.06842321157455444, 0.2166943997144699, 0.10362266004085541
141921, -0.01082098763436079, -0.004015993792563677, 0.0007605401333421469, 0.0014436871279031038, -0.0009893695823848248, -1.5406178135890514e-05, 0.02614837884902954, -0.01737358421087265, -0.00032210827339440584, -2.9877865314483643, -3.2336409091949463, 0.009247586131095886, -0.11000737622974809, 6.395677086861809, 87.22739908103352, 0, 0, 0, 0, 0, 0, 0, 0, 0.025478892028331757, -0.015777448192238808, 0.9978536367416382, -0.033785369247198105, -0.32755744457244873, -0.05569736659526825
141931, -0.012200447730720043, -0.00222375919111073, 0.0006993392598815262, 0.001717583043500781, -0.001170626375824213, -1.949497527675703e-05, 0.028630806133151054, -0.018877791240811348, -0.0004951526061631739, -2.988062858581543, -3.2336061000823975, 0.010435846634209156, 0.6957318351826342, 7.214118975160147, 87.34749723779103, 0, 0, 0, 0, 0, 0, 0, 0, 0.023115431889891624, -0.016250109300017357, 0.998349666595459, -0.05413663387298584, 0.17169277369976044, 0.1357652097940445
141941, -0.012710564769804478, -0.0035240654833614826, 0.0005763910012319684, 0.0020154817029833794, -0.0013671779306605458, -2.53960388363339e-05, 0.030948936939239502, -0.02043253742158413, -0.0006847088225185871, -2.9877912998199463, -3.2336435317993164, 0.009275853633880615, -0.09766505836597798, 6.439902317506636, 87.25424607700293, 0, 0, 0, 0, 0, 0, 0, 0, 0.02324693463742733, -0.017050880938768387, 1.000402808189392, -0.08494658768177032, -0.06166250631213188, -0.11880072951316833
141951, -0.014085967093706131, -0.0038228812627494335, 0.00016451974806841463, 0.0023362324573099613, -0.0015796531224623322, -3.227394336136058e-05, 0.033201225101947784, -0.022062530741095543, -0.0006904631736688316, -2.98773193359375, -3.2335751056671143, 0.009403026662766933, -0.10702312350725922, 6.306301426445771, 87.27648207190171, 0, 0, 0, 0, 0, 0, 0, 0, 0.023639820516109467, -0.01618337258696556, 0.9996377229690552, 0.08296015113592148, 0.08082064241170883, -0.18646888434886932
141961, -0.013682650402188301, -0.003920775838196278, -0.00023162280558608472, 0.002679866272956133, -0.0018082511378452182, -3.942164039472118e-05, 0.035525549203157425, -0.02365708164870739, -0.0007387013174593449, -2.987788200378418, -3.2336416244506836, 0.009186557494103909, -0.17640354380129758, 6.31337092505035, 87.23234377812105, 0, 0, 0, 0, 0, 0, 0, 0, 0.024260785430669785, -0.01620219089090824, 0.9988912343978882, -0.08862517029047012, -0.11155550181865692, -0.008250582963228226
141971, -0.014586575329303741, -0.0031014399137347937, 0.00048624674673192203, 0.0030470488127321005, -0.002052484080195427, -4.733642708742991e-05, 0.037910956889390945, -0.025189492851495743, -0.0008438091026619077, -2.98779559135437, -3.233656167984009, 0.009296746924519539, -0.05392759051984443, 6.444377407935207, 87.25473939955513, 0, 0, 0, 0, 0, 0, 0, 0, 0.023518189787864685, -0.016168728470802307, 1.0005539655685425, 0.0819600522518158, 0.04215100407600403, -0.11120779067277908
141981, -0.014683573506772518, -0.003341930452734232, 0.00030089798383414745, 0.0034377414267510176, -0.002312145195901394, -5.578433774644509e-05, 0.040227584540843964, -0.02674274891614914, -0.0008453807095065713, -2.9877800941467285, -3.2336630821228027, 0.009194957092404366, -0.18544005823885873, 6.368346495515169, 87.2385000101978, 0, 0, 0, 0, 0, 0, 0, 0, 0.02298574708402157, -0.017731565982103348, 0.9985528588294983, -0.2567916512489319, 0.2556407153606415, -0.0008454886265099049
141991, -0.015854649245738983, -0.005378588568419218, 0.0003036729176528752, 0.0038511655293405056, -0.00258804764598608, -6.489782390417531e-05, 0.0424572117626667, -0.028437765315175056, -0.0009769736789166927, -2.9878134727478027, -3.2336432933807373, 0.009284685365855694, -0.1505598259901962, 6.351998781655425, 87.2433590334531, 0, 0, 0, 0, 0, 0, 0, 0, 0.023568516597151756, -0.016705431044101715, 1.0010682344436646, -0.09224236011505127, 0.13151605427265167, 0.005163063760846853
142001, -0.016561832278966904, -0.006829869467765093, -0.0002413171750959009, 0.004287265706807375, -0.0028807814233005047, -7.429719698848203e-05, 0.04476281255483627, -0.030108997598290443, -0.0009025613544508815, -2.9877755641937256, -3.233644723892212, 0.009199819527566433, -0.1501983663403321, 6.452249851557468, 87.24048551429006, 0, 0, 0, 0, 0, 0, 0, 0, 0.024559099227190018, -0.0164779145270586, 1.0012620687484741, -0.14362716674804688, 0.04360010847449303, -0.2879595458507538
142011, -0.018427744507789612, -0.006749224849045277, -0.001940279034897685, 0.004746947903186083, -0.003189780982211232, -8.265794167527929e-05, 0.04717355594038963, -0.03169098123908043, -0.0007691541686654091, -2.9878129959106445, -3.2336537837982178, 0.00921256560832262, -0.0913348439891261, 6.375397642440532, 87.24097452819518, 0, 0, 0, 0, 0, 0, 0, 0, 0.023398209363222122, -0.015341999009251595, 0.9992995262145996, -0.018575428053736687, -0.11269287765026093, -0.10525080561637878
142021, -0.018475951626896858, -0.005270354449748993, -0.0022807030472904444, 0.005230360198765993, -0.0035139811225235462, -9.044793114298955e-05, 0.04950888082385063, -0.03314907103776932, -0.0007884080405347049, -2.9877352714538574, -3.2335805892944336, 0.009346905164420605, -0.10714892233595466, 6.330653779382089, 87.27007726283918, 0, 0, 0, 0, 0, 0, 0, 0, 0.024225635454058647, -0.014864588156342506, 0.998617947101593, 0.01331418938934803, -0.08949684351682663, 0.00945404451340437
142031, -0.01866898685693741, -0.005716967862099409, -0.002414597198367119, 0.005737293045967817, -0.003852612804621458, -9.897014388116077e-05, 0.051877688616514206, -0.034577298909425735, -0.0009156747837550938, -2.987806558609009, -3.2336533069610596, 0.009294092655181885, -0.1280345449205148, 6.457846484154658, 87.24536501666529, 0, 0, 0, 0, 0, 0, 0, 0, 0.024419674649834633, -0.017245156690478325, 0.9988759160041809, -0.1585090309381485, 0.44751906394958496, 0.12763279676437378
142041, -0.01967463456094265, -0.008970793336629868, -0.0019243898568674922, 0.006268243305385113, -0.004206730518490076, -0.00010860135807888582, 0.05431240051984787, -0.03624622896313667, -0.0010102916276082397, -2.9877889156341553, -3.233630657196045, 0.009280560538172722, -0.08679518886322289, 6.470487624796533, 87.23333808800794, 0, 0, 0, 0, 0, 0, 0, 0, 0.024235785007476807, -0.015673398971557617, 1.0014655590057373, -0.21054795384407043, 0.05654028058052063, -0.18889109790325165
142051, -0.02147330529987812, -0.009662111289799213, -0.0029403511434793472, 0.006823391653597355, -0.004576805047690868, -0.00011830990115413442, 0.05671723186969757, -0.03776872158050537, -0.0009310157620348036, -2.9877912998199463, -3.2336487770080566, 0.009219166822731495, -0.1967189655211504, 6.406894121891867, 87.24701033681414, 0, 0, 0, 0, 0, 0, 0, 0, 0.02445298433303833, -0.014629452489316463, 1.000754475593567, -0.17180421948432922, -0.20250637829303741, -0.030610045418143272
142061, -0.022739743813872337, -0.008843419142067432, -0.0032101920805871487, 0.007402699440717697, -0.004961710423231125, -0.00012719447840936482, 0.05914434418082237, -0.03921234607696533, -0.0008454451453872025, -2.9878058433532715, -3.233656167984009, 0.00929694902151823, -0.07782121740854196, 6.436512738541296, 87.24791813914081, 0, 0, 0, 0, 0, 0, 0, 0, 0.025476209819316864, -0.015060808509588242, 1.000088095664978, 0.06176407262682915, 0.14712493121623993, 0.1454094499349594
142071, -0.023208536207675934, -0.009984624572098255, -0.002647202927619219, 0.008006535470485687, -0.005361108109354973, -0.00013563456013798714, 0.06162280589342117, -0.04066716879606247, -0.0008422207902185619, -2.9877967834472656, -3.2336506843566895, 0.009258119389414787, -0.13249733066044098, 6.388472122372406, 87.23117763656668, 0, 0, 0, 0, 0, 0, 0, 0, 0.02330450899899006, -0.016375796869397163, 0.9983916878700256, -0.09104827046394348, 0.029646292328834534, -0.030555758625268936
142081, -0.02429240755736828, -0.01039264164865017, -0.003270310116931796, 0.008634412661194801, -0.005775466561317444, -0.0001446176611352712, 0.06395269185304642, -0.04220455512404442, -0.0009539998136460781, -2.987800359725952, -3.2336418628692627, 0.009277748875319958, -0.06577589654115254, 6.472808783893697, 87.2423126822364, 0, 0, 0, 0, 0, 0, 0, 0, 0.022056372836232185, -0.014480330981314182, 0.9996462464332581, -0.23258741199970245, 0.11362197995185852, 0.09509222209453583
142091, -0.026039155200123787, -0.011331001296639442, -0.0027828486636281013, 0.009285052306950092, -0.006204559002071619, -0.00015438729315064847, 0.06617516279220581, -0.04361388087272644, -0.0009995412547141314, -2.9878029823303223, -3.2336440086364746, 0.009311298839747906, -0.07104553554743655, 6.383310219848681, 87.23569768899875, 0, 0, 0, 0, 0, 0, 0, 0, 0.02322511374950409, -0.013929682783782482, 0.9996154308319092, -0.07568971067667007, -0.14683140814304352, -0.06529244780540466
142101, -0.02660377137362957, -0.010661768727004528, -0.0026603180449455976, 0.009958210401237011, -0.0066473521292209625, -0.00016462116036564112, 0.06845644116401672, -0.044944725930690765, -0.0010468065738677979, -2.9877736568450928, -3.233635425567627, 0.009245375171303749, -0.2000921207256989, 6.44127167223823, 87.2300649713616, 0, 0, 0, 0, 0, 0, 0, 0, 0.023493006825447083, -0.01547268871217966, 1.0000295639038086, -0.25982043147087097, 0.12392659485340118, -0.05475279316306114
142111, -0.02832775190472603, -0.011354533955454826, -0.0024656851310282946, 0.010654428973793983, -0.007104004733264446, -0.0001752394309733063, 0.07078734785318375, -0.04638579860329628, -0.0010764587204903364, -2.9877982139587402, -3.2336363792419434, 0.009283884428441525, -0.1665718245291086, 6.359712501755467, 87.24143738238561, 0, 0, 0, 0, 0, 0, 0, 0, 0.022707397118210793, -0.016171662136912346, 1.000653862953186, -0.006224358920007944, 0.2469169795513153, -0.0014896235661581159
142121, -0.02891591191291809, -0.012675282545387745, -0.002775920554995537, 0.011373636312782764, -0.007575588766485453, -0.0001856168091762811, 0.07305403798818588, -0.047931037843227386, -0.000998673029243946, -2.9877710342407227, -3.233643054962158, 0.009178372099995613, -0.1679928170548632, 6.4072518564745735, 87.23719895825185, 0, 0, 0, 0, 0, 0, 0, 0, 0.02290922775864601, -0.015407747589051723, 1.0008639097213745, -0.32097089290618896, -0.0795549526810646, -0.010071412660181522
142131, -0.031321339309215546, -0.011889972724020481, -0.0034797999542206526, 0.01211561355739832, -0.008062168024480343, -0.00019532634178176522, 0.0753413587808609, -0.04938484728336334, -0.0009427694021724164, -2.9878084659576416, -3.2336478233337402, 0.009267853572964668, -0.17289403994617586, 6.3880477207196975, 87.23152617821569, 0, 0, 0, 0, 0, 0, 0, 0, 0.024865442886948586, -0.015063328668475151, 0.9977026581764221, -0.07179395854473114, 0.1056557148694992, 0.28533512353897095
142141, -0.03264264017343521, -0.012865162454545498, -0.0023206050973385572, 0.012881211005151272, -0.008563275448977947, -0.0002055871009360999, 0.07777810096740723, -0.050836656242609024, -0.0011090245097875595, -2.987807273864746, -3.233644962310791, 0.009311813861131668, -0.0943929669445764, 6.404421122823322, 87.23340586847112, 0, 0, 0, 0, 0, 0, 0, 0, 0.024439623579382896, -0.015404751524329185, 0.9995936751365662, -0.0503075085580349, 0.15167281031608582, -0.12575089931488037
142151, -0.03321250155568123, -0.013604800216853619, -0.0025787921622395515, 0.013671161606907845, -0.009078900329768658, -0.00021705491235479712, 0.08021195232868195, -0.05228828266263008, -0.0011841950472444296, -2.987807273864746, -3.233644962310791, 0.009311813861131668, -0.0943929669445764, 6.404421122823322, 87.23340586847112, 0, 0, 0, 0, 0, 0, 0, 0, 0.024140967056155205, -0.014000016264617443, 1.0010689496994019, -0.04153963923454285, -0.09109941869974136, -0.12122764438390732
142161, -0.03333813324570656, -0.013217322528362274, -0.0030988017097115517, 0.01448514312505722, -0.009608574211597443, -0.00022844295017421246, 0.08258435130119324, -0.053646598011255264, -0.001093035563826561, -2.987818717956543, -3.233654499053955, 0.009274208918213844, -0.15243747623404647, 6.38497136187911, 87.22884941914448, 0, 0, 0, 0, 0, 0, 0, 0, 0.024067940190434456, -0.016513992100954056, 1.0012617111206055, -0.12302993983030319, -0.09308165311813354, 0.048497524112463
142171, -0.03461592271924019, -0.014435792341828346, -0.0028440712485462427, 0.015322798863053322, -0.010152693837881088, -0.00023870760924182832, 0.08494687080383301, -0.05517725273966789, -0.0009595564915798604, -2.987791061401367, -3.2336490154266357, 0.009209617972373962, -0.09033473109101224, 6.351242007231775, 87.2395719729687, 0, 0, 0, 0, 0, 0, 0, 0, 0.02370510995388031, -0.01805529184639454, 1.0003182888031006, -0.07607367634773254, -0.028208520263433456, 0.11980065703392029
142181, -0.0350562147796154, -0.015215621329843998, -0.001888517988845706, 0.016184121370315552, -0.010713021270930767, -0.00024805229622870684, 0.08731749653816223, -0.05688827484846115, -0.0009089985396713018, -2.987786054611206, -3.233654737472534, 0.00928723905235529, -0.16389926304598554, 6.3736534143444885, 87.23901195759224, 0, 0, 0, 0, 0, 0, 0, 0, 0.024140164256095886, -0.014350124634802341, 0.9987249374389648, -0.21877062320709229, -0.06476572155952454, -0.06279467791318893
142191, -0.03658367693424225, -0.015876874327659607, -0.0016149375587701797, 0.01706920750439167, -0.011289084330201149, -0.00025768825435079634, 0.08969966322183609, -0.0583244226872921, -0.0010177972726523876, -2.987786054611206, -3.233654737472534, 0.00928723905235529, -0.16389926304598554, 6.3736534143444885, 87.23901195759224, 0, 0, 0, 0, 0, 0, 0, 0, 0.02317720837891102, -0.016514498740434647, 0.9991848468780518, -0.27571073174476624, 0.2782112956047058, 0.1294710487127304
142201, -0.03810533136129379, -0.017221571877598763, -0.00046452454989776015, 0.017977671697735786, -0.011879836209118366, -0.00026821583742275834, 0.0919930636882782, -0.05982586368918419, -0.001087352866306901, -2.9878122806549072, -3.2336506843566895, 0.009274548850953579, -0.09751699811264036, 6.416205907076602, 87.24084057721034, 0, 0, 0, 0, 0, 0, 0, 0, 0.023679612204432487, -0.014813275076448917, 0.9996404647827148, -0.12614627182483673, 0.14430992305278778, 0.06098783016204834
142211, -0.03872298076748848, -0.017922818660736084, -0.00027900186250917614, 0.018909314647316933, -0.012485340237617493, -0.000279305677395314, 0.0943354144692421, -0.06127486377954483, -0.0011302516795694828, -2.987778425216675, -3.2336418628692627, 0.009275747463107109, -0.11827839050114393, 6.453914163462542, 87.24554289327328, 0, 0, 0, 0, 0, 0, 0, 0, 0.02346956543624401, -0.016740286722779274, 0.9984400868415833, -0.06018911674618721, -0.08226393908262253, 0.06586433202028275
142221, -0.03986431285738945, -0.017302198335528374, -0.0003531029506120831, 0.019864188507199287, -0.013105719350278378, -0.00029126557637937367, 0.09663946181535721, -0.06280095130205154, -0.0012612881837412715, -2.987790107727051, -3.2336597442626953, 0.009274852462112904, -0.12161674386183567, 6.402935278880392, 87.23785664766183, 0, 0, 0, 0, 0, 0, 0, 0, 0.022374344989657402, -0.016452711075544357, 1.0002061128616333, -0.017126139253377914, 0.1008981242775917, 0.07524716854095459
142231, -0.04072520136833191, -0.019773857668042183, -0.0009236169862560928, 0.02084181271493435, -0.01374155841767788, -0.000304016110021621, 0.09888521581888199, -0.06436698883771896, -0.0012885112082585692, -2.987790107727051, -3.2336597442626953, 0.009274852462112904, -0.12161674386183567, 6.402935278880392, 87.23785664766183, 0, 0, 0, 0, 0, 0, 0, 0, 0.02200561761856079, -0.017094168812036514, 1.000492811203003, -0.2597370445728302, 0.08153945207595825, 0.07439270615577698
142241, -0.04217582195997238, -0.02037130668759346, -0.001275117858313024, 0.02184165269136429, -0.014393019489943981, -0.0003166462411172688, 0.10108282417058945, -0.06592516601085663, -0.001237133634276688, -2.9877965450286865, -3.233649969100952, 0.009259347803890705, -0.17414968644313827, 6.415036853060002, 87.2459769053146, 0, 0, 0, 0, 0, 0, 0, 0, 0.024443941190838814, -0.014584455639123917, 0.9996179938316345, 0.11937955021858215, -0.04739511385560036, 0.006732958368957043
142251, -0.04248009994626045, -0.02053951285779476, -0.001587688340805471, 0.02286435477435589, -0.015059316530823708, -0.0003291571338195354, 0.10345759242773056, -0.06733419746160507, -0.0012646688846871257, -2.9877994060516357, -3.233652353286743, 0.009307763539254665, -0.14297077624347782, 6.4363978488249245, 87.23389402988704, 0, 0, 0, 0, 0, 0, 0, 0, 0.023729274049401283, -0.01485154964029789, 0.9984462261199951, -0.11198566108942032, -0.06493638455867767, -0.07239877432584763
142261, -0.04458436742424965, -0.020890820771455765, -0.0021966365166008472, 0.023910900577902794, -0.01573951169848442, -0.0003427019983064383, 0.10585153847932816, -0.06870481371879578, -0.001443884102627635, -2.987790584564209, -3.233656883239746, 0.009269227273762226, -0.10216949553240652, 6.426706239814337, 87.24427204883683, 0, 0, 0, 0, 0, 0, 0, 0, 0.023877477273344994, -0.016555776819586754, 0.9984233379364014, -0.0909566879272461, -0.0425691157579422, -0.0021128645166754723
142271, -0.045522674918174744, -0.021427830681204796, -0.002162836492061615, 0.02498115971684456, -0.016434310004115105, -0.00035783194471150637, 0.10820017009973526, -0.07025501132011414, -0.0015817019157111645, -2.9877994060516357, -3.2336504459381104, 0.009225351735949516, -0.12404768511897413, 6.337781714514847, 87.2275678932241, 0, 0, 0, 0, 0, 0, 0, 0, 0.023391863331198692, -0.016919834539294243, 1.0020031929016113, -0.11156496405601501, 0.15943868458271027, -0.0170272309333086
142281, -0.04632170498371124, -0.02207934483885765, -0.0020521299447864294, 0.026074819266796112, -0.017144620418548584, -0.00037287932354956865, 0.11053183674812317, -0.0718071237206459, -0.001427380135282874, -2.9877994060516357, -3.2336504459381104, 0.009225351735949516, -0.12404768511897413, 6.337781714514847, 87.2275678932241, 0, 0, 0, 0, 0, 0, 0, 0, 0.024010322988033295, -0.016906727105379105, 1.0026726722717285, -0.13863693177700043, 0.062432028353214264, -0.23124320805072784
142291, -0.04690346494317055, -0.021662045270204544, -0.003345974488183856, 0.027192071080207825, -0.017870629206299782, -0.0003856514231301844, 0.11291847378015518, -0.07339462637901306, -0.0011266206856817007, -2.987793445587158, -3.2336502075195312, 0.009204031899571419, -0.11742819632344728, 6.449689197924698, 87.24614754806395, 0, 0, 0, 0, 0, 0, 0, 0, 0.022222328931093216, -0.014150689356029034, 0.9991067051887512, -0.017701108008623123, -0.03657256066799164, -0.04836929589509964
142301, -0.04708244651556015, -0.021393919363617897, -0.0037555540911853313, 0.02833244390785694, -0.018611356616020203, -0.0003971980477217585, 0.11515609920024872, -0.07475101947784424, -0.0011822927044704556, -2.9877843856811523, -3.2336666584014893, 0.009235835634171963, -0.12379258903288409, 6.432035971382703, 87.23256899161342, 0, 0, 0, 0, 0, 0, 0, 0, 0.022456645965576172, -0.015910303220152855, 0.9994080662727356, -0.074346162378788, -0.1725393533706665, 0.14349894225597382
142311, -0.04876108467578888, -0.020973633974790573, -0.002294377889484167, 0.02949519082903862, -0.019366059452295303, -0.00040938821621239185, 0.11739324778318405, -0.07618968188762665, -0.0012552888365462422, -2.987781524658203, -3.233633518218994, 0.009207875467836857, -0.20271984586194794, 6.420720951212843, 87.22570382119804, 0, 0, 0, 0, 0, 0, 0, 0, 0.02315540425479412, -0.015162608586251736, 0.998955488204956, -0.06012975051999092, 0.07723395526409149, -0.06304684281349182
142321, -0.05101315677165985, -0.02170942910015583, -0.002559402957558632, 0.03068075329065323, -0.02013518288731575, -0.0004224167496431619, 0.1197192370891571, -0.07763483375310898, -0.0013500108616426587, -2.987781524658203, -3.233633518218994, 0.009207875467836857, -0.20271984586194794, 6.420720951212843, 87.22570382119804, 0, 0, 0, 0, 0, 0, 0, 0, 0.024042436853051186, -0.015020377933979034, 0.9995219111442566, -0.06301196664571762, 0.24437683820724487, 0.045611314475536346
142331, -0.05165930837392807, -0.02298033982515335, -0.0029011177830398083, 0.03188992291688919, -0.020918386057019234, -0.0004362689796835184, 0.1221144050359726, -0.07900572568178177, -0.0014200486475601792, -2.987788677215576, -3.2336337566375732, 0.009259806014597416, -0.11378880071229507, 6.490078637538147, 87.23754789098462, 0, 0, 0, 0, 0, 0, 0, 0, 0.022824736312031746, -0.01513734832406044, 1.0017997026443481, -0.03417578339576721, 0.20618630945682526, -0.033453382551670074
142341, -0.05224545672535896, -0.02249212935566902, -0.0013547667767852545, 0.033122528344392776, -0.02171551249921322, -0.00044982857070863247, 0.12440646439790726, -0.08041953295469284, -0.001291528926230967, -2.9877841472625732, -3.2336480617523193, 0.009258207865059376, -0.1148573680512953, 6.449498757410026, 87.24687855062027, 0, 0, 0, 0, 0, 0, 0, 0, 0.021664397791028023, -0.015253039076924324, 1.0010524988174438, 0.003917568828910589, -0.14990033209323883, 0.1804310828447342
142351, -0.05306347832083702, -0.022219650447368622, -0.0008408028515987098, 0.03437747433781624, -0.022526679560542107, -0.0004621559055522084, 0.12658311426639557, -0.08181367814540863, -0.0011735283769667149, -2.987807512283325, -3.2336370944976807, 0.009277678094804287, -0.12043215196180108, 6.416147320641187, 87.22004147093841, 0, 0, 0, 0, 0, 0, 0, 0, 0.024377761408686638, -0.016298476606607437, 0.999284565448761, -0.1482582837343216, 0.12270680069923401, 0.028284816071391106
142361, -0.054551929235458374, -0.02180352434515953, -0.001351813436485827, 0.035655077546834946, -0.023352308198809624, -0.000473993452033028, 0.12893764674663544, -0.08331190049648285, -0.0011935721850022674, -2.987807512283325, -3.2336370944976807, 0.009277678094804287, -0.12043215196180108, 6.416147320641187, 87.22004147093841, 0, 0, 0, 0, 0, 0, 0, 0, 0.022630734369158745, -0.01595327816903591, 1.0008738040924072, -0.1617327630519867, -0.04840601980686188, -0.004550292622298002
142371, -0.054551929235458374, -0.02180352434515953, -0.001351813436485827, 0.036955978721380234, -0.024192921817302704, -0.00048589034122414887, 0.13124242424964905, -0.08481091260910034, -0.0011853703763335943, -2.9878077507019043, -3.233654260635376, 0.009279181249439716, -0.10545047569696983, 6.393529464581633, 87.23789707305625, 0, 0, 0, 0, 0, 0, 0, 0, 0.023669850081205368, -0.016460051760077477, 1.0012359619140625, 0.09740374982357025, -0.013117164373397827, -0.008074479177594185
142381, -0.054068610072135925, -0.022610241547226906, -0.0009024379542097449, 0.038413651287555695, -0.025134675204753876, -0.0004980413941666484, 0.1337888091802597, -0.0864170715212822, -0.0010235472582280636, -2.98781156539917, -3.2336368560791016, 0.009314625523984432, -0.12371958357108993, 6.452902544256915, 87.24187045937911, 0, 0, 0, 0, 0, 0, 0, 0, 0.023765094578266144, -0.015119394287467003, 0.9987990260124207, -0.18558968603610992, 0.28496527671813965, -0.024109676480293274
142391, -0.05456097424030304, -0.023730512708425522, -0.0011549247428774834, 0.039899613708257675, -0.026093829423189163, -0.0005099304253235459, 0.13638603687286377, -0.08797464519739151, -0.0011377189075574279, -2.9877192974090576, -3.2335901260375977, 0.009299496188759804, -0.17948300552508667, 6.3315917335062295, 87.27432171206239, 0, 0, 0, 0, 0, 0, 0, 0, 0.022927848622202873, -0.01682170480489731, 1.000015139579773, -0.06595972925424576, -0.00022711696510668844, 0.26448318362236023
142401, -0.055749792605638504, -0.023148251697421074, -0.000498620793223381, 0.04127499461174011, -0.026981187984347343, -0.0005213770200498402, 0.13869048655033112, -0.0894969254732132, -0.0011511753546074033, -2.9877192974090576, -3.2335901260375977, 0.009299496188759804, -0.17948300552508667, 6.3315917335062295, 87.27432171206239, 0, 0, 0, 0, 0, 0, 0, 0, 0.023811258375644684, -0.01638447307050228, 1.0001505613327026, 0.05815189704298973, -0.13483349978923798, -0.06105962023139
142411, -0.055160973221063614, -0.022084468975663185, -0.0007584888953715563, 0.042673710733652115, -0.027883706614375114, -0.0005328854313120246, 0.141052708029747, -0.09100678563117981, -0.00115012819878757, -2.9877912998199463, -3.2336325645446777, 0.009259062819182873, -0.13153489106384633, 6.495469927524596, 87.25353620796582, 0, 0, 0, 0, 0, 0, 0, 0, 0.023659370839595795, -0.016533274203538895, 1.0005507469177246, -0.11925584822893143, 0.21847546100616455, -0.06903121620416641
142421, -0.056733015924692154, -0.023605693131685257, -0.0009240921353921294, 0.04409603402018547, -0.028801389038562775, -0.0005439016968011856, 0.14341191947460175, -0.09252969920635223, -0.0010527713457122445, -2.9880380630493164, -3.2336041927337646, 0.010407035239040852, 0.6860051828768857, 7.153243930793025, 87.34241270328323, 0, 0, 0, 0, 0, 0, 0, 0, 0.022564997896552086, -0.01491777878254652, 1.0026085376739502, -0.11803794652223587, -0.13661126792430878, 0.08895040303468704
142431, -0.0581418015062809, -0.023878756910562515, -0.0012169585097581148, 0.04554162174463272, -0.02973361685872078, -0.0005532981595024467, 0.14570578932762146, -0.0939159169793129, -0.0008261366747319698, -2.9877848625183105, -3.2336463928222656, 0.00917096808552742, -0.19886234674128633, 6.3566679568937445, 87.23340005529066, 0, 0, 0, 0, 0, 0, 0, 0, 0.024478772655129433, -0.01499057374894619, 1.0008889436721802, 0.004728742875158787, 0.1166294738650322, 0.21218343079090118
142441, -0.05799451097846031, -0.02310214564204216, -0.0016104503301903605, 0.047010768204927444, -0.030679622665047646, -0.0005610176594927907, 0.1481235772371292, -0.09528522193431854, -0.0007173882913775742, -2.9878008365631104, -3.2336695194244385, 0.009292295202612877, -0.13857264081567747, 6.377885440919783, 87.23218639419136, 0, 0, 0, 0, 0, 0, 0, 0, 0.024675268679857254, -0.01656215451657772, 1.0009522438049316, -0.22008544206619263, 0.011536238715052605, -0.13792209327220917
142451, -0.05850781872868538, -0.0227994192391634, -0.0025360670406371355, 0.04850414767861366, -0.031640149652957916, -0.0005677458830177784, 0.1505519449710846, -0.09681983292102814, -0.0006278803921304643, -2.987724542617798, -3.2335774898529053, 0.009348086081445217, -0.1912445932246072, 6.288656927837678, 87.271490914214, 0, 0, 0, 0, 0, 0, 0, 0, 0.0228309016674757, -0.016913440078496933, 0.9989858865737915, -0.1506691575050354, -0.019431857392191887, -0.0559462271630764
142461, -0.060078900307416916, -0.02308163419365883, -0.0027179408352822065, 0.0500209666788578, -0.03261600807309151, -0.0005746149690821767, 0.15281184017658234, -0.09835165739059448, -0.0007455554441548884, -2.987760543823242, -3.2336368560791016, 0.009203588590025902, -0.08788591139407614, 6.4907825745724494, 87.25102552297936, 0, 0, 0, 0, 0, 0, 0, 0, 0.02146710641682148, -0.015676338225603104, 0.9964824318885803, -0.27155059576034546, 0.10582108050584793, -0.07724765688180923
142471, -0.062026724219322205, -0.023050634190440178, -0.0026079274248331785, 0.05155990272760391, -0.03360683470964432, -0.0005835955962538719, 0.15497557818889618, -0.09981396049261093, -0.0010501472279429436, -2.987797260284424, -3.233647346496582, 0.009291674010455608, -0.09842135658752366, 6.441328334166371, 87.2542922168908, 0, 0, 0, 0, 0, 0, 0, 0, 0.02384774200618267, -0.017564237117767334, 0.9977423548698425, -0.1594323068857193, 0.21749678254127502, 0.17322465777397156
142481, -0.06159880384802818, -0.02468075044453144, -0.001025112345814705, 0.053121306002140045, -0.03461311757564545, -0.0005953233339823782, 0.1573052853345871, -0.1014428585767746, -0.0012951010139659047, -2.9877922534942627, -3.233654737472534, 0.00924882385879755, -0.14487703201644841, 6.435974413097341, 87.24163610788906, 0, 0, 0, 0, 0, 0, 0, 0, 0.02294478565454483, -0.016823258250951767, 0.9979835152626038, 0.11540185660123825, -0.2370215207338333, 0.15784645080566406
142491, -0.06239863112568855, -0.0242953859269619, 0.0001514139585196972, 0.0547059029340744, -0.035635266453027725, -0.0006090427050366998, 0.15961429476737976, -0.10298653692007065, -0.0014483686536550522, -2.9877848625183105, -3.2336490154266357, 0.009270413778722286, -0.16338475973855576, 6.422541432093851, 87.24368557464659, 0, 0, 0, 0, 0, 0, 0, 0, 0.024257920682430267, -0.014671136625111103, 1.0014797449111938, 0.03638710454106331, -0.24788880348205566, -0.00412831362336874
142501, -0.06359891593456268, -0.02490146830677986, -0.0006054282421246171, 0.05631403997540474, -0.03667188063263893, -0.0006227558478713036, 0.16201342642307281, -0.10433629155158997, -0.001293884706683457, -2.987776756286621, -3.233642816543579, 0.00931184645742178, -0.07959996175765396, 6.455577517915998, 87.23644183104543, 0, 0, 0, 0, 0, 0, 0, 0, 0.023668738082051277, -0.01593468338251114, 1.0021179914474487, -0.11317817121744156, 0.056591592729091644, 0.14286457002162933
142511, -0.06550775468349457, -0.025338437408208847, -5.3079733334016055e-05, 0.057945895940065384, -0.037722520530223846, -0.0006346829468384385, 0.1643575131893158, -0.1057916060090065, -0.0010911612771451473, -2.9877774715423584, -3.2336554527282715, 0.009171595796942711, -0.16848272739023332, 6.439675736687974, 87.24898806717889, 0, 0, 0, 0, 0, 0, 0, 0, 0.02296816185116768, -0.017090795561671257, 1.0017578601837158, 0.024371877312660217, 0.136162668466568, 0.02767862379550934
142521, -0.06546498835086823, -0.02526150643825531, 0.000452214851975441, 0.05960090830922127, -0.03878824785351753, -0.000644752464722842, 0.16664505004882812, -0.10735354572534561, -0.0009224025416187942, -2.9877893924713135, -3.2336435317993164, 0.009255549870431423, -0.17252131944914564, 6.398791469136739, 87.23389221218508, 0, 0, 0, 0, 0, 0, 0, 0, 0.024074962362647057, -0.018039867281913757, 1.0005046129226685, -0.06305233389139175, 0.0429442897439003, 0.10583855211734772
142531, -0.06595822423696518, -0.02631675824522972, 0.0003101674374192953, 0.06127939373254776, -0.0398697704076767, -0.0006537130102515221, 0.16905204951763153, -0.10895112156867981, -0.0008693865383975208, -2.988037109375, -3.233621597290039, 0.010411856696009636, 0.6836450851179151, 7.155514087470721, 87.33572171910151, 0, 0, 0, 0, 0, 0, 0, 0, 0.02374504692852497, -0.01580466330051422, 0.9996219873428345, -0.10833067446947098, 0.17773902416229248, -0.05335838720202446
142541, -0.06766339391469955, -0.027545293793082237, -6.694767944281921e-05, 0.06298176199197769, -0.04096640273928642, -0.000662389094941318, 0.17142139375209808, -0.11037518084049225, -0.0008654912817291915, -2.9878180027008057, -3.2336490154266357, 0.00929993111640215, -0.14216428504047784, 6.453601886984359, 87.24861400886186, 0, 0, 0, 0, 0, 0, 0, 0, 0.023290066048502922, -0.014127613976597786, 1.0026822090148926, -0.013821518048644066, 0.15036775171756744, -0.15806205570697784
142551, -0.06840834021568298, -0.02833779901266098, -0.000887346628587693, 0.06470759212970734, -0.042076583951711655, -0.0006698917131870985, 0.17374534904956818, -0.11166109889745712, -0.000634704832918942, -2.9877896308898926, -3.2336413860321045, 0.009324941784143448, -0.1695024768445453, 6.3921524942965675, 87.22180907700701, 0, 0, 0, 0, 0, 0, 0, 0, 0.023325182497501373, -0.01476865541189909, 0.9994214177131653, -0.12475405633449554, 0.5649687647819519, 0.2615775465965271
142561, -0.06955442577600479, -0.030208637937903404, 0.0008563375449739397, 0.0664566308259964, -0.04320002719759941, -0.0006764459540136158, 0.1760617196559906, -0.11302727460861206, -0.0006758574163541198, -2.9877965450286865, -3.2336528301239014, 0.009245699271559715, -0.15243100151213765, 6.379896460255992, 87.23333908110628, 0, 0, 0, 0, 0, 0, 0, 0, 0.022005612030625343, -0.01696152053773403, 0.9979130029678345, -0.2914271950721741, 0.2905474603176117, 0.06561536341905594
142571, -0.07075945287942886, -0.03180275857448578, 0.0001303873141296208, 0.06822847574949265, -0.04433795437216759, -0.0006842746515758336, 0.1783069372177124, -0.11455793678760529, -0.0008895889623090625, -2.9878079891204834, -3.2336676120758057, 0.009248481132090092, -0.1383822662950413, 6.424916489356434, 87.24787993723957, 0, 0, 0, 0, 0, 0, 0, 0, 0.023222340270876884, -0.016698813065886497, 0.9966323375701904, -0.07678297907114029, -0.10180936008691788, 0.10511647909879684
142581, -0.07144782692193985, -0.03268766775727272, 0.0015226321993395686, 0.07002319395542145, -0.04549110680818558, -0.0006945768836885691, 0.18063610792160034, -0.11607225239276886, -0.0011705429060384631, -2.9877896308898926, -3.2336442470550537, 0.009252567775547504, -0.15369348504200295, 6.368386771002378, 87.23598492280446, 0, 0, 0, 0, 0, 0, 0, 0, 0.0224070493131876, -0.015847036615014076, 0.999877393245697, -0.30330514907836914, 0.2916054427623749, -0.15275438129901886
142591, -0.07284524291753769, -0.03234738111495972, 0.0005281566409394145, 0.07184093445539474, -0.04665900021791458, -0.0007062710355967283, 0.18291154503822327, -0.11750620603561401, -0.0011678923619911075, -2.9877896308898926, -3.2336485385894775, 0.009258106350898743, -0.07162031159680601, 6.416179684614349, 87.25158749631488, 0, 0, 0, 0, 0, 0, 0, 0, 0.02457035519182682, -0.014991474337875843, 1.0017775297164917, 0.05825204402208328, -0.04219150170683861, 0.034907467663288116
142601, -0.0738244578242302, -0.03225834295153618, 0.00038762923213653266, 0.07368233799934387, -0.04784097895026207, -0.0007172783953137696, 0.18536871671676636, -0.11888954043388367, -0.0010332069359719753, -2.987820863723755, -3.233640432357788, 0.009320035576820374, -0.08241150264662608, 6.428338350576752, 87.25413634707762, 0, 0, 0, 0, 0, 0, 0, 0, 0.024629250168800354, -0.01666894368827343, 0.9991917014122009, -0.05558924004435539, 0.06411997228860855, 0.02848898433148861
142611, -0.07407151907682419, -0.03153223916888237, 0.0016653332859277725, 0.0755484476685524, -0.0490373820066452, -0.000727978942450136, 0.18785303831100464, -0.12039066851139069, -0.0011065196013078094, -2.9880552291870117, -3.23362398147583, 0.010387349873781204, 0.7090072568761877, 7.217366049190616, 87.35719638085409, 0, 0, 0, 0, 0, 0, 0, 0, 0.024604523554444313, -0.016191421076655388, 0.9986017346382141, -0.1518045961856842, -0.013105700723826885, -0.06487477570772171
142621, -0.07590487599372864, -0.031070725992321968, 0.002382095903158188, 0.07743928581476212, -0.050248678773641586, -0.0007396964356303215, 0.19031447172164917, -0.12186840176582336, -0.001236581476405263, -2.9878005981445312, -3.233645439147949, 0.009245241992175579, -0.18219298607537626, 6.408580983669083, 87.24524945709825, 0, 0, 0, 0, 0, 0, 0, 0, 0.025288628414273262, -0.01838310994207859, 1.0010545253753662, -0.09824291616678238, -0.05607756972312927, -0.09467422217130661
142631, -0.07665400952100754, -0.03059440292418003, 0.0016796151176095009, 0.0793549045920372, -0.05147566273808479, -0.0007516792975366116, 0.19280987977981567, -0.12352840602397919, -0.0011596258264034986, -2.9878106117248535, -3.23364520072937, 0.00930608157068491, -0.12733073827220617, 6.373608185764766, 87.23098009369865, 0, 0, 0, 0, 0, 0, 0, 0, 0.023653166368603706, -0.018314778804779053, 1.001207709312439, -0.19324754178524017, 0.05545761436223984, -0.1469935029745102
142641, -0.07676669210195541, -0.031865257769823074, 0.0015316701028496027, 0.08129492402076721, -0.05271918326616287, -0.0007626776350662112, 0.19519390165805817, -0.12517566978931427, -0.0010397620499134064, -2.987797260284424, -3.2336580753326416, 0.009210735559463501, -0.04723537477221331, 6.3936852772145585, 87.24700866985842, 0, 0, 0, 0, 0, 0, 0, 0, 0.023521047085523605, -0.016614729538559914, 0.9999145269393921, -0.11067639291286469, 0.1569777876138687, -0.06377322226762772
142651, -0.07819341868162155, -0.032714199274778366, 0.0015828281175345182, 0.08325877040624619, -0.053978439420461655, -0.0007729308563284576, 0.1975749135017395, -0.12667571008205414, -0.00101055100094527, -2.987807512283325, -3.2336606979370117, 0.009240100160241127, -0.0888798126721992, 6.453101028533723, 87.25194467855451, 0, 0, 0, 0, 0, 0, 0, 0, 0.023801280185580254, -0.016468174755573273, 0.9992442727088928, -0.24228347837924957, -0.07320113480091095, 0.16951358318328857
142661, -0.0798349678516388, -0.03081727772951126, 0.0007990855956450105, 0.08524659276008606, -0.055252596735954285, -0.0007834127172827721, 0.1999894380569458, -0.12815608084201813, -0.0010853728745132685, -2.9877991676330566, -3.2336559295654297, 0.009279681369662285, -0.13157338706963803, 6.385338544772338, 87.23576113956203, 0, 0, 0, 0, 0, 0, 0, 0, 0.026102501899003983, -0.016543112695217133, 0.9979655146598816, 0.02630121260881424, 0.02772623673081398, -0.0765753909945488
142671, -0.08046993613243103, -0.03143242374062538, 0.0007274121162481606, 0.08725937455892563, -0.05654159560799599, -0.00079508894123137, 0.2025671899318695, -0.1296440213918686, -0.0012495681876316667, -2.987788677215576, -3.2336373329162598, 0.009313663467764854, -0.12430855025255404, 6.460130834021442, 87.23978737016536, 0, 0, 0, 0, 0, 0, 0, 0, 0.024232279509305954, -0.01815514825284481, 0.998940110206604, -0.15720604360103607, 0.016982799395918846, -0.0069594974629580975
142681, -0.08075931668281555, -0.03160542994737625, 0.0013868282549083233, 0.08929706364870071, -0.05784614384174347, -0.0008079763501882553, 0.2049705535173416, -0.13126589357852936, -0.0013276080135256052, -2.987788677215576, -3.2336373329162598, 0.009313663467764854, -0.12430855025255404, 6.460130834021442, 87.23978737016536, 0, 0, 0, 0, 0, 0, 0, 0, 0.022126613184809685, -0.017085572704672813, 1.000617504119873, -0.39869049191474915, 0.2080496996641159, -0.18171611428260803
142691, -0.08256936818361282, -0.03220730274915695, 0.0014446625718846917, 0.09135809540748596, -0.05916649475693703, -0.0008209275547415018, 0.20723646879196167, -0.1328042447566986, -0.0012623070506379008, -2.987793445587158, -3.233656406402588, 0.009233894757926464, -0.1536152100643999, 6.391458831490638, 87.21819870511813, 0, 0, 0, 0, 0, 0, 0, 0, 0.025282416492700577, -0.015779666602611542, 1.0018610954284668, -0.2252483069896698, 0.04795636981725693, -0.058759238570928574
142701, -0.08332139998674393, -0.03254202753305435, 0.001492967247031629, 0.09344303607940674, -0.06050167605280876, -0.0008327827090397477, 0.20975105464458466, -0.13423238694667816, -0.0011084032012149692, -2.987774610519409, -3.2336487770080566, 0.009231857024133205, -0.102861387042964, 6.377353435609024, 87.23890538011698, 0, 0, 0, 0, 0, 0, 0, 0, 0.02477756328880787, -0.016680341213941574, 0.9992220997810364, -0.0444515161216259, 0.2650993764400482, 0.10892034322023392
142711, -0.08302583545446396, -0.03398381173610687, 0.0018905525794252753, 0.09555291384458542, -0.06185149401426315, -0.000844196998514235, 0.21222393214702606, -0.13573111593723297, -0.0011741945054382086, -2.987783908843994, -3.233635187149048, 0.009280429221689701, -0.08414306400286319, 6.471269085492594, 87.24015420545828, 0, 0, 0, 0, 0, 0, 0, 0, 0.023293200880289078, -0.015973661094903946, 1.000548005104065, -0.11906145513057709, 0.015642724931240082, 0.05046982690691948
142721, -0.08397173136472702, -0.03444841504096985, 0.002109898952767253, 0.09768666326999664, -0.0632159635424614, -0.0008558316621929407, 0.21452590823173523, -0.13716335594654083, -0.0011524144792929292, -2.9878089427948, -3.233644962310791, 0.009229517541825771, -0.19723396341789123, 6.391615285272138, 87.2343802587702, 0, 0, 0, 0, 0, 0, 0, 0, 0.020848194137215614, -0.015709297731518745, 0.999836266040802, -0.054562997072935104, 0.2719862759113312, -0.021380895748734474
142731, -0.08444171398878098, -0.03655385226011276, 0.0017035638447850943, 0.09984239935874939, -0.06459462642669678, -0.0008674122509546578, 0.21662093698978424, -0.1385687291622162, -0.0011634405236691236, -2.9877848625183105, -3.233635902404785, 0.009193156845867634, -0.1372553674365649, 6.437178611544738, 87.23373937138011, 0, 0, 0, 0, 0, 0, 0, 0, 0.0202544666826725, -0.016271870583295822, 0.998851478099823, 0.02639063261449337, 0.30645516514778137, -0.004573713522404432
142741, -0.0855143815279007, -0.03802284225821495, 0.0017612603260204196, 0.10201902687549591, -0.06598743051290512, -0.0008795333560556173, 0.2187049835920334, -0.13999268412590027, -0.0012604836374521255, -2.987792491912842, -3.233654260635376, 0.009237941354513168, -0.13144255778491037, 6.348000885171103, 87.21940557183606, 0, 0, 0, 0, 0, 0, 0, 0, 0.022345073521137238, -0.016580553725361824, 0.9983254671096802, -0.12744030356407166, 0.1621900498867035, -0.06033150479197502
142751, -0.08702532947063446, -0.03959134221076965, 0.0014050353784114122, 0.10421739518642426, -0.0673946738243103, -0.0008929460309445858, 0.22096887230873108, -0.14145630598068237, -0.0014217509888112545, -2.98779296875, -3.233642101287842, 0.009279032237827778, -0.11250750448549171, 6.443814042519023, 87.24949686573963, 0, 0, 0, 0, 0, 0, 0, 0, 0.02264203131198883, -0.016637900844216347, 0.9985345005989075, 0.009594219736754894, 0.2378007024526596, -0.003123913425952196
142761, -0.08724752068519592, -0.04071573168039322, 0.0010681161656975746, 0.10643846541643143, -0.0688166543841362, -0.0009078396251425147, 0.2232455462217331, -0.14293983578681946, -0.0015566638903692365, -2.987783908843994, -3.233656167984009, 0.009227988310158253, -0.11344644702530296, 6.407273903709637, 87.23597148870464, 0, 0, 0, 0, 0, 0, 0, 0, 0.02026606909930706, -0.016798866912722588, 0.9997655153274536, -0.20554494857788086, 0.22715014219284058, -0.16148905456066132
142771, -0.08794336020946503, -0.04294084757566452, 0.0005590349319390953, 0.10868151485919952, -0.07025345414876938, -0.0009235548786818981, 0.22536461055278778, -0.14441964030265808, -0.0015861064894124866, -2.9877915382385254, -3.233663558959961, 0.009234575554728508, -0.12679940691516994, 6.372613257315294, 87.23732644628663, 0, 0, 0, 0, 0, 0, 0, 0, 0.02243364229798317, -0.015668485313653946, 0.999294102191925, -0.0006065175984986126, 0.1646452397108078, 0.09710156917572021
142781, -0.08872037380933762, -0.04219023883342743, 0.0008105641463771462, 0.1109466403722763, -0.07170441746711731, -0.0009397209505550563, 0.22766108810901642, -0.14577244222164154, -0.0016467215027660131, -2.9877140522003174, -3.2335970401763916, 0.009322060272097588, -0.1337480750404462, 6.271724256876581, 87.2637248300226, 0, 0, 0, 0, 0, 0, 0, 0, 0.023135067895054817, -0.015158108435571194, 0.9987148642539978, -0.20416173338890076, -0.04550697281956673, -0.1460552215576172
142791, -0.08909230679273605, -0.04335344582796097, 1.0182557161897421e-05, 0.11323493719100952, -0.07316891849040985, -0.0009568876121193171, 0.22999845445156097, -0.14712755382061005, -0.0017863110406324267, -2.987760066986084, -3.233654022216797, 0.009232541546225548, -0.13610842167956497, 6.431025240674273, 87.24355498477975, 0, 0, 0, 0, 0, 0, 0, 0, 0.022798264399170876, -0.017234671860933304, 0.999579668045044, -0.1904396265745163, 0.18332688510417938, 0.0546550489962101
142801, -0.09035748988389969, -0.04412299394607544, 1.1128645382996183e-05, 0.11554646492004395, -0.07464786618947983, -0.0009750072495080531, 0.2323070615530014, -0.1486624777317047, -0.0018372783670201898, -2.987795114517212, -3.233657121658325, 0.009307365864515305, -0.0930424196965046, 6.426168364494799, 87.24177133431698, 0, 0, 0, 0, 0, 0, 0, 0, 0.022807883098721504, -0.01704498380422592, 0.9994921088218689, -0.12105508893728256, -0.17496441304683685, -0.050479546189308167
142811, -0.09088092297315598, -0.043384402990341187, -0.0007177822990342975, 0.11788112670183182, -0.07614203542470932, -0.0009936033748090267, 0.23462562263011932, -0.15017177164554596, -0.0018815739313140512, -2.987780809402466, -3.233661413192749, 0.009267698042094707, -0.08846847030230456, 6.434953682522746, 87.22938053597848, 0, 0, 0, 0, 0, 0, 0, 0, 0.023351574316620827, -0.01685863733291626, 0.9994091987609863, 0.016736920922994614, 0.08139371871948242, -0.09238020330667496
142821, -0.09190916270017624, -0.04425492882728577, -0.0013707157922908664, 0.1202392578125, -0.07765121012926102, -0.0010126205161213875, 0.2370002716779709, -0.15166319906711578, -0.0019215431530028582, -2.988034248352051, -3.2336275577545166, 0.010375387966632843, 0.6952483371332334, 7.177016767448492, 87.35585384588055, 0, 0, 0, 0, 0, 0, 0, 0, 0.023847967386245728, -0.01648521237075329, 0.999752402305603, -0.10129909217357635, 0.07831411808729172, 0.19029979407787323
142831, -0.09345577657222748, -0.044461991637945175, -0.00028359153657220304, 0.12262135744094849, -0.07917509973049164, -0.0010318838758394122, 0.2394191324710846, -0.15311528742313385, -0.0019307557959109545, -2.987783670425415, -3.233647346496582, 0.009292518720030785, -0.08322479388368395, 6.397805044667763, 87.23360443499759, 0, 0, 0, 0, 0, 0, 0, 0, 0.02351989597082138, -0.015751289203763008, 1.0007058382034302, -0.10376332700252533, -0.13628235459327698, -0.1621532440185547
142841, -0.0948544442653656, -0.043864719569683075, -0.0004859965993091464, 0.12502744793891907, -0.08071332424879074, -0.0010510357096791267, 0.24179969727993011, -0.15452919900417328, -0.0018992010736837983, -2.987783908843994, -3.2336440086364746, 0.00928183738142252, -0.08364594953156643, 6.43709621771518, 87.24268758874788, 0, 0, 0, 0, 0, 0, 0, 0, 0.024405326694250107, -0.016884954646229744, 0.9989997148513794, -0.2277504801750183, 0.259497731924057, -0.027289658784866333
142851, -0.09572353214025497, -0.045425623655319214, -0.0006028523202985525, 0.1274576336145401, -0.08226604759693146, -0.0010704814922064543, 0.2442365437746048, -0.15601558983325958, -0.001989695942029357, -2.9877889156341553, -3.2336504459381104, 0.009268324822187424, -0.1340915253664693, 6.438137956493648, 87.23733101061299, 0, 0, 0, 0, 0, 0, 0, 0, 0.02239660918712616, -0.016052842140197754, 0.9983686208724976, -0.17145882546901703, 0.25387245416641235, 0.1302899718284607
142861, -0.0972951352596283, -0.04695070534944534, -0.00031821004813537, 0.12991143763065338, -0.08383329957723618, -0.0010909696575254202, 0.2465249001979828, -0.1574341505765915, -0.0021076092962175608, -2.9877991676330566, -3.233651638031006, 0.00926991831511259, -0.09387491505195643, 6.403128913882654, 87.24496322914716, 0, 0, 0, 0, 0, 0, 0, 0, 0.024437183514237404, -0.01649029739201069, 0.9986214637756348, -0.12222153693437576, -0.06346186250448227, 0.027413031086325645
142871, -0.09770330786705017, -0.04629629850387573, 0.00011071959306718782, 0.1323889195919037, -0.08541487157344818, -0.0011126203462481499, 0.24897286295890808, -0.15888041257858276, -0.00222218269482255, -2.988060474395752, -3.233611822128296, 0.010437468998134136, 0.7127080620581973, 7.140869131816629, 87.34620699125078, 0, 0, 0, 0, 0, 0, 0, 0, 0.02531791292130947, -0.014755952171981335, 0.9985337853431702, -0.021703582257032394, 0.12679554522037506, 0.14298194646835327
142881, -0.09867886453866959, -0.047081731259822845, 0.0012465501204133034, 0.13489151000976562, -0.0870102122426033, -0.0011356144677847624, 0.2515459358692169, -0.16018712520599365, -0.002376355230808258, -2.9877970218658447, -3.233628511428833, 0.009280027821660042, -0.09979743246999725, 6.444660976079206, 87.24878326623637, 0, 0, 0, 0, 0, 0, 0, 0, 0.025046611204743385, -0.01626206748187542, 0.9981094002723694, -0.11539728939533234, 0.11351579427719116, 0.059048645198345184
142891, -0.10018456727266312, -0.04698439687490463, 0.0014682697365060449, 0.137419655919075, -0.08861904591321945, -0.0011602521408349276, 0.2540839612483978, -0.1615799516439438, -0.0025508177932351828, -2.987776041030884, -3.2336463928222656, 0.009183711372315884, -0.1923456298406852, 6.298649405278013, 87.21564313128874, 0, 0, 0, 0, 0, 0, 0, 0, 0.02208997681736946, -0.01614377088844776, 0.999104917049408, -0.12693320214748383, -0.1363692432641983, 0.08043903857469559
142901, -0.10133219510316849, -0.04596605896949768, 0.0012097755679860711, 0.13997159898281097, -0.0902419239282608, -0.0011862844694405794, 0.25630441308021545, -0.162995383143425, -0.0026552469935268164, -2.9877748489379883, -3.2336461544036865, 0.00932374969124794, -0.07767096317283213, 6.471209404555452, 87.24182701026523, 0, 0, 0, 0, 0, 0, 0, 0, 0.02293606474995613, -0.01706668548285961, 1.0005483627319336, -0.15223826467990875, -0.11637350171804428, 0.13886292278766632
142911, -0.10259269177913666, -0.04514070600271225, 0.001776021090336144, 0.14254631102085114, -0.09187918156385422, -0.0012126886285841465, 0.25863775610923767, -0.16445602476596832, -0.0026252090465277433, -2.9877865314483643, -3.233657121658325, 0.009234009310603142, -0.10228168701375619, 6.447659933903594, 87.24529294019065, 0, 0, 0, 0, 0, 0, 0, 0, 0.02511635422706604, -0.015302769839763641, 1.000405192375183, -0.09052504599094391, 0.13094371557235718, 0.15269513428211212
142921, -0.10374563932418823, -0.047120679169893265, 0.0015101481694728136, 0.1451452374458313, -0.0935303345322609, -0.0012385990703478456, 0.26114729046821594, -0.16577476263046265, -0.002556620864197612, -2.9877896308898926, -3.2336597442626953, 0.009219840168952942, -0.1571271983880915, 6.405857213388828, 87.2428483863844, 0, 0, 0, 0, 0, 0, 0, 0, 0.0229312963783741, -0.014918838627636433, 1.0023930072784424, -0.2698421776294708, 0.3375648260116577, 0.0536310113966465
142931, -0.10464081168174744, -0.04754107818007469, 0.0015666700201109052, 0.14776834845542908, -0.09519466757774353, -0.0012632766738533974, 0.2634751796722412, -0.16709209978580475, -0.0023785934317857027, -2.987778902053833, -3.233649253845215, 0.009263532236218452, -0.06673323505478972, 6.418449995430279, 87.23854111359127, 0, 0, 0, 0, 0, 0, 0, 0, 0.022145641967654228, -0.017528126016259193, 0.9994871020317078, 0.11992228031158447, -0.1476646512746811, 0.04797190800309181
142941, -0.10398583114147186, -0.04643608629703522, 0.0008548724581487477, 0.15041451156139374, -0.09687326848506927, -0.0012872314546257257, 0.26575762033462524, -0.1686282902956009, -0.002412046305835247, -2.987769842147827, -3.233644485473633, 0.009191729128360748, -0.24441117247544802, 6.444422736868432, 87.22895649869687, 0, 0, 0, 0, 0, 0, 0, 0, 0.023327145725488663, -0.0182509683072567, 1.0016804933547974, -0.07797390222549438, -0.2344845086336136, -0.042183905839920044
142951, -0.10537610948085785, -0.04582269862294197, 0.0017212743405252695, 0.1530839502811432, -0.09856757521629333, -0.0013106463011354208, 0.2681289315223694, -0.17023295164108276, -0.002270558848977089, -2.9877877235412598, -3.2336599826812744, 0.009281560778617859, -0.10825996995150922, 6.40345728202405, 87.2415205396861, 0, 0, 0, 0, 0, 0, 0, 0, 0.022622819989919662, -0.017558302730321884, 1.0014458894729614, -0.19163809716701508, 0.10379281640052795, 0.08823279291391373
142961, -0.10727455466985703, -0.04742704704403877, 0.0015858812257647514, 0.15577664971351624, -0.10027740895748138, -0.001332796411588788, 0.2704118490219116, -0.17173367738723755, -0.002159182447940111, -2.987809896469116, -3.2336325645446777, 0.009317946620285511, -0.14483266688703167, 6.372087950283287, 87.25061641289001, 0, 0, 0, 0, 0, 0, 0, 0, 0.021171540021896362, -0.016220569610595703, 0.9988987445831299, -0.015709057450294495, -0.04341382905840874, 0.1703060418367386
142971, -0.10786061733961105, -0.04912474751472473, 0.001922284602187574, 0.15849171578884125, -0.1020018458366394, -0.0013547870330512524, 0.27260032296180725, -0.1731530874967575, -0.0022386827040463686, -2.987783670425415, -3.233654260635376, 0.009235164150595665, -0.11499281475674134, 6.462499315142338, 87.24551445633108, 0, 0, 0, 0, 0, 0, 0, 0, 0.02330523543059826, -0.015811627730727196, 0.9996088147163391, -0.2078062891960144, 0.19614790380001068, -0.0912942886352539
142981, -0.10874390602111816, -0.049660615622997284, 0.00209880736656487, 0.16122956573963165, -0.10374023765325546, -0.001377389533445239, 0.2749703824520111, -0.17452578246593475, -0.002281497698277235, -2.9877936840057373, -3.2336373329162598, 0.009247854351997375, -0.16220707388804956, 6.3903165153913335, 87.23104252684864, 0, 0, 0, 0, 0, 0, 0, 0, 0.025587504729628563, -0.014757388271391392, 0.9986858367919922, -0.006622906308621168, -0.06405241787433624, 0.050057992339134216
142991, -0.10880152881145477, -0.051311809569597244, 0.0007750377990305424, 0.16399218142032623, -0.10549172013998032, -0.0014007741119712591, 0.2775522768497467, -0.17577125132083893, -0.002395191928371787, -2.9878041744232178, -3.233630895614624, 0.009307353757321835, -0.05413342927525074, 6.439606591259775, 87.24958340083298, 0, 0, 0, 0, 0, 0, 0, 0, 0.024697141721844673, -0.01365118008106947, 0.9994311332702637, -0.20716352760791779, -0.07385839521884918, -0.0534992441534996
143001, -0.11089491099119186, -0.0516522042453289, 0.0019276246894150972, 0.16678033769130707, -0.10725552588701248, -0.0014247419312596321, 0.2800804078578949, -0.17698918282985687, -0.0023980329278856516, -2.9877755641937256, -3.2336480617523193, 0.009230892173945904, -0.12739770894262378, 6.455408618236248, 87.23534254850637, 0, 0, 0, 0, 0, 0, 0, 0, 0.023916475474834442, -0.016255738213658333, 1.0018185377120972, -0.16270031034946442, 0.07507114857435226, 0.015539364889264107
143011, -0.11039469391107559, -0.05014604702591896, 0.0021631724666804075, 0.16959331929683685, -0.10903240740299225, -0.0014478580560535192, 0.28251609206199646, -0.17838694155216217, -0.0022248579189181328, -2.987790107727051, -3.2336502075195312, 0.009297252632677555, -0.09641947619973121, 6.3689298649969714, 87.23028788417872, 0, 0, 0, 0, 0, 0, 0, 0, 0.02206675335764885, -0.01700466312468052, 1.0012322664260864, -0.09771321713924408, -0.06719794869422913, -0.22096295654773712
143021, -0.11187885701656342, -0.050005119293928146, 0.0009394462103955448, 0.1724298894405365, -0.11082375049591064, -0.001469496637582779, 0.28479817509651184, -0.1798821985721588, -0.002102523809298873, -2.9877707958221436, -3.2336559295654297, 0.00921684131026268, -0.12920429150297683, 6.4350702086884155, 87.24436369292391, 0, 0, 0, 0, 0, 0, 0, 0, 0.02208239771425724, -0.01720924861729145, 1.0001399517059326, -0.13035805523395538, 0.09282319247722626, 0.12679575383663177
