timeTick, roll, pitch, yaw, stateX, stateY, stateZ, stateVX, stateVY, stateVZ, otX0, otY0, otZ0, otRoll0, otPitch0, otYaw0, cmdThrust, cmdRoll, cmdPitch, cmdYaw, actThrust, rRoll, rPitch, rYaw, accx, accy, accz, gyrox, gyroy, gyroz
186700, 0.12672151625156403, 0.0017568726325407624, -0.03607326000928879, 0, 0, 0, 0, 0, 0, -2.947542190551758, -3.0615592002868652, 0.013516745530068874, 6.846588003564004, -0.5098166120684766, 3.4076128737005855, 0, 0, 0, 0, 0, 0, 0, 0, 0, 0, 0, 0, 0, 0
186710, 0.0, 0.0, 0.0, 0, 0, 0, 0, 0, 0, -2.946631669998169, -3.060241222381592, 0.010558287613093853, 0.6265987587958369, -3.55512895941564, 2.0769424287356086, 0, 0, 0, 0, 0, 0, 0, 0, 0, 0, 0, 0, 0, 0
186720, -0.00018492649542167783, -0.0006802298594266176, 0.0002433035842841491, 9.50492619722354e-07, -4.035091478726827e-06, 3.975583240389824e-08, 0.0003168360854033381, -0.0013450264232233167, 1.3252811186248437e-05, -2.9468209743499756, -3.0603795051574707, 0.009976934641599655, 3.4035210566406637, 1.6600855311504574, 2.4950716085740656, 0, 0, 0, 0, 0, 0, 0, 0, 0.006215183064341545, -0.021963419392704964, 1.0013530254364014, 0, 0, 0
186730, 9.79536198428832e-05, -0.0005742139182984829, -4.716283729067072e-05, 7.160189852584153e-06, -2.8275171644054353e-05, 6.437767297029495e-07, 0.0009250923758372664, -0.003502993145957589, 0.000107944717456121, -2.947849750518799, -3.0609285831451416, 0.014534584246575832, 5.32237723820513, -1.8493872885997007, 2.714513238822012, 0, 0, 0, 0, 0, 0, 0, 0, 0.007074786350131035, -0.02221529930830002, 1.0009424686431885, 0, 0, 0
186740, 0.0005886451690457761, -0.0006823185249231756, -0.00019442364282440394, 1.9765011529671028e-05, -7.4326220783405e-05, 2.3141037672758102e-06, 0.0015958665171638131, -0.005707219708710909, 0.0002264986396767199, -2.947845697402954, -3.0609617233276367, 0.014592553488910198, 5.373714976001045, -1.801864283985168, 2.73358729133301, 0, 0, 0, 0, 0, 0, 0, 0, 0.005192141514271498, -0.023960081860423088, 1.0044987201690674, 0.00440666638314724, -0.19341279566287994, 0.09457048773765564
186750, 0.002011447213590145, 7.092505256878212e-05, 0.0008707053493708372, 3.8125224818941206e-05, -0.0001432059652870521, 6.492366082966328e-06, 0.0020762153435498476, -0.008068729192018509, 0.0006094987620599568, -2.947835922241211, -3.0609395503997803, 0.014549827203154564, 5.330239745568129, -1.8989307687963901, 2.7196416161285235, 0, 0, 0, 0, 0, 0, 0, 0, 0.0023587329778820276, -0.024253232404589653, 1.0015267133712769, 0.06932374835014343, -0.10765619575977325, -0.1187882274389267
186760, 0.0018387234304100275, -0.00038504376425407827, -0.00010900181223405525, 6.01898500462994e-05, -0.00023556596715934575, 1.3434852007776499e-05, 0.0023366715759038925, -0.01040327362716198, 0.0007794014527462423, -2.9478416442871094, -3.0609612464904785, 0.014599431306123734, 5.336333252687986, -1.8019750706668844, 2.7257622308687077, 0, 0, 0, 0, 0, 0, 0, 0, 0.00325002521276474, -0.021958909928798676, 1.0004191398620605, 0.18122325837612152, 0.17122800648212433, 0.12447498738765717
186770, 0.002639774465933442, 0.0008969712071120739, 0.0001750145893311128, 8.521691779606044e-05, -0.00035043846582993865, 2.1443120203912258e-05, 0.002668751170858741, -0.012571227736771107, 0.0008226424106396735, -2.9475138187408447, -3.061601400375366, 0.013487874530255795, 6.973594246467596, -0.5083823080251761, 3.4284206557847887, 0, 0, 0, 0, 0, 0, 0, 0, 0.005486011039465666, -0.02340681292116642, 1.0011593103408813, -0.09990055859088898, -0.035220708698034286, -0.004702090285718441
186780, 0.0036901882849633694, -0.0007698216359131038, 0.0004995784838683903, 0.00011455863568698987, -0.0004876974562648684, 3.0186609365046024e-05, 0.0031996082980185747, -0.014880568720400333, 0.0009263942483812571, -2.94830322265625, -3.060795545578003, 0.01617676205933094, 2.635200103729484, 2.599303249123693, 2.6252512932080463, 0, 0, 0, 0, 0, 0, 0, 0, 0.0044723255559802055, -0.023857340216636658, 1.0006554126739502, 0.029356785118579865, 0.10576711595058441, -0.09508466720581055
186790, 0.0033223889768123627, -0.001278017763979733, 0.0012725947890430689, 0.00014875299530103803, -0.0006482403841800988, 3.98593838326633e-05, 0.0036392968613654375, -0.017228007316589355, 0.0010085682151839137, -2.9475173950195312, -3.0616116523742676, 0.013515699654817581, 7.000058075359851, -0.541541494993254, 3.442735298893025, 0, 0, 0, 0, 0, 0, 0, 0, 0.005050507839769125, -0.02459016814827919, 1.0005367994308472, 0.01725703664124012, -0.02963351644575596, 0.1152796670794487
186800, 0.002383152022957802, -0.002410693559795618, 0.0009069379884749651, 0.0001876824244391173, -0.0008326219976879656, 5.008711013942957e-05, 0.004146573133766651, -0.019648322835564613, 0.0010373988188803196, -2.948280096054077, -3.0607821941375732, 0.016153868287801743, 2.5817878199362734, 2.607500482620992, 2.6349684038053476, 0, 0, 0, 0, 0, 0, 0, 0, 0.006598345935344696, -0.02392992191016674, 0.998812198638916, 0.04268142208456993, 0.37700924277305603, -0.023539112880825996
186810, 0.003996545448899269, -0.0019220878602936864, 0.0005570476059801877, 0.00023232889361679554, -0.0010408252710476518, 6.012222729623318e-05, 0.0047827051021158695, -0.021992342546582222, 0.0009699566289782524, -2.948357105255127, -3.061021089553833, 0.01602599024772644, 2.7053649507898627, 2.748188159911223, 2.769502927087535, 0, 0, 0, 0, 0, 0, 0, 0, 0.006101318169385195, -0.022361397743225098, 1.0013203620910645, 0.1485731154680252, 0.0065344395115971565, -0.043793611228466034
186820, 0.005147116724401712, -0.0018206184031441808, 0.0006178393959999084, 0.000283096480416134, -0.0012716600904241204, 7.063400698825717e-05, 0.005370815750211477, -0.024174615740776062, 0.0011327477404847741, -2.9475438594818115, -3.0616090297698975, 0.013591593131422997, 6.862361948665066, -0.5576893703916141, 3.43714742297615, 0, 0, 0, 0, 0, 0, 0, 0, 0.006708120461553335, -0.022338155657052994, 1.002420425415039, -0.02228727377951145, 0.054946981370449066, 0.1706293225288391
186830, 0.004826448857784271, -0.0015673197340220213, 0.0006826745811849833, 0.00033998797880485654, -0.001524543040432036, 8.317676838487387e-05, 0.00600748136639595, -0.026401972398161888, 0.001376229920424521, -2.9475371837615967, -3.0615906715393066, 0.013511442579329014, 6.930315932929745, -0.5715940218525759, 3.4451083457286042, 0, 0, 0, 0, 0, 0, 0, 0, 0.0056052436120808125, -0.02549952082335949, 1.003375768661499, 0.04401666671037674, -0.27064767479896545, 0.07169165462255478
186840, 0.004306269809603691, -0.0009087551734410226, 0.0009439376881346107, 0.0004028009716421366, -0.0018010592320933938, 9.84659418463707e-05, 0.006555122323334217, -0.028901267796754837, 0.0016820403980091214, -2.9478507041931152, -3.0609378814697266, 0.01456240564584732, 5.323910247257244, -1.8176892730122063, 2.7012949943076787, 0, 0, 0, 0, 0, 0, 0, 0, 0.004536541178822517, -0.024847008287906647, 1.0026037693023682, -0.2736130654811859, 0.15957272052764893, 0.17294840514659882
186850, 0.0036267342511564493, -0.0009058132418431342, 0.00020345058874227107, 0.00047062637167982757, -0.002102236496284604, 0.000116666778922081, 0.007009924855083227, -0.031334176659584045, 0.001958547392860055, -2.947553873062134, -3.061582088470459, 0.013545071706175804, 6.8593194185888695, -0.5954957990884964, 3.4223730298781865, 0, 0, 0, 0, 0, 0, 0, 0, 0.005025913473218679, -0.02177419327199459, 1.0007047653198242, 0.14181287586688995, 0.003456148551777005, -0.09852033108472824
186860, 0.0037689630407840014, -0.0007697529508732259, -5.6805092754075304e-05, 0.0005432329489849508, -0.0024264072999358177, 0.0001365243224427104, 0.007511384319514036, -0.03349999710917473, 0.002013352932408452, -2.94783616065979, -3.0609288215637207, 0.014578409492969513, 5.3204474679796006, -1.8428659923184796, 2.7083472543772693, 0, 0, 0, 0, 0, 0, 0, 0, 0.006514186970889568, -0.021805275231599808, 1.0011520385742188, -0.05016371235251427, 0.2226463258266449, -0.01769745536148548
186870, 0.0037082538474351168, -0.0016730307834222913, -0.0014812459703534842, 0.0006213500746525824, -0.0027722869999706745, 0.00015738827642053366, 0.008111990988254547, -0.03567596524953842, 0.0021598327439278364, -2.947537899017334, -3.0615341663360596, 0.01345580630004406, 6.889484438675297, -0.5531651442012162, 3.42550784427011, 0, 0, 0, 0, 0, 0, 0, 0, 0.004282534122467041, -0.024073269218206406, 1.0020513534545898, 0.21898269653320312, 0.06250894069671631, -0.29978156089782715
186880, 0.003913187421858311, -0.0027277814224362373, -0.002655352931469679, 0.0007046168320812285, -0.003140866756439209, 0.00018002663273364305, 0.008541322313249111, -0.03803999349474907, 0.0023682171013206244, -2.947266101837158, -3.060232400894165, 0.012202903628349304, -2.1131973082553492, 1.4185289609297058, 1.9728363837771954, 0, 0, 0, 0, 0, 0, 0, 0, 0.004937754012644291, -0.023873068392276764, 1.000369906425476, -0.09114302694797516, 0.15220801532268524, -0.06218743696808815
186890, 0.003151125507429242, -0.003752445802092552, -0.003036306705325842, 0.0007924716337583959, -0.0035330811515450478, 0.0002040729159489274, 0.009029624052345753, -0.04040287807583809, 0.002441458171233535, -2.947266101837158, -3.060232400894165, 0.012202903628349304, -2.1131973082553492, 1.4185289609297058, 1.9728363837771954, 0, 0, 0, 0, 0, 0, 0, 0, 0.006145205348730087, -0.0232574213296175, 1.00197434425354, 0.05766451358795166, 0.12162637710571289, -0.19534307718276978
186900, 0.00380057655274868, -0.004549265373498201, -0.003933481406420469, 0.0008857084903866053, -0.003948731813579798, 0.00022934796288609505, 0.009617708623409271, -0.042727280408144, 0.0026139067485928535, -2.947521209716797, -3.061591863632202, 0.01354473177343607, 6.885999282817357, -0.6058839781801453, 3.4432453682038306, 0, 0, 0, 0, 0, 0, 0, 0, 0.0058149006217718124, -0.02587616816163063, 1.0015110969543457, 0.15909647941589355, 0.1907448172569275, 0.004882864188402891
186910, 0.0036413485649973154, -0.004570572637021542, -0.004103181883692741, 0.000984755577519536, -0.0043886080384254456, 0.0002562010195106268, 0.01019170880317688, -0.04524795338511467, 0.0027571036480367184, -2.947828531265259, -3.060950756072998, 0.014578127302229404, 5.359488962678632, -1.8744905850946907, 2.723183221809153, 0, 0, 0, 0, 0, 0, 0, 0, 0.006292181555181742, -0.023969998583197594, 1.0014878511428833, -0.06530386954545975, -0.19094401597976685, 0.02145770750939846
186920, 0.005201058927923441, -0.004722849000245333, -0.005300052464008331, 0.0010896470630541444, -0.004852944053709507, 0.000284502690192312, 0.01078654732555151, -0.047619279474020004, 0.002903569955378771, -2.948291778564453, -3.060764789581299, 0.016141213476657867, 2.5559279569589615, 2.568427222318576, 2.6137556499050176, 0, 0, 0, 0, 0, 0, 0, 0, 0.004769543651491404, -0.02300897426903248, 1.0012062788009644, 0.04774903133511543, 0.14822985231876373, -0.2846216857433319
186930, 0.004651704803109169, -0.0047133686020970345, -0.006480052135884762, 0.0011999629205092788, -0.0053404150530695915, 0.00031398743158206344, 0.01127658411860466, -0.04987489804625511, 0.002993801375851035, -2.94785475730896, -3.060938596725464, 0.014517070725560188, 5.311838117398377, -1.836428364400149, 2.7229454828435844, 0, 0, 0, 0, 0, 0, 0, 0, 0.005394855514168739, -0.0226745568215847, 0.9987490773200989, 0.17370223999023438, -0.015024558641016483, 0.17464499175548553
186940, 0.004757555667310953, -0.0041385614313185215, -0.005530350375920534, 0.0013153455220162868, -0.005850285291671753, 0.00034362170845270157, 0.01179998554289341, -0.052099186927080154, 0.00293345027603209, -2.947535514831543, -3.0615646839141846, 0.013504711911082268, 6.87746556848698, -0.46039994369007786, 3.4183772227127225, 0, 0, 0, 0, 0, 0, 0, 0, 0.005711250007152557, -0.023530960083007812, 1.002048134803772, 0.08939870446920395, -0.127541646361351, 0.09137072414159775
186950, 0.004813491366803646, -0.005481989588588476, -0.005107552278786898, 0.001436089864000678, -0.006382827181369066, 0.0003740378306247294, 0.01234890054911375, -0.054409209638834, 0.0031501592602580786, -2.9486069679260254, -3.0609030723571777, 0.017190827056765556, 0.798724166758745, 0.9055542299562092, 2.463389183096913, 0, 0, 0, 0, 0, 0, 0, 0, 0.004396866075694561, -0.024471208453178406, 1.002629041671753, -0.13096535205841064, 0.24895475804805756, -0.01221148855984211
186960, 0.0038445412646979094, -0.006282051559537649, -0.006207376252859831, 0.0015617999015375972, -0.006938863079994917, 0.0004067381960339844, 0.012793079949915409, -0.05679795891046524, 0.0033903445582836866, -2.9478542804718018, -3.0609395503997803, 0.014608117751777172, 5.321397070084947, -1.785021572138021, 2.7348887990028192, 0, 0, 0, 0, 0, 0, 0, 0, 0.0050743212923407555, -0.023119894787669182, 1.0007386207580566, -0.0753980502486229, 0.09584850072860718, -0.264370858669281
186970, 0.0037466678768396378, -0.00644862512126565, -0.006598775275051594, 0.0016921772621572018, -0.007518391124904156, 0.00044121540850028396, 0.013282370753586292, -0.059107664972543716, 0.003505495609715581, -2.9474616050720215, -3.060091018676758, 0.012306343764066696, -0.14963484711452665, 4.576714987230787, 1.8768159045688553, 0, 0, 0, 0, 0, 0, 0, 0, 0.004556845873594284, -0.02417791076004505, 1.00128173828125, -0.03539710119366646, 0.17501822113990784, 0.00950438342988491
186980, 0.004332680255174637, -0.006809790153056383, -0.0069560338743031025, 0.001827301224693656, -0.008121173828840256, 0.0004767553764395416, 0.01374240592122078, -0.06144889071583748, 0.0036028786562383175, -2.948362112045288, -3.061030387878418, 0.016056852415204048, 2.7422802873054195, 2.7446304856172503, 2.8007742509786886, 0, 0, 0, 0, 0, 0, 0, 0, 0.0038945693522691727, -0.02179664745926857, 0.9999403953552246, 0.03182646632194519, -0.02867790311574936, -0.11106754839420319
186990, 0.0056535243056714535, -0.0065182894468307495, -0.007833359763026237, 0.0019667958840727806, -0.008746679872274399, 0.0005128106568008661, 0.014156492426991463, -0.06365229934453964, 0.0036085329484194517, -2.9478538036346436, -3.0609517097473145, 0.014560949988663197, 5.288065944720753, -1.7621206772408016, 2.726309242914028, 0, 0, 0, 0, 0, 0, 0, 0, 0.0038514547049999237, -0.025123832747340202, 1.0010440349578857, 0.07263226807117462, 0.1800839602947235, -0.2960115671157837
187000, 0.0058295996859669685, -0.006425569299608469, -0.009495306760072708, 0.0021104267798364162, -0.009395354427397251, 0.0005493100616149604, 0.014569640159606934, -0.06608270108699799, 0.0036917496472597122, -2.9478538036346436, -3.0609517097473145, 0.014560949988663197, 5.288065944720753, -1.7621206772408016, 2.726309242914028, 0, 0, 0, 0, 0, 0, 0, 0, 0.005114606581628323, -0.022737834602594376, 1.001196265220642, 0.07488521933555603, 0.2027447670698166, -0.3227839171886444
187010, 0.0065467278473079205, -0.006483040284365416, -0.008428780362010002, 0.002258661203086376, -0.010067646391689777, 0.0005868631997145712, 0.01507729385048151, -0.06837565451860428, 0.0038192567881196737, -2.947526216506958, -3.061617851257324, 0.013538068160414696, 6.943733662945116, -0.5320374369092349, 3.4193428864581934, 0, 0, 0, 0, 0, 0, 0, 0, 0.0038912722375243902, -0.02539936639368534, 1.0019196271896362, -0.06163867190480232, 0.2265368103981018, 0.11439840495586395
187020, 0.006936227902770042, -0.008158688433468342, -0.00885105226188898, 0.0024114642292261124, -0.010763692669570446, 0.0006261785747483373, 0.015483321622014046, -0.07083362340927124, 0.004044195171445608, -2.9466679096221924, -3.0602400302886963, 0.010563425719738007, 0.6594974021125886, -3.587681319293921, 2.0715532803803556, 0, 0, 0, 0, 0, 0, 0, 0, 0.0035400609485805035, -0.022985225543379784, 1.0026371479034424, 0.19002193212509155, -0.15460427105426788, -0.08458933234214783
187030, 0.007478386163711548, -0.007364237681031227, -0.008791094645857811, 0.0025681431870907545, -0.01148331630975008, 0.0006678248755633831, 0.015852486714720726, -0.07309112697839737, 0.004285448230803013, -2.9466493129730225, -3.060234308242798, 0.010544976219534874, 0.6203918971739183, -3.590191226156662, 2.0757168170584426, 0, 0, 0, 0, 0, 0, 0, 0, 0.004395828116685152, -0.023065270856022835, 1.0010664463043213, -0.017091307789087296, -0.12784351408481598, 0.06636051833629608
187040, 0.00673027103766799, -0.007428708951920271, -0.009547867812216282, 0.00272891903296113, -0.012225701473653316, 0.0007110309088602662, 0.01630265638232231, -0.07538595050573349, 0.0043561882339417934, -2.9483530521392822, -3.061020851135254, 0.016082480549812317, 2.7197844530702313, 2.724557195425632, 2.7944895053891687, 0, 0, 0, 0, 0, 0, 0, 0, 0.005220644176006317, -0.025095153599977493, 0.9996246099472046, 0.065873883664608, -0.01888597570359707, -0.09014516323804855
187050, 0.007174271158874035, -0.00686655705794692, -0.010498750023543835, 0.002894513076171279, -0.012991949915885925, 0.0007546676206402481, 0.016816148534417152, -0.07786379754543304, 0.004371535964310169, -2.9483017921447754, -3.060760498046875, 0.016147617250680923, 2.5483853598857924, 2.5906359086492046, 2.6266275901759215, 0, 0, 0, 0, 0, 0, 0, 0, 0.004531222861260176, -0.0252179317176342, 1.002302646636963, 0.10013031214475632, 0.06309302896261215, -0.17108549177646637
187060, 0.006278919521719217, -0.006258065812289715, -0.011359970085322857, 0.003064993768930435, -0.013782949186861515, 0.0007994297193363309, 0.017279980704188347, -0.0803360790014267, 0.004581319633871317, -2.9478368759155273, -3.0609488487243652, 0.014553641900420189, 5.3909959113033965, -1.7879083286245532, 2.7276268720061667, 0, 0, 0, 0, 0, 0, 0, 0, 0.0060922373086214066, -0.02459567040205002, 1.0003256797790527, -0.20476828515529633, 0.010897893458604813, -0.03935279697179794
187070, 0.004848666954785585, -0.008039642125368118, -0.011817660182714462, 0.003240728285163641, -0.014598273672163486, 0.0008453158079646528, 0.01786692999303341, -0.08272881805896759, 0.004596338141709566, -2.947563886642456, -3.0615673065185547, 0.013476105406880379, 6.882418929082687, -0.48710324290112794, 3.4114063482387302, 0, 0, 0, 0, 0, 0, 0, 0, 0.005217341240495443, -0.02381850965321064, 1.0002731084823608, -0.15694795548915863, 0.2632274031639099, -0.07177172601222992
187080, 0.0060230460949242115, -0.007955457083880901, -0.011827192269265652, 0.0034219820518046618, -0.015437230467796326, 0.0008913628989830613, 0.018383830785751343, -0.08506245166063309, 0.004613443277776241, -2.9478235244750977, -3.060945987701416, 0.01453859731554985, 5.324777206404125, -1.8288453644199194, 2.7221806018436134, 0, 0, 0, 0, 0, 0, 0, 0, 0.003984482027590275, -0.023653391748666763, 1.0007107257843018, 0.04264388978481293, 0.12620462477207184, 0.00022414464910980314
187090, 0.006118923891335726, -0.00758992787450552, -0.01217664498835802, 0.003607881721109152, -0.01629950851202011, 0.0009379492839798331, 0.018796108663082123, -0.08739297091960907, 0.004704236518591642, -2.9483001232147217, -3.0607733726501465, 0.016168301925063133, 2.579833932342524, 2.565719908087374, 2.6235641377426773, 0, 0, 0, 0, 0, 0, 0, 0, 0.004838176071643829, -0.023281434550881386, 1.0021816492080688, -0.04358692839741707, -0.02564866840839386, -0.1419072300195694
187100, 0.005709900986403227, -0.00830110814422369, -0.0128111457452178, 0.0037981467321515083, -0.017185021191835403, 0.0009860441787168384, 0.019256871193647385, -0.08970960229635239, 0.004915174562484026, -2.94783616065979, -3.0609419345855713, 0.014529111795127392, 5.303455439799606, -1.7504292301496776, 2.7179083186301223, 0, 0, 0, 0, 0, 0, 0, 0, 0.002138405339792371, -0.02557373046875, 1.00126314163208, 0.02487950772047043, -0.0451069176197052, -0.15225867927074432
187110, 0.006622702814638615, -0.006534327287226915, -0.012424700893461704, 0.003992027137428522, -0.01809443160891533, 0.0010359131265431643, 0.019519276916980743, -0.09217263013124466, 0.005058981943875551, -2.9475512504577637, -3.0615592002868652, 0.013508480973541737, 6.971137942299751, -0.5545147031249371, 3.4274949619805377, 0, 0, 0, 0, 0, 0, 0, 0, 0.002540131565183401, -0.024373795837163925, 1.0006483793258667, 0.15895627439022064, 0.08399979025125504, -0.025999492034316063
187120, 0.006313174031674862, -0.006870283279567957, -0.013318569399416447, 0.004188581369817257, -0.019028132781386375, 0.0010867936071008444, 0.019791534170508385, -0.09456767141819, 0.005117517895996571, -2.9478344917297363, -3.060930013656616, 0.014592860825359821, 5.334499621152555, -1.8339314909018185, 2.708620092405984, 0, 0, 0, 0, 0, 0, 0, 0, 0.00488106207922101, -0.02330326847732067, 1.0014567375183105, -0.03177569806575775, 0.32689788937568665, -0.08494654297828674
187130, 0.006189201958477497, -0.00802807416766882, -0.013090080581605434, 0.004388848319649696, -0.01998530514538288, 0.0011386582627892494, 0.02026192471385002, -0.09686695784330368, 0.005255813244730234, -2.947559356689453, -3.061612844467163, 0.013469182886183262, 6.9676697676293, -0.5419309701821646, 3.4627092619477797, 0, 0, 0, 0, 0, 0, 0, 0, 0.005442571360617876, -0.023330342024564743, 0.9994447827339172, 0.10650447010993958, -0.03863248974084854, 0.05979784205555916
187140, 0.006382812280207872, -0.008959894068539143, -0.013226276263594627, 0.004594314843416214, -0.0209654550999403, 0.0011911194305866957, 0.020831409841775894, -0.09916289150714874, 0.005236832890659571, -2.9478416442871094, -3.0609447956085205, 0.014601819217205048, 5.327439728256731, -1.742388394146701, 2.7250478827029885, 0, 0, 0, 0, 0, 0, 0, 0, 0.007205583155155182, -0.024355219677090645, 1.0016331672668457, 0.05589481070637703, 0.06249135732650757, 0.007589899934828281
187150, 0.006775266490876675, -0.00912611186504364, -0.012411903589963913, 0.004806180484592915, -0.02196897566318512, 0.0012441350845620036, 0.021541791036725044, -0.10154107213020325, 0.00536668486893177, -2.9478492736816406, -3.0609476566314697, 0.014591687358915806, 5.34680059185848, -1.8071383091632072, 2.725723290205738, 0, 0, 0, 0, 0, 0, 0, 0, 0.006642850115895271, -0.023779788985848427, 1.0001636743545532, 0.03282555937767029, -0.07793241739273071, 0.1306263506412506
187160, 0.0065122731029987335, -0.00872593279927969, -0.01388462446630001, 0.005024826154112816, -0.022996068000793457, 0.0012980359606444836, 0.02218734100461006, -0.10387749969959259, 0.005413932725787163, -2.9478487968444824, -3.0609219074249268, 0.014535099267959595, 5.277772473423495, -1.8285807117009654, 2.718498549282324, 0, 0, 0, 0, 0, 0, 0, 0, 0.00580154312774539, -0.02332691289484501, 1.0003606081008911, 0.0038905981928110123, -0.07193546742200851, 0.053368374705314636
187170, 0.0072322734631598, -0.00817133579403162, -0.012947885319590569, 0.005249506793916225, -0.02404629997909069, 0.0013524824753403664, 0.022748799994587898, -0.10616898536682129, 0.005475766956806183, -2.947822093963623, -3.060939073562622, 0.01455032266676426, 5.273969442840821, -1.8014992819888676, 2.699142532209687, 0, 0, 0, 0, 0, 0, 0, 0, 0.005067585967481136, -0.022411122918128967, 1.0020802021026611, 0.0007997010834515095, -0.14335298538208008, 0.23697277903556824
187180, 0.008640164509415627, -0.006991743575781584, -0.013394324108958244, 0.0054795341566205025, -0.02511909417808056, 0.001407983130775392, 0.0232566948980093, -0.1083899512887001, 0.005624719895422459, -2.9478304386138916, -3.0609347820281982, 0.014535863883793354, 5.282283998895479, -1.8176788005868332, 2.7165195646374034, 0, 0, 0, 0, 0, 0, 0, 0, 0.005323911085724831, -0.022411078214645386, 0.9991565942764282, 0.11376664787530899, -0.05615358427166939, 0.027173548936843872
187190, 0.009115825407207012, -0.00753308879211545, -0.013093690387904644, 0.00571480905637145, -0.026214048266410828, 0.001463817898184061, 0.023798318579792976, -0.11060097068548203, 0.005542618688195944, -2.9475338459014893, -3.061572790145874, 0.013425459153950214, 7.018111971412425, -0.49703550415733844, 3.439240232751172, 0, 0, 0, 0, 0, 0, 0, 0, 0.00695784529671073, -0.023078108206391335, 0.9988423585891724, 0.11445010453462601, 0.0504717081785202, 0.062281183898448944
187200, 0.010063251480460167, -0.00815623439848423, -0.013866710476577282, 0.00595626886934042, -0.027331415563821793, 0.001518807141110301, 0.0244936291128397, -0.11287237703800201, 0.005455612204968929, -2.947533369064331, -3.0615828037261963, 0.013509813696146011, 6.881719956054657, -0.5129268166848817, 3.427511006096955, 0, 0, 0, 0, 0, 0, 0, 0, 0.007831824943423271, -0.022494545206427574, 1.0010981559753418, 0.22177575528621674, -0.17042504251003265, 0.11634794622659683
187210, 0.010363033041357994, -0.007925283163785934, -0.014960887841880322, 0.006205081939697266, -0.028471432626247406, 0.0015737214125692844, 0.02526894584298134, -0.11513116955757141, 0.005527644883841276, -2.9478378295898438, -3.060950756072998, 0.014596324414014816, 5.375084712239566, -1.8984081623470956, 2.7167011733987243, 0, 0, 0, 0, 0, 0, 0, 0, 0.006635705940425396, -0.024665912613272667, 0.9988592267036438, 0.18796636164188385, -0.061173804104328156, -0.07318409532308578
187220, 0.011255422607064247, -0.006971215363591909, -0.015020283870398998, 0.006461139302700758, -0.029635125771164894, 0.0016286630416288972, 0.025942569598555565, -0.11760760843753815, 0.005461062770336866, -2.946716547012329, -3.0609793663024902, 0.010862459428608418, 0.736081030700475, -0.5497229431534549, 1.94693509124547, 0, 0, 0, 0, 0, 0, 0, 0, 0.0065811979584395885, -0.02709023468196392, 0.998950183391571, -0.09862750768661499, -0.008618921972811222, -0.016033267602324486
187230, 0.011208664625883102, -0.008403238840401173, -0.014816153794527054, 0.0067238593474030495, -0.030824273824691772, 0.001682774629443884, 0.026601433753967285, -0.12022200971841812, 0.005361633840948343, -2.9468493461608887, -3.060380220413208, 0.009986426681280136, 3.498989475845247, 1.7751844811211015, 2.4776443622639395, 0, 0, 0, 0, 0, 0, 0, 0, 0.0060828677378594875, -0.02332017570734024, 0.9994230270385742, 0.12463010102510452, 0.026941075921058655, -0.11649259924888611
187240, 0.010759001597762108, -0.01000142004340887, -0.014267920516431332, 0.006992830894887447, -0.03203790634870529, 0.0017362136859446764, 0.027192940935492516, -0.12250470370054245, 0.005326597020030022, -2.9483802318573, -3.06103515625, 0.016084691509604454, 2.7222018160343917, 2.707582012612079, 2.7895244801879904, 0, 0, 0, 0, 0, 0, 0, 0, 0.0041171349585056305, -0.021553246304392815, 1.0013428926467896, -0.06410899758338928, 0.04587988927960396, 0.0526653453707695
187250, 0.010979117825627327, -0.009262491948902607, -0.01532538328319788, 0.007266865111887455, -0.033273886889219284, 0.001790106762200594, 0.027613870799541473, -0.12469111382961273, 0.005452445708215237, -2.9478278160095215, -3.0609545707702637, 0.014569631777703762, 5.334822497302341, -1.7804570409208225, 2.716274167644983, 0, 0, 0, 0, 0, 0, 0, 0, 0.003315200097858906, -0.02435370534658432, 1.0006884336471558, 0.24431048333644867, -0.10465892404317856, -0.12194634228944778
187260, 0.010940033942461014, -0.010255268774926662, -0.01587507873773575, 0.007544900290668011, -0.03453269973397255, 0.0018449837807565928, 0.027993187308311462, -0.12707167863845825, 0.005523377098143101, -2.9468421936035156, -3.0603742599487305, 0.0099794901907444, 3.4756084298644208, 1.7696191096006544, 2.4958654604741612, 0, 0, 0, 0, 0, 0, 0, 0, 0.005911834537982941, -0.023863375186920166, 0.9990275502204895, 0.03231114521622658, 0.09552815556526184, -0.030230773612856865
187270, 0.01091006863862276, -0.011161671951413155, -0.015814220532774925, 0.007827725261449814, -0.03581523895263672, 0.0018999421736225486, 0.028571806848049164, -0.12943635880947113, 0.005468715447932482, -2.948603391647339, -3.0609130859375, 0.017250820994377136, 0.763926332955668, 0.8954779675010514, 2.46389980436221, 0, 0, 0, 0, 0, 0, 0, 0, 0.0048393686302006245, -0.024992793798446655, 1.0007811784744263, -0.010731277987360954, 0.07896535098552704, -0.05169842764735222
187280, 0.011087698861956596, -0.011381960473954678, -0.017001207917928696, 0.008115937933325768, -0.03712195158004761, 0.001955073792487383, 0.029070764780044556, -0.13190628588199615, 0.005558052100241184, -2.9478023052215576, -3.060938596725464, 0.014567610807716846, 5.33614695089331, -1.7720947437577763, 2.707113967768825, 0, 0, 0, 0, 0, 0, 0, 0, 0.004733889363706112, -0.026277795433998108, 1.0014536380767822, -0.021445099264383316, -0.0324232317507267, -0.14385835826396942
187290, 0.011690665036439896, -0.012137960642576218, -0.01628308929502964, 0.008409143425524235, -0.038453832268714905, 0.0020113401114940643, 0.02957034856081009, -0.1344698667526245, 0.00569562055170536, -2.9475295543670654, -3.061567783355713, 0.013542563654482365, 6.866637773739077, -0.575214808103027, 3.4193851285177495, 0, 0, 0, 0, 0, 0, 0, 0, 0.005825873930007219, -0.025286851450800896, 1.000728964805603, 0.13076724112033844, -0.055378325283527374, -0.02270641177892685
187300, 0.011832451447844505, -0.01168498583137989, -0.017187224701046944, 0.008707713335752487, -0.03981086239218712, 0.0020687435753643513, 0.030143719166517258, -0.13693618774414062, 0.005785501562058926, -2.9478323459625244, -3.0609591007232666, 0.014595980755984783, 5.380912287241309, -1.7987601406631768, 2.7234858331110106, 0, 0, 0, 0, 0, 0, 0, 0, 0.004949310328811407, -0.023248685523867607, 1.0028157234191895, 0.09480002522468567, -0.12355615943670273, -0.0043107601813972
187310, 0.01207904051989317, -0.011566602624952793, -0.0166309904307127, 0.009011796675622463, -0.041191812604665756, 0.0021280543878674507, 0.030672935768961906, -0.13925376534461975, 0.006077050697058439, -2.9478280544281006, -3.060948371887207, 0.014603140763938427, 5.320792479678762, -1.7748444347739962, 2.7226285246434854, 0, 0, 0, 0, 0, 0, 0, 0, 0.005514031276106834, -0.023753874003887177, 1.003989338874817, -0.03595105931162834, 0.20557521283626556, -0.06128644570708275
187320, 0.01376020535826683, -0.010728201828897, -0.01695827767252922, 0.00932119321078062, -0.04259611666202545, 0.0021906206384301186, 0.031206395477056503, -0.14160732924938202, 0.006436583120375872, -2.9475343227386475, -3.061603307723999, 0.01353196706622839, 6.865978561828786, -0.5715726377823103, 3.4198647585108253, 0, 0, 0, 0, 0, 0, 0, 0, 0.0037501028273254633, -0.023987378925085068, 1.0023895502090454, 0.25191372632980347, -0.18307743966579437, -0.08114068955183029
187330, 0.014756572432816029, -0.010415147989988327, -0.01643858104944229, 0.009635286405682564, -0.04402421787381172, 0.00225615780800581, 0.03161238506436348, -0.14401325583457947, 0.006671232637017965, -2.947815179824829, -3.060966968536377, 0.014605063945055008, 5.40765749571365, -1.8352967219456957, 2.7227669529406864, 0, 0, 0, 0, 0, 0, 0, 0, 0.005456540733575821, -0.024843266233801842, 1.0001131296157837, 0.12239652872085571, -0.0010131346061825752, -0.012727707624435425
187340, 0.01566881686449051, -0.009818635880947113, -0.017701556906104088, 0.00995392445474863, -0.04547666013240814, 0.0023228959180414677, 0.032115187495946884, -0.14647509157657623, 0.006676823832094669, -2.9478237628936768, -3.0609378814697266, 0.014553305692970753, 5.283121148578087, -1.8196467019357385, 2.724793828072543, 0, 0, 0, 0, 0, 0, 0, 0, 0.0019364266190677881, -0.026496315374970436, 0.9986754059791565, 0.08121580630540848, -0.012981493026018143, 0.006713352631777525
187350, 0.015591905452311039, -0.009971652179956436, -0.018695082515478134, 0.010276362299919128, -0.04695441946387291, 0.002389093628153205, 0.03237229213118553, -0.14907702803611755, 0.006563169881701469, -2.948357105255127, -3.061034917831421, 0.016044368967413902, 2.6315186998361813, 2.696322791834831, 2.808889667602629, 0, 0, 0, 0, 0, 0, 0, 0, 0.005047062877565622, -0.0261305570602417, 0.9999171495437622, -0.08753511309623718, -0.14450141787528992, -0.11327743530273438
187360, 0.015425367280840874, -0.009135997854173183, -0.01885441318154335, 0.010602641850709915, -0.048457980155944824, 0.0024547153152525425, 0.032883740961551666, -0.15163487195968628, 0.006561635062098503, -2.948864459991455, -3.061201572418213, 0.019589252769947052, -3.135220414824859, 7.72560894096577, 1.8028754637688467, 0, 0, 0, 0, 0, 0, 0, 0, 0.006384942214936018, -0.024347862228751183, 1.0011261701583862, -0.06712606549263, -0.058878254145383835, 0.15656889975070953
187370, 0.015366657637059689, -0.009297850541770458, -0.019557155668735504, 0.01093478873372078, -0.04998636245727539, 0.00252079707570374, 0.0335455983877182, -0.15404172241687775, 0.006655127741396427, -2.9475646018981934, -3.0615878105163574, 0.013571830466389656, 6.839517172230153, -0.5140517260042543, 3.419903153200689, 0, 0, 0, 0, 0, 0, 0, 0, 0.005826842505484819, -0.022839613258838654, 1.0006613731384277, -0.013773144222795963, 0.04377858713269234, 0.016737304627895355
187380, 0.01608329452574253, -0.006699558347463608, -0.01941758580505848, 0.011273058131337166, -0.05153810977935791, 0.002587666269391775, 0.03410837799310684, -0.15630805492401123, 0.0067191473208367825, -2.9478237628936768, -3.060973644256592, 0.014632484875619411, 5.355884413922034, -1.8239407033431974, 2.7256024222331248, 0, 0, 0, 0, 0, 0, 0, 0, 0.0038130017928779125, -0.022293660789728165, 1.0020016431808472, 0.09496474266052246, -0.22713620960712433, -0.10292883217334747
187390, 0.01638791710138321, -0.0068793268874287605, -0.01950536109507084, 0.011616048403084278, -0.053112246096134186, 0.002655930817127228, 0.0344897098839283, -0.15851934254169464, 0.006934203673154116, -2.947845935821533, -3.060940980911255, 0.014560922980308533, 5.336779989977424, -1.829893442399424, 2.721509714063808, 0, 0, 0, 0, 0, 0, 0, 0, 0.004344351124018431, -0.02264704741537571, 1.0024844408035278, -0.032832108438014984, -0.04303121939301491, 0.06829529255628586
187400, 0.016550889238715172, -0.006626402027904987, -0.019386926665902138, 0.011963041499257088, -0.05470861867070198, 0.002726519014686346, 0.0349089689552784, -0.16075506806373596, 0.007183882407844067, -2.947221517562866, -3.0601258277893066, 0.008121058344841003, 16.05128904258484, -7.527204758215959, 3.854163257872948, 0, 0, 0, 0, 0, 0, 0, 0, 0.0034356126561760902, -0.023625435307621956, 0.9995226263999939, 0.14354977011680603, -0.12772876024246216, 0.03937484696507454
187410, 0.016405656933784485, -0.007111285347491503, -0.019887270405888557, 0.012314044870436192, -0.05632789433002472, 0.002798251574859023, 0.03529168665409088, -0.1630999743938446, 0.007163065951317549, -2.947187662124634, -3.060091733932495, 0.008186870254576206, 15.904575525776421, -7.374985557423059, 3.8615563719822616, 0, 0, 0, 0, 0, 0, 0, 0, 0.00452531548216939, -0.024310633540153503, 1.0004491806030273, 0.018717410042881966, 0.09189393371343613, 0.07097470015287399
187420, 0.01626763492822647, -0.007979986257851124, -0.020666658878326416, 0.01266920380294323, -0.05797102302312851, 0.0028702309355139732, 0.03574015200138092, -0.16552603244781494, 0.007233212236315012, -2.947187662124634, -3.060091733932495, 0.008186870254576206, 15.904575525776421, -7.374985557423059, 3.8615563719822616, 0, 0, 0, 0, 0, 0, 0, 0, 0.004918355960398912, -0.025576580315828323, 1.001922369003296, -0.1704912930727005, 0.019640687853097916, -0.25959378480911255
187430, 0.016318518668413162, -0.007198974024504423, -0.02207610197365284, 0.013029003515839577, -0.059638861566782, 0.002943370956927538, 0.036219771951436996, -0.16804136335849762, 0.00739520788192749, -2.9487974643707275, -3.0615785121917725, 0.015964658930897713, 2.816378389097319, 2.448929768857681, 1.917403966296732, 0, 0, 0, 0, 0, 0, 0, 0, 0.005342784337699413, -0.0250045545399189, 1.0013717412948608, -0.16377799212932587, -0.012135474011301994, 0.031186671927571297
187440, 0.015466699376702309, -0.007225467823445797, -0.021001717075705528, 0.01339376624673605, -0.06133172661066055, 0.003017870709300041, 0.036732904613018036, -0.1705312430858612, 0.0075052157044410706, -2.9488701820373535, -3.0612030029296875, 0.0194548387080431, -3.080068199776455, 7.435153800358847, 1.8434181196775417, 0, 0, 0, 0, 0, 0, 0, 0, 0.003619400318711996, -0.024735623970627785, 1.0002082586288452, 0.04807126894593239, 0.06469440460205078, -0.03098439797759056
187450, 0.015673717483878136, -0.00921659730374813, -0.020475884899497032, 0.013762935064733028, -0.06304936110973358, 0.0030930419452488422, 0.037100985646247864, -0.1729958951473236, 0.007529425900429487, -2.947547197341919, -3.061575174331665, 0.01349075697362423, 6.815610592430344, -0.5590047928611739, 3.436300738470062, 0, 0, 0, 0, 0, 0, 0, 0, 0.0036337904166430235, -0.023900125175714493, 1.00156569480896, -0.08457036316394806, 0.28810206055641174, -0.009164849296212196
187460, 0.016567274928092957, -0.008051984943449497, -0.020530378445982933, 0.014135782606899738, -0.0647912472486496, 0.0031689023599028587, 0.037468500435352325, -0.17538116872310638, 0.007643054239451885, -2.9478113651275635, -3.0609233379364014, 0.014538222923874855, 5.356259706587714, -1.8379299889745369, 2.7263263751254976, 0, 0, 0, 0, 0, 0, 0, 0, 0.0030442888382822275, -0.024332081899046898, 0.9987281560897827, 0.00209547346457839, -0.12721914052963257, -0.15872535109519958
187470, 0.016810443252325058, -0.007464013993740082, -0.020970728248357773, 0.014512000605463982, -0.06655733287334442, 0.003244824707508087, 0.03777506202459335, -0.17783553898334503, 0.007541830185800791, -2.947545289993286, -3.0615947246551514, 0.013515877537429333, 6.880389415379406, -0.5712864384600493, 3.4365409356365886, 0, 0, 0, 0, 0, 0, 0, 0, 0.0031237881630659103, -0.026983065530657768, 0.9987818002700806, 0.09942921251058578, 0.10647837817668915, -0.08238356560468674
187480, 0.01797851175069809, -0.007495435886085033, -0.020627014338970184, 0.014891422353684902, -0.0683489590883255, 0.0033197272568941116, 0.03810935467481613, -0.18049003183841705, 0.007439043372869492, -2.9478566646575928, -3.0609371662139893, 0.014566835016012192, 5.266681731715739, -1.8389631208439425, 2.716213333150468, 0, 0, 0, 0, 0, 0, 0, 0, 0.004853539634495974, -0.025686709210276604, 1.0005074739456177, 0.18449656665325165, -0.2810668349266052, 0.03494199737906456
187490, 0.019391806796193123, -0.007246921304613352, -0.021922029554843903, 0.015274989418685436, -0.0701666995882988, 0.0033942353911697865, 0.03860413283109665, -0.18305739760398865, 0.007462962530553341, -2.9467387199401855, -3.0609781742095947, 0.010879178531467915, 0.7304840844272941, -0.41896998749703585, 1.9263527644006473, 0, 0, 0, 0, 0, 0, 0, 0, 0.005612787790596485, -0.026281209662556648, 1.0007959604263306, -0.1068262830376625, 0.13380448520183563, -0.02937053143978119
187500, 0.019461359828710556, -0.006965986452996731, -0.021863318979740143, 0.015663906931877136, -0.07201027125120163, 0.0034692331682890654, 0.03917950391769409, -0.18565727770328522, 0.00753704272210598, -2.948845624923706, -3.061169385910034, 0.01947401836514473, -3.197090928088239, 7.619304403448496, 1.8192569925838709, 0, 0, 0, 0, 0, 0, 0, 0, 0.006965228822082281, -0.026655837893486023, 1.0012809038162231, 0.03163156285881996, 0.02897019311785698, 0.008350386284291744
187510, 0.019929517060518265, -0.007185340393334627, -0.020808154717087746, 0.01605912856757641, -0.0738799199461937, 0.0035452095326036215, 0.03986510634422302, -0.1882726103067398, 0.007658635266125202, -2.9478371143341064, -3.060948133468628, 0.014537124894559383, 5.335856808628008, -1.8449490890121751, 2.7321195475357367, 0, 0, 0, 0, 0, 0, 0, 0, 0.006930147763341665, -0.023956218734383583, 1.0013306140899658, 0.036947522312402725, 0.21655859053134918, -0.017128394916653633
187520, 0.021599002182483673, -0.0077713350765407085, -0.021024325862526894, 0.016461214050650597, -0.07577461004257202, 0.003622677642852068, 0.040552228689193726, -0.1906658560037613, 0.00783537607640028, -2.946864128112793, -3.0603737831115723, 0.01000122632831335, 3.4356490855781483, 1.602863206958034, 2.490473257349569, 0, 0, 0, 0, 0, 0, 0, 0, 0.0051477146334946156, -0.023801906034350395, 1.0018672943115234, -0.08692971616983414, -0.22008511424064636, -0.15760941803455353
187530, 0.02065863460302353, -0.0070928423665463924, -0.021629463881254196, 0.016869327053427696, -0.0776931568980217, 0.0037017827853560448, 0.041070304811000824, -0.19304326176643372, 0.00798617023974657, -2.9478471279144287, -3.0609207153320312, 0.01455901563167572, 5.336877985262283, -1.832282089688647, 2.7206269131544802, 0, 0, 0, 0, 0, 0, 0, 0, 0.004376251716166735, -0.023574475198984146, 1.0005120038986206, -0.05575200170278549, -0.11522426456212997, -0.129390150308609
187540, 0.021487440913915634, -0.007652184460312128, -0.021560754626989365, 0.017282413318753242, -0.07963524758815765, 0.003781971987336874, 0.04154694825410843, -0.19537433981895447, 0.008052115328609943, -2.9467382431030273, -3.0609872341156006, 0.010941942222416401, 0.8154306315310618, -0.4252110563820679, 1.953179562861942, 0, 0, 0, 0, 0, 0, 0, 0, 0.005882962141185999, -0.023601461201906204, 1.0017226934432983, 0.2248644083738327, 0.0686355009675026, -0.20295560359954834
187550, 0.02225419133901596, -0.006167816463857889, -0.02084951102733612, 0.0177009254693985, -0.08160082250833511, 0.003863354679197073, 0.04215574637055397, -0.19773994386196136, 0.008224889636039734, -2.9475462436676025, -3.061577558517456, 0.013529871590435505, 6.905553399265836, -0.5463620412871251, 3.4154081920481385, 0, 0, 0, 0, 0, 0, 0, 0, 0.005666305311024189, -0.02422981709241867, 1.000938057899475, 0.2625456154346466, -0.2740821838378906, 0.06007613614201546
187560, 0.02315300889313221, -0.0062452624551951885, -0.020143773406744003, 0.018125342205166817, -0.08359022438526154, 0.003946088254451752, 0.04272783547639847, -0.20013980567455292, 0.00832231342792511, -2.948301076889038, -3.0607640743255615, 0.016150137409567833, 2.5592358464920357, 2.5704344297418515, 2.6133376922291025, 0, 0, 0, 0, 0, 0, 0, 0, 0.004591701086610556, -0.023573514074087143, 1.0026580095291138, -0.06686422228813171, 0.19760027527809143, 0.19591450691223145
187570, 0.02415456809103489, -0.006404351908713579, -0.018772505223751068, 0.01855497620999813, -0.08560343086719513, 0.004030384123325348, 0.04319906234741211, -0.20250171422958374, 0.008537271060049534, -2.9478917121887207, -3.0614798069000244, 0.013134626671671867, 0.853275461621547, 3.2956321701998945, 1.4886463540511061, 0, 0, 0, 0, 0, 0, 0, 0, 0.0046653179451823235, -0.02448110282421112, 1.0007297992706299, 0.13559502363204956, -0.02079492062330246, -0.05742047354578972
187580, 0.02403169684112072, -0.004674086347222328, -0.019537296146154404, 0.018989410251379013, -0.08764062076807022, 0.004116153344511986, 0.04368780925869942, -0.20493696630001068, 0.008617090061306953, -2.9475488662719727, -3.0615592002868652, 0.01352351438254118, 6.913814866049966, -0.5005470736557527, 3.4048769881260323, 0, 0, 0, 0, 0, 0, 0, 0, 0.0058394530788064, -0.025447802618145943, 1.0001591444015503, -0.00784972682595253, -0.0838879868388176, -0.042871374636888504
187590, 0.023462263867259026, -0.005319428164511919, -0.019343478605151176, 0.019429171457886696, -0.08970240503549576, 0.004202456679195166, 0.044264547526836395, -0.20742028951644897, 0.00864407978951931, -2.9466636180877686, -3.060234546661377, 0.01055794209241867, 0.6239854019575402, -3.48472280281311, 2.089078261176338, 0, 0, 0, 0, 0, 0, 0, 0, 0.004693560302257538, -0.02301519364118576, 1.000823736190796, -0.07256516814231873, 0.23858368396759033, 0.0687776729464531
187600, 0.02301502227783203, -0.006782086566090584, -0.01899959146976471, 0.01987416297197342, -0.09178828448057175, 0.004289284348487854, 0.04473389685153961, -0.20975570380687714, 0.008721912279725075, -2.9456348419189453, -3.0592856407165527, 0.0076254443265497684, -0.4083540005640993, -0.7923828911655448, 1.6577936579047376, 0, 0, 0, 0, 0, 0, 0, 0, 0.0042289262637495995, -0.025448579341173172, 1.001402497291565, -0.04321154206991196, 0.23391462862491608, -0.2697751820087433
187610, 0.02316516824066639, -0.008711251430213451, -0.018780602142214775, 0.020323537290096283, -0.09389835596084595, 0.004377077333629131, 0.04514119401574135, -0.21225783228874207, 0.008837135508656502, -2.9478366374969482, -3.060936689376831, 0.014582378789782524, 5.335746483524192, -1.8336573562795877, 2.7138581908421853, 0, 0, 0, 0, 0, 0, 0, 0, 0.004821318201720715, -0.024558866396546364, 1.0004756450653076, 0.12564414739608765, -0.10319936275482178, 0.15930254757404327
187620, 0.023206008598208427, -0.007507242262363434, -0.018638882786035538, 0.020777249708771706, -0.09603317826986313, 0.004465745761990547, 0.045601192861795425, -0.21470722556114197, 0.008897063322365284, -2.947842597961426, -3.060945987701416, 0.014569131657481194, 5.368323302937725, -1.8503915541684535, 2.7220559666627504, 0, 0, 0, 0, 0, 0, 0, 0, 0.005444911774247885, -0.024079058319330215, 1.0001084804534912, 0.06790265440940857, 0.06257057934999466, -0.02211635746061802
187630, 0.023583386093378067, -0.006930776871740818, -0.01834135875105858, 0.021235903725028038, -0.09819222241640091, 0.004554725252091885, 0.046129681169986725, -0.21710145473480225, 0.008899278938770294, -2.947550058364868, -3.0615897178649902, 0.01352994330227375, 6.887313342635783, -0.5385988345354349, 3.4255323119452403, 0, 0, 0, 0, 0, 0, 0, 0, 0.006287496071308851, -0.02479386515915394, 1.000797152519226, 0.00645513366907835, -0.1216861829161644, -0.018237752839922905
187640, 0.023465992882847786, -0.009230423718690872, -0.017885351553559303, 0.021700261160731316, -0.10037560015916824, 0.004643942695111036, 0.04674181342124939, -0.21957460045814514, 0.00894470326602459, -2.946918249130249, -3.061389684677124, 0.01080767810344696, 9.039429328876754, 2.9750083973403605, 3.834938908011777, 0, 0, 0, 0, 0, 0, 0, 0, 0.004175038076937199, -0.02463945560157299, 1.0003633499145508, 0.014620011672377586, -0.008943790569901466, -0.20885439217090607
187650, 0.02378944866359234, -0.009728427045047283, -0.01816084422171116, 0.022169921547174454, -0.1025836393237114, 0.004733571317046881, 0.04719025269150734, -0.22203384339809418, 0.008981474675238132, -2.9478368759155273, -3.0609545707702637, 0.014572701416909695, 5.3189334201736225, -1.8354471455777457, 2.7130287569646856, 0, 0, 0, 0, 0, 0, 0, 0, 0.004278161097317934, -0.023096129298210144, 0.9996772408485413, 0.04289858788251877, 0.0360223650932312, -0.004029703792184591
187660, 0.023696361109614372, -0.00956965982913971, -0.01675458997488022, 0.02264401502907276, -0.10481556504964828, 0.004823349881917238, 0.047628700733184814, -0.22435134649276733, 0.008974769152700901, -2.9478302001953125, -3.0609426498413086, 0.01455204002559185, 5.356242290362923, -1.8518856298311164, 2.69895462479373, 0, 0, 0, 0, 0, 0, 0, 0, 0.004101415164768696, -0.022055258974432945, 1.002126932144165, -0.11202964931726456, 0.32644331455230713, 0.02959861233830452
187670, 0.023088382557034492, -0.011168986558914185, -0.01726866327226162, 0.023122508078813553, -0.10707016289234161, 0.004914087243378162, 0.04807015135884285, -0.22656847536563873, 0.009173254482448101, -2.9478166103363037, -3.0609312057495117, 0.014554716646671295, 5.288106491365262, -1.8370052154676841, 2.7169277792103963, 0, 0, 0, 0, 0, 0, 0, 0, 0.0039808121509850025, -0.023274820297956467, 1.0012322664260864, -0.053395841270685196, 0.0406467467546463, 0.19804449379444122
187680, 0.022649500519037247, -0.011956657283008099, -0.016515500843524933, 0.023605242371559143, -0.10934748500585556, 0.005006400868296623, 0.04847676679491997, -0.2288963943719864, 0.009289952926337719, -2.948291540145874, -3.06076979637146, 0.016126608476042747, 2.5652588554051374, 2.5680653306335444, 2.6193328664317965, 0, 0, 0, 0, 0, 0, 0, 0, 0.004895052406936884, -0.02522079274058342, 0.999360203742981, 0.08871486783027649, 0.09655644744634628, 0.023032214492559433
187690, 0.023269187659025192, -0.01213642954826355, -0.017029810696840286, 0.024092521518468857, -0.11164882034063339, 0.005099108442664146, 0.04897905886173248, -0.23137034475803375, 0.009252019226551056, -2.948310136795044, -3.0607566833496094, 0.016154976561665535, 2.61081578725389, 2.580237444426132, 2.6074682657250787, 0, 0, 0, 0, 0, 0, 0, 0, 0.006773913279175758, -0.022878479212522507, 1.0016475915908813, 0.06022709608078003, -0.053030963987112045, 0.04353856295347214
187700, 0.0233466699719429, -0.01248288992792368, -0.016725046560168266, 0.024585681036114693, -0.11397404223680496, 0.0051923273131251335, 0.049652986228466034, -0.233674094080925, 0.009392254054546356, -2.948310136795044, -3.0607566833496094, 0.016154976561665535, 2.61081578725389, 2.580237444426132, 2.6074682657250787, 0, 0, 0, 0, 0, 0, 0, 0, 0.006329887546598911, -0.024010147899389267, 1.0026801824569702, -0.033540330827236176, -0.0816875621676445, -0.14655451476573944
187710, 0.023841431364417076, -0.011985578574240208, -0.016338394954800606, 0.025085344910621643, -0.11632274091243744, 0.00528742466121912, 0.05027986690402031, -0.2360663115978241, 0.009627725929021835, -2.9488611221313477, -3.061160087585449, 0.01944943517446518, -2.9601150327240418, 7.327778826950265, 1.8548915594129705, 0, 0, 0, 0, 0, 0, 0, 0, 0.004585458897054195, -0.025936700403690338, 0.9995694756507874, 0.11614076048135757, 0.12551333010196686, -0.054072387516498566
187720, 0.023144038394093513, -0.012270946055650711, -0.016732390969991684, 0.02559056133031845, -0.11869614571332932, 0.0053836326114833355, 0.05076337233185768, -0.238614022731781, 0.00961437076330185, -2.948319673538208, -3.060778856277466, 0.0161209087818861, 2.506452353330353, 2.5933080184528308, 2.6440138678446408, 0, 0, 0, 0, 0, 0, 0, 0, 0.005955805070698261, -0.023752527311444283, 1.0009349584579468, -0.07655096054077148, 0.11370348185300827, -0.012170147150754929
187730, 0.02321159839630127, -0.013664327561855316, -0.016542598605155945, 0.02610115148127079, -0.1210939809679985, 0.005480233579874039, 0.05135488882660866, -0.24095243215560913, 0.009706316515803337, -2.9475247859954834, -3.061591148376465, 0.013517048209905624, 6.8513969197696865, -0.5629984648347772, 3.415615884047939, 0, 0, 0, 0, 0, 0, 0, 0, 0.005992471240460873, -0.021510479971766472, 1.0022001266479492, 0.0291180070489645, 0.30534738302230835, -0.15297415852546692
187740, 0.02364187501370907, -0.014085916802287102, -0.015889015048742294, 0.02661782130599022, -0.12351439148187637, 0.005578361917287111, 0.051979273557662964, -0.24313026666641235, 0.009919793345034122, -2.947840452194214, -3.060934543609619, 0.014565150253474712, 5.337455030737083, -1.866804866741461, 2.714668132539313, 0, 0, 0, 0, 0, 0, 0, 0, 0.00665257778018713, -0.023053571581840515, 1.0030531883239746, 0.08431866019964218, -0.07835369557142258, 0.23322167992591858
187750, 0.024069441482424736, -0.013767877593636513, -0.015711717307567596, 0.027140766382217407, -0.12595726549625397, 0.005679189693182707, 0.05260981619358063, -0.2454436719417572, 0.01024624239653349, -2.9466958045959473, -3.0609819889068604, 0.010818186216056347, 0.6224804025984308, -0.39217578161557753, 1.915261262400433, 0, 0, 0, 0, 0, 0, 0, 0, 0.0047544194385409355, -0.02420223131775856, 1.0050733089447021, 0.1098075732588768, 0.06009681150317192, -0.16148222982883453
187760, 0.023492662236094475, -0.013042399659752846, -0.015316421166062355, 0.027669332921504974, -0.12842364609241486, 0.00578383868560195, 0.05310356244444847, -0.2478330135345459, 0.010684073902666569, -2.9474899768829346, -3.0600850582122803, 0.012309243902564049, -0.14062741100017573, 4.585401693723924, 1.9033573914263517, 0, 0, 0, 0, 0, 0, 0, 0, 0.006562978960573673, -0.023076828569173813, 1.0015677213668823, 0.03062652237713337, -0.19156235456466675, 0.1881403625011444
187770, 0.023121101781725883, -0.013150555081665516, -0.015274148434400558, 0.028203463181853294, -0.13091358542442322, 0.005891504231840372, 0.05372260883450508, -0.25015559792518616, 0.010849567130208015, -2.9483723640441895, -3.0610344409942627, 0.016043540090322495, 2.6822587420110913, 2.7715259792330755, 2.8109996058751348, 0, 0, 0, 0, 0, 0, 0, 0, 0.005110412836074829, -0.024293748661875725, 1.0010796785354614, -0.08721508830785751, 0.16137513518333435, -0.22719520330429077
187780, 0.023166751489043236, -0.012313893996179104, -0.015686053782701492, 0.028743330389261246, -0.13342709839344025, 0.006000385619699955, 0.05425089970231056, -0.2525470554828644, 0.010927182622253895, -2.947834014892578, -3.0609545707702637, 0.014626377262175083, 5.357191850360713, -1.7825264936215035, 2.699199719473071, 0, 0, 0, 0, 0, 0, 0, 0, 0.003214833792299032, -0.024322571232914925, 0.9995980262756348, 0.0611310750246048, -0.05444902181625366, 0.21832938492298126
187790, 0.02376936562359333, -0.011812524870038033, -0.015194984152913094, 0.02928774058818817, -0.1359647661447525, 0.00610955897718668, 0.054631080478429794, -0.25498780608177185, 0.010907931253314018, -2.9478375911712646, -3.060940980911255, 0.014558617025613785, 5.317169930591903, -1.831066832141488, 2.7308155430685663, 0, 0, 0, 0, 0, 0, 0, 0, 0.005623581353574991, -0.02403165213763714, 1.000427484512329, 0.02504315972328186, -0.10301238298416138, -0.06686326861381531
187800, 0.023899441584944725, -0.010911580175161362, -0.015179812908172607, 0.02983696386218071, -0.13852651417255402, 0.006218746304512024, 0.05521353334188461, -0.2573617398738861, 0.010930042713880539, -2.9478113651275635, -3.06095552444458, 0.014593027532100677, 5.344855942323579, -1.8372421909801062, 2.706122335395716, 0, 0, 0, 0, 0, 0, 0, 0, 0.006912322249263525, -0.022202366963028908, 0.9995323419570923, 0.02319173514842987, -0.021985052153468132, 0.09517792612314224
187810, 0.02461254969239235, -0.010710944421589375, -0.015139583498239517, 0.03039257600903511, -0.14111128449440002, 0.006327830720692873, 0.05590895563364029, -0.25959300994873047, 0.01088731549680233, -2.9478416442871094, -3.060943603515625, 0.014605297707021236, 5.37038684923051, -1.8117122136016803, 2.718905462351096, 0, 0, 0, 0, 0, 0, 0, 0, 0.006471717264503241, -0.02400515228509903, 0.9996646642684937, 0.11275701224803925, 0.004649191163480282, -0.01957949995994568
187820, 0.025615474209189415, -0.010834189131855965, -0.014937239699065685, 0.030954783782362938, -0.14371925592422485, 0.006436623632907867, 0.05653277412056923, -0.26200076937675476, 0.010871781967580318, -2.947812557220459, -3.060962438583374, 0.014559946954250336, 5.333403764233935, -1.7903114051774764, 2.724811888044099, 0, 0, 0, 0, 0, 0, 0, 0, 0.0036233433056622744, -0.02533028833568096, 1.0010422468185425, 0.13380149006843567, 0.08321665227413177, -0.03966264799237251
187830, 0.026386043056845665, -0.011886504478752613, -0.015018598176538944, 0.031522057950496674, -0.1463518589735031, 0.00654565216973424, 0.056921906769275665, -0.2645193934440613, 0.010934370569884777, -2.947835683822632, -3.060941696166992, 0.014596797525882721, 5.342273445508973, -1.8183790500563077, 2.7225148796755936, 0, 0, 0, 0, 0, 0, 0, 0, 0.004164213314652443, -0.02420033887028694, 1.0000708103179932, 0.14541517198085785, -0.049987927079200745, -0.16674891114234924
187840, 0.026384273543953896, -0.0094182463362813, -0.01606561243534088, 0.032093439251184464, -0.14900930225849152, 0.006654804572463036, 0.05735469609498978, -0.2669678330421448, 0.010896652936935425, -2.9478609561920166, -3.060945987701416, 0.014567585662007332, 5.335488844731564, -1.8215620667687915, 2.719152109184979, 0, 0, 0, 0, 0, 0, 0, 0, 0.004304531961679459, -0.025092611089348793, 0.9976972937583923, 0.14260192215442657, -0.015397858805954456, -0.21916475892066956
187850, 0.02697572484612465, -0.009059648029506207, -0.01699838414788246, 0.03266921639442444, -0.15169142186641693, 0.0067628552205860615, 0.05780108645558357, -0.26945605874061584, 0.010714005678892136, -2.9475491046905518, -3.061570644378662, 0.013544004410505295, 6.960546890584066, -0.5405850714684277, 3.4181691981225506, 0, 0, 0, 0, 0, 0, 0, 0, 0.005232429597526789, -0.02397744730114937, 1.0009987354278564, 0.12702813744544983, -0.241428941488266, -0.05496140941977501
187860, 0.026314768940210342, -0.009364482946693897, -0.01697305031120777, 0.033249810338020325, -0.15439796447753906, 0.00687042810022831, 0.05831774324178696, -0.27185216546058655, 0.010801064781844616, -2.9478156566619873, -3.0609724521636963, 0.014578336849808693, 5.403649562833551, -1.8490362616995526, 2.713411960311704, 0, 0, 0, 0, 0, 0, 0, 0, 0.005934390239417553, -0.02457115426659584, 1.0005569458007812, 0.07106844335794449, 0.13438153266906738, 0.14568564295768738
187870, 0.02723098173737526, -0.009075365029275417, -0.01691444031894207, 0.033835917711257935, -0.1571286916732788, 0.00697873393073678, 0.05890360102057457, -0.2742922902107239, 0.010860547423362732, -2.947568416595459, -3.061570167541504, 0.013543548062443733, 6.907676958218956, -0.5576204892067835, 3.439183132991269, 0, 0, 0, 0, 0, 0, 0, 0, 0.005479932297021151, -0.024484792724251747, 1.0012834072113037, 0.021189246326684952, -0.06297998130321503, 0.004525450989603996
187880, 0.026723021641373634, -0.008927500806748867, -0.015945518389344215, 0.03442773595452309, -0.15988361835479736, 0.0070877959951758385, 0.05946034938097, -0.2766922414302826, 0.010952356271445751, -2.9486258029937744, -3.0609147548675537, 0.017239080742001534, 0.7525905331363815, 0.9483835732582122, 2.477894348155277, 0, 0, 0, 0, 0, 0, 0, 0, 0.0052246530540287495, -0.02227650210261345, 0.9984633326530457, 0.08850730210542679, -0.13320684432983398, -0.020536964759230614
187890, 0.026541855186223984, -0.009749308228492737, -0.01637798361480236, 0.03502499684691429, -0.16266164183616638, 0.007196861319243908, 0.059992142021656036, -0.27891311049461365, 0.01086121704429388, -2.947324275970459, -3.060842514038086, 0.013198052532970905, -0.47581327969284787, 3.0460362562015177, 1.9787821105333456, 0, 0, 0, 0, 0, 0, 0, 0, 0.004898800048977137, -0.022499464452266693, 1.0006811618804932, -0.04574348032474518, 0.19895505905151367, 0.01733788289129734
187900, 0.027600176632404327, -0.009831379167735577, -0.01671670377254486, 0.03562739118933678, -0.16546198725700378, 0.007305711507797241, 0.06048675626516342, -0.28115561604499817, 0.010909331031143665, -2.9475455284118652, -3.061584234237671, 0.01352770533412695, 6.893345056027172, -0.6060145788557065, 3.42263569903807, 0, 0, 0, 0, 0, 0, 0, 0, 0.005708650685846806, -0.023379994556307793, 0.9999875426292419, 0.20220346748828888, -0.02691033110022545, -0.04895877465605736
187910, 0.027680570259690285, -0.008733023889362812, -0.01625090092420578, 0.036235082894563675, -0.1682852804660797, 0.007414805702865124, 0.06105176731944084, -0.28350192308425903, 0.010910075157880783, -2.947836399078369, -3.060957908630371, 0.014557001180946827, 5.347629041514059, -1.7988028384029349, 2.7097694369919694, 0, 0, 0, 0, 0, 0, 0, 0, 0.0046937610022723675, -0.023224249482154846, 0.9997619390487671, 0.031063493341207504, 0.053719524294137955, -0.01467619277536869
187920, 0.028516627848148346, -0.00856870785355568, -0.015772255137562752, 0.03684800863265991, -0.1711319088935852, 0.007523817475885153, 0.06153310835361481, -0.2858250141143799, 0.010892759077250957, -2.9478352069854736, -3.0609281063079834, 0.014566625468432903, 5.321746252542946, -1.8405678063427047, 2.7251390228648686, 0, 0, 0, 0, 0, 0, 0, 0, 0.004876603838056326, -0.0235518217086792, 1.0014278888702393, -0.13825035095214844, 0.09483832120895386, -0.003923965152353048
187930, 0.027288096025586128, -0.009687183424830437, -0.014591746032238007, 0.03746575117111206, -0.17400184273719788, 0.007633331697434187, 0.06201520189642906, -0.2881626486778259, 0.01101065892726183, -2.947812557220459, -3.060946226119995, 0.014599916525185108, 5.341240821066877, -1.8496451522361212, 2.7250841371068346, 0, 0, 0, 0, 0, 0, 0, 0, 0.005038033239543438, -0.023291420191526413, 1.0021120309829712, -0.015796583145856857, -0.09057047963142395, 0.27019694447517395
187940, 0.02815079316496849, -0.009606221690773964, -0.01371906790882349, 0.03808848187327385, -0.17689521610736847, 0.007744435220956802, 0.06253139674663544, -0.2905106544494629, 0.011210555210709572, -2.9482991695404053, -3.060777425765991, 0.01612250506877899, 2.544653438796119, 2.6219019597774036, 2.6322278668545676, 0, 0, 0, 0, 0, 0, 0, 0, 0.005356863606721163, -0.024664638563990593, 1.0003374814987183, 0.16581866145133972, -0.108926922082901, 0.07664100080728531
