timeTick, roll, pitch, yaw, stateX, stateY, stateZ, stateVX, stateVY, stateVZ, otX0, otY0, otZ0, otRoll0, otPitch0, otYaw0, cmdThrust, cmdRoll, cmdPitch, cmdYaw, actThrust, rRoll, rPitch, rYaw, accx, accy, accz, gyrox, gyroy, gyroz
24026, 0.00022147787967696786, -0.00036377154174260795, 6.489111001428682e-06, 0, 0, 0, 0, 0, 0, -2.973466634750366, -3.343308687210083, 0.007311988156288862, 0.8684214466118296, 2.816820455050504, 84.3298858715251, 0, 0, 0, 0, 0, 0, 0, 0, 0, 0, 0, 0, 0, 0
24036, -0.0003582425124477595, -0.0009204838424921036, -0.00018059200374409556, 0, 0, 0, 0, 0, 0, -2.9735000133514404, -3.343295097351074, 0.007400558330118656, 1.02828205204851, 2.966952325123742, 84.36148247796672, 0, 0, 0, 0, 0, 0, 0, 0, 0, 0, 0, 0, 0, 0
24046, 0.0003316475194878876, -0.0005134994280524552, -0.00027861856506206095, 2.3657734971038735e-07, -1.341542315458355e-06, 1.4022225514054298e-07, 9.46299551287666e-05, -0.0005366157274693251, 5.609207437373698e-05, -2.9735000133514404, -3.343295097351074, 0.007400558330118656, 1.02828205204851, 2.966952325123742, 84.36148247796672, 0, 0, 0, 0, 0, 0, 0, 0, 0.003170877695083618, -0.010648399591445923, 1.0019630193710327, 0.03252173215150833, -0.11421211808919907, 0.054833147674798965
24056, -4.026119859190658e-05, 0.000490959151647985, -0.00020717232837341726, 2.568563786553568e-06, -1.1909186468983535e-05, 1.546693965792656e-06, 0.00037176432670094073, -0.0015769159654155374, 0.0002256011066492647, -2.9742367267608643, -3.343125820159912, 0.009067363105714321, 4.890099195613584, 7.091417903964185, 84.51147566039059, 0, 0, 0, 0, 0, 0, 0, 0, 0.001785632804967463, -0.009262669831514359, 1.000238299369812, -0.1810271143913269, -0.13764427602291107, -0.09138219803571701
24066, 0.0007855638395994902, 0.0009301482932642102, -0.000586220296099782, 7.197515515144914e-06, -3.231322989449836e-05, 3.955676220357418e-06, 0.0005540266283787787, -0.002503892406821251, 0.00025660343817435205, -2.973832845687866, -3.3432297706604004, 0.009767647832632065, 3.1474905704586247, 5.543893784588278, 84.49046806356552, 0, 0, 0, 0, 0, 0, 0, 0, 0.0020752744749188423, -0.009800132364034653, 0.9981944561004639, 0.048816002905368805, 0.1111982986330986, 0.012742075137794018
24076, 0.0011189758079126477, 0.003038449212908745, -0.0011144038289785385, 1.3677674360224046e-05, -6.22039005975239e-05, 5.834619514644146e-06, 0.0007419998873956501, -0.003474240889772773, 0.00011957437527598813, -2.973832845687866, -3.3432297706604004, 0.009767647832632065, 3.1474905704586247, 5.543893784588278, 84.49046806356552, 0, 0, 0, 0, 0, 0, 0, 0, 0.002317695179954171, -0.01124171819537878, 1.0007834434509277, 0.09133804589509964, -0.21407365798950195, -0.07468545436859131
24086, 0.002373365918174386, 0.0031857923604547977, -0.0010938614141196012, 2.2196018107933924e-05, -0.00010244390432490036, 7.248367182910442e-06, 0.0009616570896469057, -0.004573761951178312, 0.00016357262211386114, -2.9734597206115723, -3.343294382095337, 0.0073199765756726265, 0.990162298036168, 2.827356530053379, 84.34965511728868, 0, 0, 0, 0, 0, 0, 0, 0, 0.002734221052378416, -0.011224941350519657, 0.9979626536369324, 0.15494213998317719, -0.06643398851156235, -0.05963372811675072
24096, 0.0037826886400580406, 0.0030984370969235897, -0.001277800416573882, 3.3028369216481224e-05, -0.0001537514617666602, 8.186034392565489e-06, 0.001204814063385129, -0.005687745288014412, 2.433822191960644e-05, -2.973557949066162, -3.3434104919433594, 0.007861251011490822, 0.21764543906152653, 2.471745581067296, 84.2132826955795, 0, 0, 0, 0, 0, 0, 0, 0, 0.003023038851097226, -0.012443209998309612, 0.998560905456543, 0.10665451735258102, 0.08631075173616409, 0.01433176826685667
24106, 0.004856126848608255, 0.002457608701661229, -0.0016210442408919334, 4.644990622182377e-05, -0.0002166037738788873, 7.706170435994864e-06, 0.0014794896123930812, -0.006882715038955212, -0.00011994029773632064, -2.9732110500335693, -3.342977523803711, 0.007988118566572666, 0.4056192854095877, 4.206611946352126, 84.35246290993014, 0, 0, 0, 0, 0, 0, 0, 0, 0.0018984811613336205, -0.012679608538746834, 1.0019961595535278, 0.09334728866815567, 0.08571325242519379, -0.06173903867602348
24116, 0.004547630436718464, 0.003068135352805257, -0.0015921829035505652, 6.216746260179207e-05, -0.0002915860968641937, 7.32101034373045e-06, 0.0016640156973153353, -0.00811375305056572, 4.3275758798699826e-05, -2.973461866378784, -3.343287706375122, 0.007296606432646513, 0.933565443378123, 2.7446501562865535, 84.34449536364826, 0, 0, 0, 0, 0, 0, 0, 0, 0.0022349609062075615, -0.01439344696700573, 1.0003107786178589, -0.034347619861364365, -0.19762130081653595, -0.09888554364442825
24126, 0.00521030742675066, 0.0019026166992262006, -0.0017809027340263128, 7.990500307641923e-05, -0.00037962206988595426, 8.077651727944613e-06, 0.0018834932707250118, -0.009493442252278328, 0.00010845007636817172, -2.9734909534454346, -3.3432931900024414, 0.007402084302157164, 1.0176313283498324, 2.801712526579621, 84.35018728611225, 0, 0, 0, 0, 0, 0, 0, 0, 0.0019170722225680947, -0.011915306560695171, 1.0000176429748535, 0.06608176976442337, 0.039602186530828476, 0.08060742914676666
24136, 0.005339636467397213, 0.0006282615358941257, -0.0010546104749664664, 9.96706512523815e-05, -0.00048060156404972076, 9.301002137362957e-06, 0.0020696339197456837, -0.010702457278966904, 0.00013660664262715727, -2.9738337993621826, -3.3432235717773438, 0.009739231318235397, 3.0693750277973577, 5.476757640169382, 84.46229583119147, 0, 0, 0, 0, 0, 0, 0, 0, 0.0029003755189478397, -0.011266971006989479, 1.0003371238708496, 0.03676832839846611, 0.1889452487230301, 0.11933724582195282
24146, 0.006217933259904385, 0.002367278328165412, 0.000694439047947526, 0.00012155190051998943, -0.0005931899067945778, 1.0882271453738213e-05, 0.0023066315334290266, -0.0118152080103755, 0.00018003577133640647, -2.9738378524780273, -3.3432223796844482, 0.009762145578861237, 3.080479698144399, 5.482657151069503, 84.4543662629524, 0, 0, 0, 0, 0, 0, 0, 0, 0.004174905829131603, -0.010355898179113865, 1.0013898611068726, 0.13154086470603943, -0.12944358587265015, 0.34233376383781433
24156, 0.007299904245883226, 0.003038178663700819, -2.865190435841214e-05, 0.00014633203682024032, -0.0007164591806940734, 1.3329205103218555e-05, 0.002649422502145171, -0.012838642112910748, 0.00030974505352787673, -2.9738101959228516, -3.343226194381714, 0.009724787436425686, 3.109569380483177, 5.483962599730887, 84.46136162949071, 0, 0, 0, 0, 0, 0, 0, 0, 0.001996170962229371, -0.009153123013675213, 0.9989869594573975, 0.10828308761119843, -0.06687513738870621, -0.03243501856923103
24166, 0.007377963047474623, 0.002973511116579175, -0.0007089337450452149, 0.00017379116616211832, -0.0008494554203934968, 1.62749201990664e-05, 0.00284239137545228, -0.013760607689619064, 0.000279794359812513, -2.9734671115875244, -3.3433005809783936, 0.00731043191626668, 0.9617680772490366, 2.8430076775797772, 84.34200617024095, 0, 0, 0, 0, 0, 0, 0, 0, 0.0001262006553588435, -0.008950852788984776, 0.9997676610946655, 0.021580705419182777, -0.05507712438702583, -0.040853023529052734
24176, 0.007779629435390234, 0.0037007592618465424, -0.0009896202245727181, 0.0002023843117058277, -0.0009915729751810431, 1.8914113752543926e-05, 0.0028762256260961294, -0.01466289907693863, 0.0002484332653693855, -2.9735867977142334, -3.3434176445007324, 0.007967839017510414, 0.2255415789410718, 2.4569683884787423, 84.20908110643667, 0, 0, 0, 0, 0, 0, 0, 0, 0.0031826526392251253, -0.010862552560865879, 0.9982786178588867, 0.17141765356063843, -0.12233880162239075, 0.025166450068354607
24186, 0.008408400230109692, 0.004815161693841219, -0.0022686561569571495, 0.0002325490931980312, -0.0011434562038630247, 2.06769909709692e-05, 0.003156728111207485, -0.015713751316070557, 0.00010454161383677274, -2.973479747772217, -3.343311071395874, 0.007390987128019333, 0.970820230975485, 2.8323866071053203, 84.34497049780883, 0, 0, 0, 0, 0, 0, 0, 0, 0.0016232611378654838, -0.010022377595305443, 0.9990444183349609, 0.20767365396022797, -0.17225468158721924, -0.27863427996635437
24196, 0.007558753713965416, 0.004609535913914442, -0.0010786516359075904, 0.00026507870643399656, -0.001305696670897305, 2.1236715838313103e-05, 0.003349171718582511, -0.016734356060624123, 7.783907676639501e-06, -2.973504066467285, -3.3433005809783936, 0.007419637870043516, 1.054762279290579, 2.859570101202138, 84.35028324800172, 0, 0, 0, 0, 0, 0, 0, 0, 0.003733443096280098, -0.00986994244158268, 0.9989762306213379, -0.08687514066696167, 0.09840474277734756, 0.11816290766000748
24206, 0.008455952629446983, 0.003709411947056651, -0.00029042857931926847, 0.0003001785953529179, -0.0014779198681935668, 2.0980369299650192e-05, 0.0036708286497741938, -0.017710279673337936, -5.865066486876458e-05, -2.973463535308838, -3.3432772159576416, 0.0072997198440134525, 0.9339021981832699, 2.829468570429299, 84.34908344335535, 0, 0, 0, 0, 0, 0, 0, 0, 0.002321943175047636, -0.009441366419196129, 1.0010504722595215, 0.22961969673633575, 0.07832781970500946, 0.2018296867609024
24216, 0.007844368927180767, 0.004091344773769379, 0.0005856871139258146, 0.00033808182342909276, -0.0016597163630649447, 2.075888914987445e-05, 0.003909832797944546, -0.018649009987711906, 1.4732630916114431e-05, -2.9734926223754883, -3.34330415725708, 0.007323486264795065, 1.0041043515871413, 2.8619990910169406, 84.36039316974171, 0, 0, 0, 0, 0, 0, 0, 0, 0.0016204643761739135, -0.01094497088342905, 0.9992753863334656, -0.11398430913686752, 0.02287861704826355, 0.10160058736801147
24226, 0.007586249615997076, 0.002970586996525526, 0.001614475972019136, 0.00037808745400980115, -0.0018513897666707635, 2.076581586152315e-05, 0.00409131171181798, -0.019685672596096992, -1.2943650290253572e-05, -2.9734926223754883, -3.34330415725708, 0.007323486264795065, 1.0041043515871413, 2.8619990910169406, 84.36039316974171, 0, 0, 0, 0, 0, 0, 0, 0, 0.0033360328525304794, -0.01078218687325716, 1.000073790550232, 0.0922398641705513, 0.2091038078069687, 0.21344387531280518
24236, 0.0076027847826480865, 0.0033047781325876713, 0.0013098582858219743, 0.00042049394687637687, -0.002053702250123024, 2.053094794973731e-05, 0.004390006419271231, -0.02077680081129074, -3.3626649383222684e-05, -2.9734954833984375, -3.343291997909546, 0.007336270995438099, 0.9783996448494264, 2.839872284731854, 84.3423989021315, 0, 0, 0, 0, 0, 0, 0, 0, 0.0048593878746032715, -0.008990070782601833, 1.000746726989746, 0.06715022027492523, 0.08839552104473114, 0.01329944096505642
24246, 0.008589493110775948, 0.00517676305025816, 0.0014764186926186085, 0.00046652244054712355, -0.002266102936118841, 2.0423962268978357e-05, 0.004815686494112015, -0.02170332707464695, 1.2632047400984447e-05, -2.973465919494629, -3.3432888984680176, 0.007313260342925787, 0.9931141571398082, 2.920356081286741, 84.35455337958194, 0, 0, 0, 0, 0, 0, 0, 0, 0.004076025448739529, -0.009714609012007713, 0.9989755153656006, 0.09199263900518417, -0.17920002341270447, -0.2561171054840088
24256, 0.009319690056145191, 0.0070249056443572044, 0.0017769798869267106, 0.0005167644121684134, -0.002487913239747286, 2.0283216144889593e-05, 0.005232710391283035, -0.022658739238977432, -4.038181941723451e-05, -2.973565101623535, -3.343395471572876, 0.00796032790094614, 0.18833020406474202, 2.360638828505131, 84.20849681555757, 0, 0, 0, 0, 0, 0, 0, 0, 0.0021158168092370033, -0.009406252764165401, 1.0009413957595825, -0.1084330603480339, 0.06699801981449127, 0.15593045949935913
24266, 0.00879536010324955, 0.00866861641407013, 0.0023769389372318983, 0.0005702775088138878, -0.0027191212866455317, 2.0021398086100817e-05, 0.005469908006489277, -0.02358286641538143, -1.1594760508160107e-05, -2.9738330841064453, -3.34321665763855, 0.009807376191020012, 3.1327576500659475, 5.487432442149981, 84.46798656249965, 0, 0, 0, 0, 0, 0, 0, 0, 0.002839989261701703, -0.010121508501470089, 1.0013974905014038, -0.1107955276966095, -0.08871448785066605, -0.02247026190161705
24276, 0.01010135281831026, 0.009202346205711365, 0.0027050678618252277, 0.000626208377070725, -0.0029599431436508894, 2.0604347810149193e-05, 0.005716270767152309, -0.024581482633948326, 0.0001285927719436586, -2.973499298095703, -3.343296527862549, 0.007341558113694191, 0.9028945102362631, 2.831511210249346, 84.34564401778837, 0, 0, 0, 0, 0, 0, 0, 0, 0.002376875141635537, -0.009008809924125671, 0.9991510510444641, 0.1335471123456955, -0.042719997465610504, 0.18054290115833282
24286, 0.01002266351133585, 0.009558696299791336, 0.003045244375243783, 0.0006844769231975079, -0.003210233524441719, 2.1584448404610157e-05, 0.00593744358047843, -0.025476595386862755, 6.779471732443199e-05, -2.973529815673828, -3.343397378921509, 0.007804201915860176, 0.21667209093712606, 2.4552480609217753, 84.21826968379827, 0, 0, 0, 0, 0, 0, 0, 0, 0.0012789515312761068, -0.009592518210411072, 0.9994012713432312, 0.04614861682057381, -0.194813072681427, -0.03145627677440643
24296, 0.010380012914538383, 0.00993982795625925, 0.0035464491229504347, 0.0007444419316016138, -0.0034697093069553375, 2.198253059759736e-05, 0.006055562756955624, -0.026418548077344894, 1.2216319191793445e-05, -2.973816156387329, -3.3432083129882812, 0.009746183641254902, 3.0685985641572175, 5.52958152306303, 84.47432280326392, 0, 0, 0, 0, 0, 0, 0, 0, 0.003219872247427702, -0.009570491500198841, 1.0003888607025146, 0.0905093178153038, 0.06071672961115837, -0.030886856839060783
24306, 0.010691248811781406, 0.010364821180701256, 0.003142580157145858, 0.0008063727291300893, -0.003738582832738757, 2.226035576313734e-05, 0.006330599542707205, -0.027356162667274475, 4.374450509203598e-05, -2.973820686340332, -3.3432180881500244, 0.00970273558050394, 3.093031516600833, 5.452814801843829, 84.47982797215523, 0, 0, 0, 0, 0, 0, 0, 0, 0.003606117330491543, -0.010403702035546303, 0.9986169934272766, 0.007735746446996927, -0.11248601973056793, -0.20613931119441986
24316, 0.012884119525551796, 0.011777189560234547, 0.0029451411683112383, 0.0008714024443179369, -0.004017295315861702, 2.21564550884068e-05, 0.006675330922007561, -0.028386343270540237, -6.41294609522447e-05, -2.973498582839966, -3.343287706375122, 0.007343606557697058, 0.9865862202777311, 2.859345917992158, 84.35298238717371, 0, 0, 0, 0, 0, 0, 0, 0, 0.002194172004237771, -0.009515262208878994, 0.9985759854316711, 0.2315724939107895, -0.14789161086082458, -0.05898401513695717
24326, 0.01322469487786293, 0.012721048668026924, 0.003447944298386574, 0.0009392928914166987, -0.004306103102862835, 2.0894338376820087e-05, 0.006902751978486776, -0.029375169426202774, -0.00018791841284837574, -2.9735794067382812, -3.343416213989258, 0.007954133674502373, 0.25400127316862947, 2.3598161573976597, 84.19902210606682, 0, 0, 0, 0, 0, 0, 0, 0, 0.002989581786096096, -0.011781461536884308, 0.9996947050094604, 0.023524921387434006, -0.0843084380030632, 0.2413259595632553
24336, 0.014253241941332817, 0.012684926390647888, 0.002058644313365221, 0.0010095912730321288, -0.004605516325682402, 1.88132980838418e-05, 0.007156941574066877, -0.030507508665323257, -0.0002278967440361157, -2.97401762008667, -3.343729019165039, 0.008612293750047684, 2.068553686553282, 2.630915292967103, 84.56988261159798, 0, 0, 0, 0, 0, 0, 0, 0, 0.001544648315757513, -0.010113885626196861, 1.0001887083053589, 0.1690058410167694, 0.008003447204828262, -0.19737692177295685
24346, 0.015138587914407253, 0.013056671246886253, 0.0022538932971656322, 0.0010820758761838078, -0.0049158260226249695, 1.654890365898609e-05, 0.007339945994317532, -0.03155447915196419, -0.00022460747277364135, -2.9734742641448975, -3.3433008193969727, 0.0073360055685043335, 0.9816178717885815, 2.7923408773620793, 84.3439707770552, 0, 0, 0, 0, 0, 0, 0, 0, 0.0016070192214101553, -0.008871331810951233, 1.0000108480453491, 0.21325887739658356, -0.024923494085669518, -0.030757199972867966
24356, 0.01478334330022335, 0.013352773152291775, 0.003924892749637365, 0.0011562359286472201, -0.005235906224697828, 1.423008507117629e-05, 0.00749207753688097, -0.03246156871318817, -0.00023876750492490828, -2.973505735397339, -3.343310594558716, 0.007354696746915579, 0.970102232186328, 2.8722065237672325, 84.35247273493135, 0, 0, 0, 0, 0, 0, 0, 0, 0.0022730627097189426, -0.008651567623019218, 0.9996001720428467, -0.051370155066251755, -0.07948465645313263, 0.09367819130420685
24366, 0.014756604097783566, 0.014234540052711964, 0.004370408598333597, 0.0012321464018896222, -0.005564880557358265, 1.1607538908720016e-05, 0.007690049707889557, -0.03333325684070587, -0.0002853426558431238, -2.97348690032959, -3.3432888984680176, 0.00736991548910737, 0.9214431708929376, 2.808791832668163, 84.34375391778829, 0, 0, 0, 0, 0, 0, 0, 0, 0.0024730218574404716, -0.010358714498579502, 1.0012913942337036, 0.0037786897737532854, -0.005392793565988541, 0.001823721337132156
24376, 0.01613018475472927, 0.014479369856417179, 0.004445207770913839, 0.00131016387604177, -0.005903364159166813, 9.362061973661184e-06, 0.007913458161056042, -0.0343635156750679, -0.000163359654834494, -2.9735734462738037, -3.3434066772460938, 0.007967966608703136, 0.1828242298219294, 2.422009802599405, 84.20873167814061, 0, 0, 0, 0, 0, 0, 0, 0, 0.0016362513415515423, -0.011036085896193981, 1.0008641481399536, 0.15804407000541687, -0.20465010404586792, -0.0029705038759857416
24386, 0.01687363162636757, 0.014895571395754814, 0.004209092818200588, 0.0013899769401177764, -0.0062524015083909035, 8.216011337935925e-06, 0.008049155585467815, -0.0354439802467823, -6.548708188347518e-05, -2.973703145980835, -3.343449592590332, 0.006956419441848993, 0.33171464662330213, 3.273715666119841, 84.40831606812462, 0, 0, 0, 0, 0, 0, 0, 0, 0.002202052855864167, -0.010386033914983273, 1.0006167888641357, 0.0027918594423681498, 0.015505550429224968, -0.10378549247980118
24396, 0.018010906875133514, 0.014072523452341557, 0.003989726770669222, 0.00147145870141685, -0.00661204569041729, 7.912982255220413e-06, 0.008247202262282372, -0.03648490458726883, 5.265941581455991e-06, -2.9734747409820557, -3.343289375305176, 0.007326201070100069, 0.9804127001795305, 2.9025401868911445, 84.35937746732353, 0, 0, 0, 0, 0, 0, 0, 0, 0.002233879640698433, -0.00957422237843275, 0.99947589635849, 0.07204107195138931, 0.13103929162025452, -0.15293294191360474
24406, 0.018528547137975693, 0.0134870121255517, 0.004832157399505377, 0.0015549814561381936, -0.0069816517643630505, 7.93358776718378e-06, 0.008457348681986332, -0.037436287850141525, -7.751531256872113e-07, -2.973507881164551, -3.343292713165283, 0.007387186866253614, 0.972551751441422, 2.8349795453279683, 84.33439895731215, 0, 0, 0, 0, 0, 0, 0, 0, 0.0014642429305240512, -0.008050757460296154, 1.0014935731887817, 0.04058604687452316, 0.16874702274799347, 0.08870214968919754
24416, 0.018903007730841637, 0.013187665492296219, 0.005650334060192108, 0.0016402510227635503, -0.0073602101765573025, 8.520728442817926e-06, 0.008596580475568771, -0.03827541321516037, 0.00011857966455863789, -2.9738314151763916, -3.3432059288024902, 0.00977921113371849, 3.1234780920437495, 5.454751946672189, 84.48065695682216, 0, 0, 0, 0, 0, 0, 0, 0, 0.0037833803799003363, -0.010314482264220715, 1.0013420581817627, 0.126624196767807, 0.10437162220478058, 0.11378403753042221
24426, 0.019181380048394203, 0.013819843530654907, 0.005038686562329531, 0.001727875554934144, -0.007748023606836796, 1.0223127901554108e-05, 0.008928326889872551, -0.03928731381893158, 0.0002222904731752351, -2.974418878555298, -3.3438191413879395, 0.009471097961068153, 0.7778716887656957, 2.0326857565404737, 84.10350169363406, 0, 0, 0, 0, 0, 0, 0, 0, 0.003675369080156088, -0.011667750775814056, 1.0007497072219849, 0.0013910431880503893, -0.005672621540725231, -0.08597774803638458
24436, 0.02080921083688736, 0.014928956516087055, 0.005587076302617788, 0.0018188500544056296, -0.008146696723997593, 1.279445132240653e-05, 0.009266556240618229, -0.04044732823967934, 0.0002923663123510778, -2.973834276199341, -3.343215227127075, 0.009757008403539658, 3.096270709382011, 5.4743255083962765, 84.47321171569789, 0, 0, 0, 0, 0, 0, 0, 0, 0.001318646245636046, -0.010936751961708069, 0.9990271329879761, 0.10306677222251892, -0.19056272506713867, 0.017749890685081482
24446, 0.021358536556363106, 0.01561701949685812, 0.005559931509196758, 0.001912169624119997, -0.008556767366826534, 1.5430385246872902e-05, 0.009397363290190697, -0.04156675562262535, 0.00023518480884376913, -2.9738271236419678, -3.3432185649871826, 0.009774897247552872, 3.094624244606309, 5.472258682347132, 84.46325785630333, 0, 0, 0, 0, 0, 0, 0, 0, 0.002910189563408494, -0.010149266570806503, 1.0001806020736694, -0.013727083802223206, -0.012182568199932575, 0.010659152641892433
24456, 0.02109595574438572, 0.017025399953126907, 0.005547742359340191, 0.0020073922351002693, -0.008977696299552917, 1.797109143808484e-05, 0.009647178463637829, -0.042618975043296814, 0.0002733365399762988, -2.9734907150268555, -3.343297243118286, 0.0073296367190778255, 0.9904677493445095, 2.815459911032036, 84.34716026465837, 0, 0, 0, 0, 0, 0, 0, 0, 0.0024944839533418417, -0.011204001493752003, 1.0010024309158325, -0.01928374171257019, -0.14267593622207642, 0.04841049760580063
24466, 0.021019136533141136, 0.01730138249695301, 0.004967022687196732, 0.002105073072016239, -0.009409507736563683, 2.119201235473156e-05, 0.009888967499136925, -0.04374335706233978, 0.0003712588222697377, -2.973694086074829, -3.3434553146362305, 0.006931170355528593, 0.3579589303237834, 3.2438899831242907, 84.40898620203454, 0, 0, 0, 0, 0, 0, 0, 0, 0.0019102087244391441, -0.009619807824492455, 1.0011146068572998, -0.09859524667263031, -0.10891961306333542, -0.22687238454818726
24476, 0.02108451910316944, 0.01852564327418804, 0.0040472946129739285, 0.002204761141911149, -0.009851867333054543, 2.5484361685812473e-05, 0.010048618540167809, -0.04472848400473595, 0.0004876237944699824, -2.9735593795776367, -3.343424081802368, 0.007884904742240906, 0.2629706892354907, 2.4056060395543, 84.18791070242827, 0, 0, 0, 0, 0, 0, 0, 0, 0.001337119028903544, -0.009899821132421494, 1.000553011894226, -0.052128393203020096, -0.10145745426416397, -0.08846909552812576
24486, 0.022127874195575714, 0.017615927383303642, 0.004132173955440521, 0.0023057248909026384, -0.010304107330739498, 3.067473880946636e-05, 0.010144121013581753, -0.04571949690580368, 0.0005508584436029196, -2.973496437072754, -3.3432860374450684, 0.007342811673879623, 0.9330267567627856, 2.874979731287084, 84.36025101770531, 0, 0, 0, 0, 0, 0, 0, 0, 0.0007861568010412157, -0.010166944935917854, 0.9992823600769043, 0.13703691959381104, 0.06431219726800919, -0.046172868460416794
24496, 0.021336551755666733, 0.018080852925777435, 0.00519790081307292, 0.002407439285889268, -0.010766523890197277, 3.600039053708315e-05, 0.010198744013905525, -0.04676373302936554, 0.000514654559083283, -2.973832845687866, -3.3432228565216064, 0.009720783680677414, 3.06632753999382, 5.4849509574281115, 84.46877613231115, 0, 0, 0, 0, 0, 0, 0, 0, 0.002885175636038184, -0.01101252343505621, 1.0010178089141846, -0.1251809149980545, -0.23169702291488647, 0.055758558213710785
24506, 0.022155484184622765, 0.017054079100489616, 0.005241109989583492, 0.0025105082895606756, -0.01123978290706873, 4.1499093640595675e-05, 0.010415056720376015, -0.04788801446557045, 0.0005855131894350052, -2.9734854698181152, -3.343287706375122, 0.007377058733254671, 1.019120080668598, 2.859953348563465, 84.35914957796929, 0, 0, 0, 0, 0, 0, 0, 0, 0.0021937768906354904, -0.011180131696164608, 1.0004637241363525, 0.048777852207422256, 0.04568301513791084, 0.043133143335580826
24516, 0.022485006600618362, 0.0170244500041008, 0.004954773932695389, 0.002615640638396144, -0.01172435749322176, 4.755996633321047e-05, 0.010611419565975666, -0.049026913940906525, 0.0006270367302931845, -2.973479986190796, -3.3432798385620117, 0.007332395762205124, 0.9417491011800532, 2.882839668970263, 84.34821512673271, 0, 0, 0, 0, 0, 0, 0, 0, 0.002038785722106695, -0.009893292561173439, 1.0004150867462158, -0.0035001712385565042, 0.05288946256041527, -0.072302907705307
24526, 0.022831059992313385, 0.017094196751713753, 0.003937675151973963, 0.0027225762605667114, -0.012219718657433987, 5.38496533408761e-05, 0.010775681585073471, -0.05004526674747467, 0.0006312952027656138, -2.973822832107544, -3.343219757080078, 0.009716993197798729, 3.102980090096066, 5.534786438788785, 84.47654166500492, 0, 0, 0, 0, 0, 0, 0, 0, 0.0012509081279858947, -0.010480301454663277, 0.9995387196540833, 0.08266875147819519, 0.08460824191570282, -0.08134027570486069
24536, 0.023824132978916168, 0.015987709164619446, 0.003703463589772582, 0.0028308939654380083, -0.012725532986223698, 5.990674253553152e-05, 0.010887859389185905, -0.05111755430698395, 0.0005805205437354743, -2.9736979007720947, -3.343454599380493, 0.006985293235629797, 0.34118202958970834, 3.2723321729500867, 84.39687644419877, 0, 0, 0, 0, 0, 0, 0, 0, 0.002561483532190323, -0.01252221129834652, 0.9995629787445068, 0.08642007410526276, 0.230910986661911, -0.13928014039993286
24546, 0.02488606609404087, 0.017226478084921837, 0.004308601841330528, 0.0029408750124275684, -0.013242864981293678, 6.534671410918236e-05, 0.011108359321951866, -0.05234888195991516, 0.0005078629474155605, -2.9735684394836426, -3.343416452407837, 0.007863356731832027, 0.24030269698558349, 2.4223717047182447, 84.2160504655452, 0, 0, 0, 0, 0, 0, 0, 0, 0.003676897846162319, -0.009702788665890694, 0.9983946681022644, 0.14764685928821564, -0.1067023053765297, -0.12956522405147552
24556, 0.024976233020424843, 0.01731717772781849, 0.004450915846973658, 0.003053601598367095, -0.013771426863968372, 6.966781802475452e-05, 0.011436945758759975, -0.05336342006921768, 0.0003567346720956266, -2.9734809398651123, -3.3433048725128174, 0.00738954683765769, 0.9680511016109904, 2.884276385032848, 84.353394686559, 0, 0, 0, 0, 0, 0, 0, 0, 0.0034021371975541115, -0.009537297300994396, 0.9998279213905334, 0.03129762038588524, -0.05015238747000694, 0.05122660845518112
24566, 0.025487979874014854, 0.017841998487710953, 0.004069278482347727, 0.003169500967487693, -0.014310024678707123, 7.317628478631377e-05, 0.01174292154610157, -0.05435619130730629, 0.0003453560348134488, -2.973477602005005, -3.343292236328125, 0.007330615539103746, 0.9530671333403583, 2.8286550610682184, 84.36561248521001, 0, 0, 0, 0, 0, 0, 0, 0, 0.0018706577830016613, -0.011093506589531898, 1.0002665519714355, 0.05313888564705849, 0.055253397673368454, -0.08737027645111084
24576, 0.026085514575242996, 0.019321439787745476, 0.004524094518274069, 0.003287727013230324, -0.014859060756862164, 7.670983904972672e-05, 0.01190225500613451, -0.055450987070798874, 0.00036173989064991474, -2.9734792709350586, -3.3432958126068115, 0.007321442477405071, 0.948977997102536, 2.869043890603365, 84.34901266556828, 0, 0, 0, 0, 0, 0, 0, 0, 0.00026192693621851504, -0.008499249815940857, 1.000955581665039, -0.006633210461586714, -0.16228792071342468, 0.1049942672252655
24586, 0.027282703667879105, 0.017802683636546135, 0.004076360259205103, 0.003406828036531806, -0.015418078750371933, 8.081260602921247e-05, 0.011917957104742527, -0.056352563202381134, 0.00045920073171146214, -2.9735701084136963, -3.3434133529663086, 0.007859284058213234, 0.28598383581315445, 2.4431001480100463, 84.21836607163897, 0, 0, 0, 0, 0, 0, 0, 0, -0.0004296403785701841, -0.008089887909591198, 1.0014067888259888, 0.1769566386938095, 0.22925066947937012, -0.12131775170564651
24596, 0.027463160455226898, 0.01752603054046631, 0.004210655577480793, 0.0035258359275758266, -0.015985984355211258, 8.614227408543229e-05, 0.011883612722158432, -0.05722871050238609, 0.0006071156240068376, -2.9734926223754883, -3.3432912826538086, 0.0073385294526815414, 0.9515892992183366, 2.7997821052956056, 84.3564762488322, 0, 0, 0, 0, 0, 0, 0, 0, 0.0011502200504764915, -0.010378400795161724, 1.0001931190490723, 0.058491300791502, -0.0028084719087928534, 0.03471136838197708
24606, 0.02746640145778656, 0.017582297325134277, 0.003877444891259074, 0.003645112970843911, -0.016563482582569122, 9.23674670048058e-05, 0.011971799656748772, -0.058270808309316635, 0.0006383292493410408, -2.9740092754364014, -3.343735694885254, 0.008572923019528389, 2.1088873201653806, 2.6613831399030516, 84.58765618614144, 0, 0, 0, 0, 0, 0, 0, 0, 0.0005433425540104508, -0.009813244454562664, 0.998805582523346, -0.014397661201655865, 0.017394615337252617, -0.036529820412397385
24616, 0.027376331388950348, 0.018791481852531433, 0.004573173355311155, 0.0037650566082447767, -0.017151331529021263, 9.805528679862618e-05, 0.012016898021101952, -0.05929882824420929, 0.0004996378556825221, -2.973487138748169, -3.3433055877685547, 0.00738553935661912, 0.9306057046450295, 2.8295717053397027, 84.35726613939143, 0, 0, 0, 0, 0, 0, 0, 0, 0.0010521527146920562, -0.009442667476832867, 0.9991458058357239, 0.03501608595252037, -0.174041748046875, 0.18886110186576843
24626, 0.027056507766246796, 0.016029799357056618, 0.004098362289369106, 0.0038854042068123817, -0.017749343067407608, 0.0001025659148581326, 0.012052607722580433, -0.06030358374118805, 0.0004028846451546997, -2.9735820293426514, -3.3434009552001953, 0.007865365594625473, 0.28531362124752363, 2.5216914641459027, 84.22717775635536, 0, 0, 0, 0, 0, 0, 0, 0, 0.0005761532811447978, -0.00943335983902216, 1.0009214878082275, -0.12091721594333649, 0.44643235206604004, -0.052381280809640884
24636, 0.027128145098686218, 0.016047677025198936, 0.004351617768406868, 0.004006086848676205, -0.01835731603205204, 0.00010700814891606569, 0.012083888985216618, -0.06129102036356926, 0.00048596769920550287, -2.973517894744873, -3.3433008193969727, 0.0073847658932209015, 0.9715729406403878, 2.8554286029628315, 84.35651829851588, 0, 0, 0, 0, 0, 0, 0, 0, 0.001291752210818231, -0.010928756557404995, 1.001261591911316, -0.04185876250267029, 0.02305726520717144, 0.07111848145723343
24646, 0.028114281594753265, 0.017152562737464905, 0.004548946395516396, 0.004127397667616606, -0.018975699320435524, 0.00011241476750001311, 0.012178279459476471, -0.06238580122590065, 0.0005957470857538283, -2.974135160446167, -3.3435215950012207, 0.011160006746649742, 5.296861349284535, 4.9701050826116955, 84.65785533863443, 0, 0, 0, 0, 0, 0, 0, 0, 0.0013795436825603247, -0.011959942989051342, 1.0005152225494385, 0.0773146003484726, -0.2540082335472107, 0.13580051064491272
24656, 0.027918746694922447, 0.016628790646791458, 0.0048991963267326355, 0.004249730613082647, -0.019605735316872597, 0.00011867150897160172, 0.012288284488022327, -0.06362135708332062, 0.0006559939356520772, -2.9735612869262695, -3.3433971405029297, 0.007860011421144009, 0.23841275393920455, 2.44849756056027, 84.21824754219469, 0, 0, 0, 0, 0, 0, 0, 0, 0.0033352705650031567, -0.011869189329445362, 1.001655101776123, 0.012732371687889099, 0.08553304523229599, 0.02805006131529808
24666, 0.02840004861354828, 0.016878841444849968, 0.0047463602386415005, 0.004374082665890455, -0.02024807594716549, 0.00012593582505360246, 0.012582093477249146, -0.06484664231538773, 0.0007972688181325793, -2.9735817909240723, -3.34342098236084, 0.007892203517258167, 0.24612849662174321, 2.4017391225731046, 84.21275006075929, 0, 0, 0, 0, 0, 0, 0, 0, 0.0046904431656003, -0.009987146593630314, 1.002341389656067, 0.15628322958946228, -0.09592773020267487, -0.017265597358345985
24676, 0.02765093930065632, 0.01699504628777504, 0.0053223432041704655, 0.004501902963966131, -0.02090192213654518, 0.0001349489321000874, 0.012981995940208435, -0.06592272222042084, 0.0010057466570287943, -2.973494052886963, -3.3432931900024414, 0.0073919156566262245, 1.0209063205025046, 2.7866746547450134, 84.3512770062376, 0, 0, 0, 0, 0, 0, 0, 0, 0.0018904251046478748, -0.010828562080860138, 1.0006318092346191, -0.0849446952342987, -0.01820475235581398, -0.1200348287820816
24686, 0.0281071774661541, 0.016557496041059494, 0.006023613270372152, 0.0046325684525072575, -0.0215666014701128, 0.00014530314365401864, 0.01315111294388771, -0.06701304763555527, 0.0010655195219442248, -2.973808526992798, -3.343224287033081, 0.00972001813352108, 3.0740500213119573, 5.461382417759978, 84.47204490683147, 0, 0, 0, 0, 0, 0, 0, 0, 0.0032126924488693476, -0.010307321324944496, 0.9991025328636169, 0.08053406327962875, 0.0864439308643341, 0.049554649740457535
24696, 0.028221016749739647, 0.016129327937960625, 0.005523172672837973, 0.0047653005458414555, -0.02224203199148178, 0.00015557982260361314, 0.01339529175311327, -0.06807315349578857, 0.000990215688943863, -2.974252700805664, -3.3431143760681152, 0.009047754108905792, 4.8635427302770875, 7.0313810829388785, 84.51763240367977, 0, 0, 0, 0, 0, 0, 0, 0, 0.002546960022300482, -0.010649806819856167, 1.0012280941009521, 0.05905470997095108, 0.04579326882958412, -0.0517469197511673
24706, 0.029366696253418922, 0.01577158272266388, 0.006179107818752527, 0.004900337662547827, -0.022928165271878242, 0.00016590725863352418, 0.0136121129617095, -0.06915364414453506, 0.0010756781557574868, -2.973482131958008, -3.3433022499084473, 0.007315917406231165, 0.9690620725940972, 2.885928421728835, 84.35452973881645, 0, 0, 0, 0, 0, 0, 0, 0, 0.0025301293935626745, -0.010697836056351662, 1.0003293752670288, 0.07680487632751465, 0.03698481246829033, 0.047259263694286346
24716, 0.030899908393621445, 0.016100771725177765, 0.007560886442661285, 0.005037534981966019, -0.02362515963613987, 0.00017690612003207207, 0.0138273099437356, -0.07024537771940231, 0.0011244876077398658, -2.973466396331787, -3.3432865142822266, 0.00730061624199152, 0.9730407352223579, 2.835430345611371, 84.35607565533931, 0, 0, 0, 0, 0, 0, 0, 0, 0.002705581486225128, -0.011577514931559563, 1.0012701749801636, 0.11680937558412552, 0.004149098414927721, 0.16781340539455414
24726, 0.031233767047524452, 0.015581611543893814, 0.007460286375135183, 0.005176929756999016, -0.024333585053682327, 0.0001887177349999547, 0.014051677659153938, -0.07143973559141159, 0.0012382004642859101, -2.9734764099121094, -3.3432838916778564, 0.0073375641368329525, 0.9768643934497216, 2.850772764328184, 84.35075612314637, 0, 0, 0, 0, 0, 0, 0, 0, 0.003426401410251856, -0.012304108589887619, 1.000512719154358, 0.03558807075023651, 0.3042196035385132, -0.09857330471277237
24736, 0.03169998154044151, 0.015362460166215897, 0.0065742311999201775, 0.005318927112966776, -0.025054318830370903, 0.000201372429728508, 0.014347748830914497, -0.07270694524049759, 0.0012931365054100752, -2.973834753036499, -3.3432180881500244, 0.00973160658031702, 3.1532582027786016, 5.484817213674489, 84.4682511444765, 0, 0, 0, 0, 0, 0, 0, 0, 0.003990389406681061, -0.011895711533725262, 0.9989103674888611, 0.11096543818712234, -0.08088754862546921, -0.13482506573200226
24746, 0.03390878066420555, 0.01642525941133499, 0.007169243413954973, 0.005464107263833284, -0.025787517428398132, 0.00021375174401327968, 0.014688236638903618, -0.07393261790275574, 0.001183122512884438, -2.9737157821655273, -3.3434641361236572, 0.007006137166172266, 0.34579931617515747, 3.228041267459986, 84.4075485240112, 0, 0, 0, 0, 0, 0, 0, 0, 0.0031825972255319357, -0.011642087250947952, 1.000369668006897, 0.21150152385234833, -0.02685619331896305, 0.10002028197050095
24756, 0.03438541665673256, 0.01798798330128193, 0.007080971263349056, 0.005612352397292852, -0.026532722637057304, 0.0002254375140182674, 0.014960799366235733, -0.0751083493232727, 0.0011544012231752276, -2.9734950065612793, -3.343283176422119, 0.007379863411188126, 0.9088634938169086, 2.8543833769030584, 84.35690406974955, 0, 0, 0, 0, 0, 0, 0, 0, 0.0027895995881408453, -0.009400096721947193, 1.0005848407745361, 0.03249381110072136, -0.35216495394706726, -0.006627476774156094
24766, 0.03488567844033241, 0.018194232136011124, 0.007691547274589539, 0.005763289052993059, -0.02728879451751709, 0.00023742439225316048, 0.015226511284708977, -0.07610606402158737, 0.0012433850206434727, -2.9744675159454346, -3.343796491622925, 0.011223445646464825, 5.453442338053068, 4.937197599786174, 84.76600672032951, 0, 0, 0, 0, 0, 0, 0, 0, 0.0036370805464684963, -0.01003804337233305, 1.0003612041473389, 0.11050412058830261, -0.10960834473371506, 0.1197315901517868
24776, 0.034973517060279846, 0.018861845135688782, 0.007269909605383873, 0.005917155183851719, -0.02805507741868496, 0.0002500996342860162, 0.01554669439792633, -0.07715064287185669, 0.00129210134036839, -2.973475933074951, -3.343285083770752, 0.007325684651732445, 0.9811205250039121, 2.970354977157541, 84.36006465953612, 0, 0, 0, 0, 0, 0, 0, 0, 0.004956334829330444, -0.012006588280200958, 0.9987763166427612, -0.06452122330665588, -0.22017459571361542, -0.09042331576347351
24786, 0.035922251641750336, 0.018472250550985336, 0.008749544620513916, 0.006090785376727581, -0.02891085483133793, 0.00026351300766691566, 0.016022387892007828, -0.07844533026218414, 0.0011471753241494298, -2.9735007286071777, -3.343289375305176, 0.007372059393674135, 1.003002872751674, 2.7875559346361456, 84.33385290907178, 0, 0, 0, 0, 0, 0, 0, 0, 0.0040025413036346436, -0.010710439644753933, 0.9997678995132446, 0.1378692388534546, 0.18657436966896057, 0.16391561925411224
24796, 0.035922251641750336, 0.018472250550985336, 0.008749544620513916, 0.006252848543226719, -0.029701072722673416, 0.0002749005798250437, 0.01639026403427124, -0.07959806174039841, 0.0011307551758363843, -2.9734861850738525, -3.343290328979492, 0.007365074940025806, 0.9625487756464342, 2.864738563958497, 84.34099145296611, 0, 0, 0, 0, 0, 0, 0, 0, 0.003448829287663102, -0.013078928925096989, 0.9993556141853333, 0.04353012144565582, 0.13291886448860168, -0.025648105889558792
24806, 0.03558477386832237, 0.018783822655677795, 0.008686824701726437, 0.0064182463102042675, -0.030503688380122185, 0.0002861039829440415, 0.016689321026206017, -0.08092500269412994, 0.0011103720171377063, -2.9734723567962646, -3.3432745933532715, 0.007344181649386883, 0.9907804952717475, 2.8483529006710455, 84.35015987149366, 0, 0, 0, 0, 0, 0, 0, 0, 0.002679241355508566, -0.012349912896752357, 0.9999521374702454, -0.16798420250415802, -0.14941895008087158, -0.004495970904827118
24816, 0.03450435400009155, 0.019646883010864258, 0.009071588516235352, 0.006586270406842232, -0.031319357454776764, 0.00029712991090491414, 0.016915522515773773, -0.08220887184143066, 0.0010952817974612117, -2.974209785461426, -3.343109369277954, 0.0090223029255867, 4.873456617057111, 7.1145814550524165, 84.52340254938397, 0, 0, 0, 0, 0, 0, 0, 0, 0.0016499570338055491, -0.012422732077538967, 0.999847948551178, 0.18475638329982758, -0.0016286347527056932, -0.10723961144685745
24826, 0.0355880968272686, 0.0191272534430027, 0.008825882337987423, 0.006756158079952002, -0.03214779868721962, 0.00030804751440882683, 0.017061976715922356, -0.08347910642623901, 0.0010886592790484428, -2.9734890460968018, -3.3432974815368652, 0.007387023419141769, 1.016644102415798, 2.8417120714715054, 84.34711295240763, 0, 0, 0, 0, 0, 0, 0, 0, 0.002234198385849595, -0.011874822899699211, 1.0006351470947266, 0.09834820032119751, -0.006200750824064016, 0.1498558074235916
24836, 0.03594767302274704, 0.018873680382966995, 0.00955512560904026, 0.0069277179427444935, -0.03298870101571083, 0.00031933479476720095, 0.01725003682076931, -0.08470157533884048, 0.001169229974038899, -2.9736952781677246, -3.3434457778930664, 0.006922784261405468, 0.33773535749603, 3.265869008935425, 84.39480435900535, 0, 0, 0, 0, 0, 0, 0, 0, 0.00220739608630538, -0.01073154155164957, 1.0003840923309326, 0.08439251035451889, -0.1381673812866211, -0.06131202355027199
24846, 0.03713172301650047, 0.02020140364766121, 0.01023750752210617, 0.007101086899638176, -0.03384145721793175, 0.0003312125336378813, 0.01742374524474144, -0.08584997057914734, 0.0012067374773323536, -2.9738125801086426, -3.3431997299194336, 0.009717912413179874, 3.10504471928184, 5.481501808024973, 84.4737539920156, 0, 0, 0, 0, 0, 0, 0, 0, 0.0018084723269566894, -0.011279219761490822, 1.0003564357757568, -0.07255784422159195, 0.024377331137657166, -0.08067189902067184
24856, 0.03711690753698349, 0.020083872601389885, 0.010251550003886223, 0.007275974377989769, -0.034705616533756256, 0.0003433965612202883, 0.01755375787615776, -0.08698181807994843, 0.0012305256677791476, -2.974012613296509, -3.343751907348633, 0.008568628691136837, 2.09935648541192, 2.6087350602053334, 84.57303013209578, 0, 0, 0, 0, 0, 0, 0, 0, 0.0019164705881848931, -0.007868093438446522, 1.0015172958374023, -0.07836182415485382, 0.008475856855511665, 0.009862488135695457
24866, 0.03681281581521034, 0.019820598885416985, 0.010312676429748535, 0.007452262565493584, -0.03557956591248512, 0.00035652390215545893, 0.01770385354757309, -0.08780809491872787, 0.0013954027090221643, -2.9734959602355957, -3.343283176422119, 0.0073618898168206215, 0.9788817501700667, 2.817397271683859, 84.34237656440628, 0, 0, 0, 0, 0, 0, 0, 0, 0.0025445674546062946, -0.006547864060848951, 1.0033752918243408, -0.046675678342580795, 0.08366066962480545, 0.005200718063861132
24876, 0.03651726245880127, 0.01939847134053707, 0.011128794401884079, 0.007630250416696072, -0.03646134212613106, 0.00037191802402958274, 0.017893696203827858, -0.08854725956916809, 0.0016838697483763099, -2.9734933376312256, -3.343306064605713, 0.0073195453733205795, 0.9336018545852807, 2.7943978593897043, 84.35233025626307, 0, 0, 0, 0, 0, 0, 0, 0, 0.0017596576362848282, -0.010804105550050735, 1.0003961324691772, 0.17946559190750122, 0.08567366003990173, 0.17484568059444427
24886, 0.03721608221530914, 0.019050095230340958, 0.012156539596617222, 0.00780976889654994, -0.03735245019197464, 0.00038907380076125264, 0.018009984865784645, -0.08967453241348267, 0.0017477166838943958, -2.9738337993621826, -3.3432157039642334, 0.009755686856806278, 3.1060427142895355, 5.479835693871877, 84.47304249106227, 0, 0, 0, 0, 0, 0, 0, 0, 0.001734593533910811, -0.011869704350829124, 0.9997079372406006, 0.004624179098755121, -0.16673071682453156, -0.04877329245209694
24896, 0.03684738278388977, 0.019352862611413002, 0.011163334362208843, 0.007990570738911629, -0.03825521841645241, 0.0004063556552864611, 0.0181503277271986, -0.09087897092103958, 0.0017090890323743224, -2.973482131958008, -3.3432977199554443, 0.007340737618505955, 0.9598546545175252, 2.8477659247278666, 84.33968655676551, 0, 0, 0, 0, 0, 0, 0, 0, 0.0023638673592358828, -0.010702285915613174, 0.9998701214790344, 0.007603914011269808, 0.016349654644727707, -0.0046403659507632256
24906, 0.03740136697888374, 0.019663749262690544, 0.011739382520318031, 0.008172986097633839, -0.0391695536673069, 0.0004233139334246516, 0.018332773819565773, -0.09198804199695587, 0.001682997215539217, -2.9734926223754883, -3.3433003425598145, 0.0073306746780872345, 0.9806374145218274, 2.91831626205024, 84.3503265840426, 0, 0, 0, 0, 0, 0, 0, 0, 0.0014901868999004364, -0.010842027142643929, 0.9998801946640015, 0.04851245880126953, -0.12288222461938858, 0.004223233554512262
24916, 0.03809504583477974, 0.02075258642435074, 0.012346632778644562, 0.008356841281056404, -0.040095120668411255, 0.00044026231626048684, 0.01843831315636635, -0.09312532842159271, 0.001707102870568633, -2.973480224609375, -3.343295097351074, 0.007338015828281641, 1.01001998289396, 2.8862293042641625, 84.36236668427624, 0, 0, 0, 0, 0, 0, 0, 0, 0.0024191923439502716, -0.011535118333995342, 1.002108097076416, 0.08612110465765, -0.05233575031161308, -0.17522035539150238
24926, 0.03931665048003197, 0.021094365045428276, 0.011994611471891403, 0.008542169816792011, -0.04103242605924606, 0.0004581414978019893, 0.018627410754561424, -0.09433583170175552, 0.001869164640083909, -2.9734838008880615, -3.3432819843292236, 0.007335567381232977, 0.9631191575119752, 2.8519530434396643, 84.35135211583948, 0, 0, 0, 0, 0, 0, 0, 0, 0.0023277527652680874, -0.011830559931695461, 0.999152660369873, 0.04915236681699753, -0.013256888836622238, -0.030172336846590042
24936, 0.0395258367061615, 0.021092461422085762, 0.01137116365134716, 0.008729388937354088, -0.041981764137744904, 0.00047646783059462905, 0.018816320225596428, -0.09553162753582001, 0.0017965479055419564, -2.9738364219665527, -3.34322452545166, 0.009730864316225052, 3.144045702709325, 5.486005232983501, 84.47756692666628, 0, 0, 0, 0, 0, 0, 0, 0, 0.0029019457288086414, -0.010195320472121239, 1.0007754564285278, 0.220814049243927, -0.20126290619373322, 0.140447199344635
24946, 0.040446698665618896, 0.021698761731386185, 0.01201393362134695, 0.008918797597289085, -0.04294236749410629, 0.0004945985274389386, 0.019065409898757935, -0.09658920019865036, 0.001830024761147797, -2.973482608795166, -3.3432817459106445, 0.007374321576207876, 1.018036070840383, 2.8456395535976924, 84.34849251750337, 0, 0, 0, 0, 0, 0, 0, 0, 0.003393971361219883, -0.010913511738181114, 0.9991515874862671, 0.15431620180606842, 0.04135313257575035, 0.11359564960002899
24956, 0.041777145117521286, 0.020630136132240295, 0.012782223522663116, 0.00911096390336752, -0.04391395300626755, 0.0005127436597831547, 0.019367801025509834, -0.097727932035923, 0.001799428602680564, -2.9735043048858643, -3.3432936668395996, 0.007390883285552263, 0.9762185425737961, 2.8179919883479556, 84.34591579152162, 0, 0, 0, 0, 0, 0, 0, 0, 0.0022305878810584545, -0.011650441214442253, 1.0013858079910278, -0.07984722405672073, -0.17029136419296265, -0.21088114380836487
24966, 0.04143713414669037, 0.021108079701662064, 0.011874225921928883, 0.009305616840720177, -0.04489723592996597, 0.0005313861183822155, 0.01956278644502163, -0.09892834722995758, 0.0019295306410640478, -2.973493814468384, -3.3433117866516113, 0.007378233131021261, 0.9490823890287865, 2.831495061780288, 84.34800546242764, 0, 0, 0, 0, 0, 0, 0, 0, 0.002741667442023754, -0.011288195848464966, 1.000966191291809, 0.10876593738794327, -0.22761544585227966, 0.1641479730606079
24976, 0.04200727492570877, 0.02227664738893509, 0.013485772535204887, 0.009502335451543331, -0.04589236527681351, 0.0005511734634637833, 0.01978093758225441, -0.10009727627038956, 0.0020283821504563093, -2.9735002517700195, -3.3433094024658203, 0.007351450156420469, 0.9702277124752939, 2.8249690063834976, 84.34563240786335, 0, 0, 0, 0, 0, 0, 0, 0, 0.0024182992056012154, -0.010951218195259571, 1.0003554821014404, 0.06355173140764236, -0.09384781867265701, -0.19505363702774048
24986, 0.04238492622971535, 0.022983398288488388, 0.01308139692991972, 0.0097010787576437, -0.04689905792474747, 0.0005716896266676486, 0.019967634230852127, -0.10124151408672333, 0.00207530683837831, -2.973505735397339, -3.343299627304077, 0.007341920398175716, 0.9754956136476425, 2.8588593831047717, 84.35519365137185, 0, 0, 0, 0, 0, 0, 0, 0, 0.002950663911178708, -0.009410720318555832, 1.0014346837997437, 0.31125015020370483, 0.1182582899928093, 0.012452551163733006
24996, 0.043576035648584366, 0.02163657359778881, 0.013615251518785954, 0.009901911951601505, -0.047916479408741, 0.0005930540501140058, 0.020199015736579895, -0.10224252939224243, 0.0021980092860758305, -2.973478078842163, -3.3432915210723877, 0.007343428209424019, 0.9867490416060458, 2.8287577604183696, 84.34477913092147, 0, 0, 0, 0, 0, 0, 0, 0, 0.001802611630409956, -0.008570770733058453, 1.001855731010437, 0.05901419371366501, -0.1454796940088272, 0.007027100771665573
25006, 0.04316984489560127, 0.022833622992038727, 0.014155329205095768, 0.010104654356837273, -0.048943568021059036, 0.0006158172618597746, 0.02034950442612171, -0.10317554324865341, 0.0023550852201879025, -2.9734749794006348, -3.343299150466919, 0.007299717515707016, 0.9600126316061036, 2.850759820024564, 84.35060030298665, 0, 0, 0, 0, 0, 0, 0, 0, 0.0024632003623992205, -0.009135669097304344, 1.0006202459335327, 0.049259185791015625, 0.05232461914420128, 0.01962798647582531
25016, 0.04339034855365753, 0.022566737607121468, 0.014014647342264652, 0.010309185832738876, -0.049980051815509796, 0.0006396610988304019, 0.020556729286909103, -0.1041208878159523, 0.0024141352623701096, -2.9734878540039062, -3.3433098793029785, 0.007329871412366629, 0.975946190137294, 2.891041622685975, 84.35216887941277, 0, 0, 0, 0, 0, 0, 0, 0, 0.003907059319317341, -0.00731583870947361, 1.0002316236495972, 0.09381764382123947, 0.177917018532753, -0.04145918786525726
25026, 0.04415922239422798, 0.021751711145043373, 0.014308424666523933, 0.01051644142717123, -0.051025331020355225, 0.000663961109239608, 0.020894378423690796, -0.10493487119674683, 0.0024463157169520855, -2.9734842777252197, -3.3432867527008057, 0.007313095964491367, 0.9568195796768133, 2.8187246502925802, 84.35478737375092, 0, 0, 0, 0, 0, 0, 0, 0, 0.002351683098822832, -0.00820447038859129, 1.0012539625167847, 0.13593891263008118, -0.2702227234840393, -0.1574336141347885
25036, 0.04445374011993408, 0.02332872711122036, 0.013670781627297401, 0.010726323351264, -0.05207931250333786, 0.0006890905206091702, 0.021081971004605293, -0.10586109757423401, 0.002580013358965516, -2.973452568054199, -3.343285083770752, 0.007298851851373911, 0.9430735094046491, 2.8347290439039625, 84.34839000486217, 0, 0, 0, 0, 0, 0, 0, 0, 0.0012834679801017046, -0.011334319598972797, 1.0019416809082031, 0.05837627500295639, 0.05365831404924393, -0.01679825410246849
25046, 0.04466025158762932, 0.02342824451625347, 0.013697788119316101, 0.010937664657831192, -0.05314376577734947, 0.0007158789085224271, 0.021186228841543198, -0.10702953487634659, 0.002778153633698821, -2.973468780517578, -3.3432986736297607, 0.007270442321896553, 0.922857843468277, 2.8374911668120717, 84.3371441380552, 0, 0, 0, 0, 0, 0, 0, 0, 0.0020620482973754406, -0.009783861227333546, 0.9998689889907837, -0.02068951353430748, -0.1951407492160797, 0.021282505244016647
25056, 0.04465648531913757, 0.02463516779243946, 0.013298512436449528, 0.011150467209517956, -0.05421924218535423, 0.0007436377927660942, 0.021374326199293137, -0.10806571692228317, 0.0027741107624024153, -2.9734904766082764, -3.3432977199554443, 0.007377765607088804, 0.9472119408112089, 2.8099418206279267, 84.34118579840694, 0, 0, 0, 0, 0, 0, 0, 0, 0.0034509499091655016, -0.010336759500205517, 0.9996165633201599, 0.2377842366695404, 0.05307786539196968, 0.18277792632579803
25066, 0.046103231608867645, 0.024528486654162407, 0.014284561388194561, 0.011365661397576332, -0.05530545860528946, 0.0007712023798376322, 0.02166445553302765, -0.10917755216360092, 0.0027392685879021883, -2.973499059677124, -3.3433032035827637, 0.007408252451568842, 0.9570262451735542, 2.864740216941442, 84.34930611334185, 0, 0, 0, 0, 0, 0, 0, 0, 0.0023796933237463236, -0.011015050113201141, 1.0015184879302979, -0.07316438853740692, -0.019285742193460464, -0.2565014660358429
25076, 0.04591011628508568, 0.025250455364584923, 0.012626619078218937, 0.011583281680941582, -0.05640292912721634, 0.0007993318722583354, 0.021859558299183846, -0.11031664162874222, 0.002887120470404625, -2.9734814167022705, -3.34328293800354, 0.007378748618066311, 0.9917178555199184, 2.9093471103582544, 84.35449010385537, 0, 0, 0, 0, 0, 0, 0, 0, 0.0011743580689653754, -0.009360119700431824, 1.001253604888916, 0.1273624151945114, -0.06044480577111244, -0.002433375222608447
25086, 0.04775195196270943, 0.02656932733952999, 0.012860593385994434, 0.011802260763943195, -0.05751125514507294, 0.000828796299174428, 0.021936262026429176, -0.11134897172451019, 0.0030062254518270493, -2.973479747772217, -3.343282699584961, 0.007280736695975065, 0.9914118894779741, 2.883514656519907, 84.35953031954051, 0, 0, 0, 0, 0, 0, 0, 0, 0.00012843889999203384, -0.010148218832910061, 0.9995766878128052, 0.03675433620810509, -0.12937523424625397, -0.08566075563430786
25096, 0.04875980690121651, 0.028380898758769035, 0.012803100980818272, 0.012021537870168686, -0.05863019451498985, 0.0008588304044678807, 0.021919118240475655, -0.11243893206119537, 0.0030010456684976816, -2.9741313457489014, -3.3435420989990234, 0.011131360195577145, 5.2726984061289635, 4.960079544330057, 84.66601491856844, 0, 0, 0, 0, 0, 0, 0, 0, 0.0010030337143689394, -0.012566667050123215, 1.000278115272522, -0.12086266279220581, 0.14204970002174377, 0.0327804833650589
25106, 0.04773455858230591, 0.026874015107750893, 0.013658665120601654, 0.012240990996360779, -0.059761080890893936, 0.0008888277807272971, 0.021971572190523148, -0.11373857408761978, 0.0029989308677613735, -2.973844289779663, -3.3432226181030273, 0.009743657894432545, 3.088800842348904, 5.4476127855508025, 84.46395320283499, 0, 0, 0, 0, 0, 0, 0, 0, 0.002530779456719756, -0.012527829967439175, 0.9974631071090698, 0.10056847333908081, -0.13165275752544403, 0.08070860058069229
25116, 0.04800528287887573, 0.026753932237625122, 0.01409631222486496, 0.01246178150177002, -0.06090496480464935, 0.0009178301552310586, 0.022186504676938057, -0.11503829807043076, 0.0028020243626087904, -2.9734716415405273, -3.3432834148406982, 0.007338584866374731, 0.9832716819899275, 2.8859687576581905, 84.3536142170002, 0, 0, 0, 0, 0, 0, 0, 0, 0.0034245129209011793, -0.010835077613592148, 0.9995541572570801, -0.09624422341585159, -0.14756911993026733, -0.07035665214061737
25126, 0.04757167026400566, 0.027933020144701004, 0.01393331028521061, 0.012685151770710945, -0.06206102296710014, 0.0009457767009735107, 0.02248752862215042, -0.11617329716682434, 0.002787790261209011, -2.9734766483306885, -3.3432912826538086, 0.007331218104809523, 0.9509531154965118, 2.850260793942198, 84.34659704893622, 0, 0, 0, 0, 0, 0, 0, 0, 0.003497443627566099, -0.010832502506673336, 1.0006506443023682, 0.09919442981481552, -0.07499352097511292, -0.1278270035982132
25136, 0.04815106838941574, 0.028010841459035873, 0.013668609783053398, 0.012911484576761723, -0.06322841346263885, 0.0009740322129800916, 0.022779060527682304, -0.11730537563562393, 0.002863788278773427, -2.9734840393066406, -3.3432939052581787, 0.007355237379670143, 0.9561561580772502, 2.862129629074758, 84.34811506395977, 0, 0, 0, 0, 0, 0, 0, 0, 0.003654125612229109, -0.01056697964668274, 1.0011082887649536, -0.17906051874160767, 0.1916467547416687, -0.016048738732933998
25146, 0.047543298453092575, 0.02649572119116783, 0.0143645154312253, 0.01314071100205183, -0.06440706551074982, 0.0010031545534729958, 0.02306625433266163, -0.11842566728591919, 0.0029611627105623484, -2.973477602005005, -3.3432974815368652, 0.007343681994825602, 0.985419504305045, 2.8329714118885363, 84.34985688367063, 0, 0, 0, 0, 0, 0, 0, 0, 0.0016514335293322802, -0.010060258209705353, 1.0003727674484253, -0.012911721132695675, 0.003677196567878127, -0.037272412329912186
25156, 0.04712352529168129, 0.025397762656211853, 0.014920802786946297, 0.013371987268328667, -0.06559665501117706, 0.0010329301003366709, 0.023188969120383263, -0.11949177831411362, 0.0029944279231131077, -2.973477602005005, -3.3432974815368652, 0.007343681994825602, 0.985419504305045, 2.8329714118885363, 84.34985688367063, 0, 0, 0, 0, 0, 0, 0, 0, 0.0017382765654474497, -0.010253249667584896, 1.0017895698547363, 0.13115331530570984, -0.0902799442410469, -0.07317399978637695
25166, 0.047687869518995285, 0.025485452264547348, 0.014535298570990562, 0.013604511506855488, -0.06679712235927582, 0.0010637491941452026, 0.02331577241420746, -0.12060147523880005, 0.00316987675614655, -2.9736838340759277, -3.3434557914733887, 0.00689059728756547, 0.2757147385578522, 3.2910344717211046, 84.40236748322471, 0, 0, 0, 0, 0, 0, 0, 0, 0.003305296180769801, -0.012448457069694996, 1.0022926330566406, 0.12702576816082, 0.07180167734622955, 0.12532903254032135
25176, 0.048409007489681244, 0.025014277547597885, 0.014450144954025745, 0.013839056715369225, -0.06800944358110428, 0.001096669351682067, 0.023593176156282425, -0.12186340242624283, 0.003414621576666832, -2.973832368850708, -3.343224287033081, 0.009742477908730507, 3.135946818652931, 5.510195059898422, 84.46463731931306, 0, 0, 0, 0, 0, 0, 0, 0, 0.0039686704985797405, -0.011189314536750317, 1.0001169443130493, 0.216266468167305, -0.10024213045835495, 0.041397929191589355
25186, 0.04946739971637726, 0.025488553568720818, 0.01455724984407425, 0.014076607301831245, -0.06923386454582214, 0.0011308910325169563, 0.023916997015476227, -0.12302057445049286, 0.0034301900304853916, -2.9734814167022705, -3.3433010578155518, 0.007377426140010357, 0.9969522155130537, 2.8470263538635265, 84.35444142463186, 0, 0, 0, 0, 0, 0, 0, 0, 0.0030014642979949713, -0.009851431474089622, 0.9977176785469055, 0.08844153583049774, 0.1151299923658371, 0.2600257396697998
25196, 0.05043307691812515, 0.025030694901943207, 0.015550954267382622, 0.014316992834210396, -0.07046947628259659, 0.0011641890741884708, 0.02416016161441803, -0.12410150468349457, 0.003229885594919324, -2.973839282989502, -3.3432257175445557, 0.009724284522235394, 3.085215447782644, 5.476362286026642, 84.4838523927911, 0, 0, 0, 0, 0, 0, 0, 0, 0.00400343956425786, -0.00995431374758482, 0.9992928504943848, 0.28040608763694763, -0.18031567335128784, 0.12427886575460434
25206, 0.052164558321237564, 0.026771042495965958, 0.01628889888525009, 0.014560243114829063, -0.07171579450368881, 0.001196031691506505, 0.02448979578912258, -0.12516163289546967, 0.003139116335660219, -2.9734904766082764, -3.343301296234131, 0.007340732496231794, 0.9701585981785922, 2.8603544170681516, 84.3397631025678, 0, 0, 0, 0, 0, 0, 0, 0, 0.0031268310267478228, -0.009163359180092812, 0.9994325041770935, -0.037436146289110184, -0.04701235890388489, -0.054311610758304596
25216, 0.05184255540370941, 0.02658248506486416, 0.01549274567514658, 0.014806317165493965, -0.07297249138355255, 0.0012271931627765298, 0.02472497709095478, -0.12617819011211395, 0.0030936631374061108, -2.973489284515381, -3.3433008193969727, 0.007340296637266874, 0.9314705031804633, 2.8043057723367326, 84.3497065220579, 0, 0, 0, 0, 0, 0, 0, 0, 0.0018626186065375805, -0.011669466271996498, 1.0000187158584595, -0.0590696707367897, 0.13129067420959473, 0.03632832691073418
25226, 0.053083937615156174, 0.027922339737415314, 0.015758274123072624, 0.0150541290640831, -0.0742403045296669, 0.0012581616174429655, 0.024837300181388855, -0.1273845136165619, 0.0031005204655230045, -2.9734854698181152, -3.34329891204834, 0.0073578841984272, 0.945028205905642, 2.8747228291347824, 84.34867958226465, 0, 0, 0, 0, 0, 0, 0, 0, 0.0008669928065501153, -0.01058514229953289, 0.9998963475227356, 0.07625672221183777, -0.19665521383285522, 0.004289830103516579
25236, 0.05326686426997185, 0.02662239968776703, 0.014839502051472664, 0.015302857384085655, -0.07551979273557663, 0.0012889031786471605, 0.024908358231186867, -0.12851330637931824, 0.003048259997740388, -2.9740350246429443, -3.343745231628418, 0.00858750008046627, 2.062464248942568, 2.6331469572491812, 84.57088378580849, 0, 0, 0, 0, 0, 0, 0, 0, 0.004107216838747263, -0.011377137154340744, 0.9975242018699646, -0.026941148564219475, 0.1897888481616974, -0.19209331274032593
25246, 0.053811244666576385, 0.0268753282725811, 0.014992238953709602, 0.015553595498204231, -0.07681076973676682, 0.0013182563707232475, 0.025239234790205956, -0.1296825110912323, 0.002822872716933489, -2.9738383293151855, -3.3432202339172363, 0.009752311743795872, 3.088550569031993, 5.436808788589303, 84.46454722222447, 0, 0, 0, 0, 0, 0, 0, 0, 0.004569403361529112, -0.009359534829854965, 0.9998731017112732, 0.07021145522594452, 0.060940179973840714, 0.19799965620040894
25256, 0.05335207283496857, 0.02668948471546173, 0.015970585867762566, 0.015808142721652985, -0.07811275124549866, 0.0013464000076055527, 0.02567029930651188, -0.13071313500404358, 0.002806359902024269, -2.9734721183776855, -3.343282461166382, 0.007357025519013405, 0.9717252454008908, 2.8049204441361155, 84.34645201265765, 0, 0, 0, 0, 0, 0, 0, 0, 0.0038566263392567635, -0.009003940969705582, 1.0025566816329956, -0.07143552601337433, 0.11421739310026169, 0.03116614930331707
