timeTick, roll, pitch, yaw, stateX, stateY, stateZ, stateVX, stateVY, stateVZ, otX0, otY0, otZ0, otRoll0, otPitch0, otYaw0, cmdThrust, cmdRoll, cmdPitch, cmdYaw, actThrust, rRoll, rPitch, rYaw, accx, accy, accz, gyrox, gyroy, gyroz
30280, 0.0, 0.0, 0.0, 0, 0, 0, 0, 0, 0, -3.131932497024536, -3.537119150161743, 0.016707632690668106, -0.6063400835464974, 10.333549969778346, 93.44200483323382, 0, 0, 0, 0, 0, 0, 0, 0, 0, 0, 0, 0, 0, 0
30290, 0.13211876153945923, 0.025953834876418114, 0.06806937605142593, 0.0, 0.0, 0.0, 0.0, 0.0, 0.0, -3.130056858062744, -3.5377705097198486, 0.008944526314735413, 4.32485208218666, 0.3868774498269545, 91.58328740312021, 0, 0, 0, 0, 0, 0, 0, 0, -0.04381636157631874, 0.03565121442079544, 1.0350569486618042, 16.21297264099121, 7.44140100479126, 3.723494052886963
30300, 0.27593910694122314, -0.08718861639499664, 0.08703342825174332, 0.0, 0.0, 1.195172080770135e-05, -1.0763927775769844e-06, -5.514034455700312e-06, 0.0023907036520540714, -3.1300406455993652, -3.5377180576324463, 0.008884860202670097, 4.489542772080874, -0.2601949910884116, 91.53943898896296, 0, 0, 0, 0, 0, 0, 0, 0, -0.0513874776661396, 0.038932859897613525, 1.0631941556930542, 11.067831039428711, 18.029951095581055, -1.3496779203414917
30310, 0.3792993426322937, -0.27341654896736145, 0.06720837205648422, -2.411396167190105e-07, -1.2352852536423597e-06, 5.7030702009797096e-05, -3.8696685805916786e-05, -0.00025217540678568184, 0.00662496080622077, -3.1299290657043457, -3.537660837173462, 0.008982141502201557, 4.586652804997551, -0.8999389129088513, 91.52310998180005, 0, 0, 0, 0, 0, 0, 0, 0, -0.048431672155857086, 0.037128545343875885, 1.071975588798523, 7.541081428527832, 19.442485809326172, -1.8214302062988281
30320, 0.4528152644634247, -0.4679713845252991, 0.05624736472964287, 1.7199641888510087e-07, -6.275937266764231e-06, 0.000156049442011863, 0.00014246364298742265, -0.0007678049150854349, 0.013177734799683094, -3.1298980712890625, -3.5376205444335938, 0.009557614102959633, 4.623321558471854, -0.48390013280658195, 91.55315754050861, 0, 0, 0, 0, 0, 0, 0, 0, -0.0355767123401165, 0.03197818621993065, 1.0378750562667847, 7.862415790557861, 14.24858570098877, 1.32870614528656
30330, 0.522722601890564, -0.5773031115531921, 0.08620429784059525, 4.0611666918266565e-06, -1.7364545783493668e-05, 0.0003129382384940982, 0.0006522951880469918, -0.0014564377488568425, 0.01819794811308384, -3.1297969818115234, -3.53763484954834, 0.009366730228066444, 4.664882191784498, -1.145191621549344, 91.60798863127272, 0, 0, 0, 0, 0, 0, 0, 0, -0.0399673767387867, 0.020510492846369743, 1.0006941556930542, 5.541412353515625, 9.547738075256348, 4.805596828460693
30340, 0.5993878841400146, -0.695574939250946, 0.14552021026611328, 1.4651255696662702e-05, -3.585673402994871e-05, 0.0005018906085751951, 0.0014687832444906235, -0.002243290189653635, 0.019590457901358604, -3.129460334777832, -3.537447690963745, 0.010763286612927914, 4.665029288614155, 0.11261364721841005, 91.7343029685422, 0, 0, 0, 0, 0, 0, 0, 0, -0.033220335841178894, 0.006102623417973518, 1.0088086128234863, 10.713654518127441, 18.185129165649414, 7.620466232299805
30350, 0.7343952655792236, -0.9053001999855042, 0.22424307465553284, 3.432143421377987e-05, -6.278749788179994e-05, 0.0007010899134911597, 0.002467523328959942, -0.003142748260870576, 0.0202466007322073, -3.129460334777832, -3.537447690963745, 0.010763286612927914, 4.665029288614155, 0.11261364721841005, 91.7343029685422, 0, 0, 0, 0, 0, 0, 0, 0, -0.00900840014219284, -0.0057206591591238976, 1.0149109363555908, 17.374797821044922, 26.56734848022461, 7.373109817504883
30360, 0.9235814213752747, -1.173841118812561, 0.3060341477394104, 6.499531446024776e-05, -9.935791604220867e-05, 0.00090607232414186, 0.0036704663652926683, -0.004170969594269991, 0.02074364572763443, -3.1291615962982178, -3.53719162940979, 0.011608051136136055, 5.050610667334603, -0.20674529433227917, 91.86139930664663, 0, 0, 0, 0, 0, 0, 0, 0, -0.047102104872465134, 0.0037618912756443024, 1.039574384689331, 20.93630027770996, 28.953384399414062, 8.379239082336426
30370, 1.1587514877319336, -1.438366174697876, 0.4019383490085602, 0.00010971254960168153, -0.00014751632988918573, 0.0011284741340205073, 0.005288827233016491, -0.005468429997563362, 0.023725640028715134, -3.1289515495300293, -3.537132740020752, 0.011884511448442936, 5.306455137084878, -0.5158730359929109, 91.95730456525011, 0, 0, 0, 0, 0, 0, 0, 0, -0.021151060238480568, 0.0007243991713039577, 1.068416953086853, 21.858736038208008, 18.833831787109375, 10.28386402130127
30380, 1.3129600286483765, -1.613625407218933, 0.5129075050354004, 0.00017328116518910974, -0.00021051327348686755, 0.0013942951336503029, 0.0074540614150464535, -0.00715099461376667, 0.02942262776196003, -3.128451108932495, -3.536855459213257, 0.01248940359801054, 5.5368181215807075, -1.0122182459919884, 92.16933349589955, 0, 0, 0, 0, 0, 0, 0, 0, -0.04596096649765968, 0.014332480728626251, 1.0482643842697144, 10.243697166442871, 16.291507720947266, 10.855233192443848
30390, 1.441248893737793, -1.7586333751678467, 0.6238206028938293, 0.00026078452356159687, -0.00029231939697638154, 0.0017113792710006237, 0.010064521804451942, -0.009217699989676476, 0.0339813157916069, -3.128948450088501, -3.537888765335083, 0.01469044666737318, 5.710577367428811, 0.12021468921417977, 93.51056687722185, 0, 0, 0, 0, 0, 0, 0, 0, -0.03199353069067001, 0.014142829924821854, 1.072243094444275, 14.068669319152832, 14.5468111038208, 10.535054206848145
30400, 1.585983157157898, -1.9079726934432983, 0.7355403304100037, 0.0003762905835174024, -0.0003963723429478705, 0.002084428211674094, 0.013058100827038288, -0.011602160520851612, 0.040616169571876526, -3.1274056434631348, -3.5363752841949463, 0.014810560271143913, 5.656911276714168, -0.07350218309426282, 92.40987589803495, 0, 0, 0, 0, 0, 0, 0, 0, -0.05438476428389549, 0.0034341656137257814, 1.032888412475586, 13.104342460632324, 12.355565071105957, 10.640929222106934
30410, 1.7081571817398071, -2.0396358966827393, 0.8457468152046204, 0.0005229068920016289, -0.0005252507398836315, 0.0025177597999572754, 0.016284288838505745, -0.014181241393089294, 0.046035926789045334, -3.1274056434631348, -3.5363752841949463, 0.014810560271143913, 5.656911276714168, -0.07350218309426282, 92.40987589803495, 0, 0, 0, 0, 0, 0, 0, 0, -0.02594500221312046, -0.01120756845921278, 1.0545765161514282, 11.108382225036621, 15.358156204223633, 10.132879257202148
30420, 1.8305631875991821, -2.1938352584838867, 0.9494234323501587, 0.0007028969121165574, -0.0006809543119743466, 0.002996954368427396, 0.019727619364857674, -0.01696120575070381, 0.04978976771235466, -3.127187490463257, -3.536224365234375, 0.013464168645441532, 6.170554921648341, -3.263694727170133, 92.46605387940767, 0, 0, 0, 0, 0, 0, 0, 0, -0.0052755954675376415, 0.004167735110968351, 1.0594050884246826, 11.854333877563477, 15.02840805053711, 10.049457550048828
30430, 1.9349459409713745, -2.321822166442871, 1.064847707748413, 0.00091885169968009, -0.0008657536818645895, 0.0035224815364927053, 0.023483693599700928, -0.020003965124487877, 0.055299777537584305, -3.1264424324035645, -3.5358545780181885, 0.015627121552824974, 5.645720670377574, -0.26041679153610175, 92.51951255192343, 0, 0, 0, 0, 0, 0, 0, 0, -0.009415646083652973, -0.019813843071460724, 1.0823997259140015, 8.409049034118652, 9.303346633911133, 12.702876091003418
30440, 2.0363481044769287, -2.378985643386841, 1.2028486728668213, 0.0011741515481844544, -0.0010823102202266455, 0.0041119251400232315, 0.027599256485700607, -0.02331257238984108, 0.06257439404726028, -3.1259307861328125, -3.535552978515625, 0.016148043796420097, 5.480097028257801, -0.35746236919612784, 92.65073121310445, 0, 0, 0, 0, 0, 0, 0, 0, -0.015393367037177086, -0.01037005428224802, 1.056708812713623, 8.207867622375488, 2.9478766918182373, 15.392873764038086
30450, 2.1154143810272217, -2.385068416595459, 1.3641210794448853, 0.0014718598686158657, -0.0013328712666407228, 0.004774673841893673, 0.031958188861608505, -0.02680259943008423, 0.06996528804302216, -3.125351905822754, -3.53519344329834, 0.01639765501022339, 5.6011844936896615, -0.7437596141659242, 92.81757687285433, 0, 0, 0, 0, 0, 0, 0, 0, -0.028063016012310982, 0.024369142949581146, 0.9955063462257385, 5.089070796966553, -3.230266809463501, 16.87846565246582
30460, 2.158507823944092, -2.3082470893859863, 1.5388264656066895, 0.0018124773632735014, -0.0016181636601686478, 0.005481323227286339, 0.03617500513792038, -0.030246341601014137, 0.07135972380638123, -3.1247291564941406, -3.5348076820373535, 0.016938693821430206, 5.732783181078981, -0.6554601229704815, 93.04269950649983, 0, 0, 0, 0, 0, 0, 0, 0, -0.022593751549720764, -0.0014555129455402493, 1.0046536922454834, 4.1187286376953125, -10.631608009338379, 18.31901741027832
30470, 2.20222806930542, -2.196507453918457, 1.7202948331832886, 0.002195141976699233, -0.0019383188337087631, 0.006196300033479929, 0.04036831855773926, -0.03377225995063782, 0.0716388002038002, -3.12402606010437, -3.534331798553467, 0.018137354403734207, 5.634640420724999, 0.1275869103249363, 93.2280010749579, 0, 0, 0, 0, 0, 0, 0, 0, -0.016640640795230865, -0.03138117492198944, 1.0296173095703125, 2.6066079139709473, -10.658470153808594, 19.096881866455078
30480, 2.236743927001953, -2.0921103954315186, 1.9158875942230225, 0.0026193608064204454, -0.0022942498326301575, 0.0069193365052342415, 0.044484443962574005, -0.037402037531137466, 0.07297387719154358, -3.124624490737915, -3.5352542400360107, 0.019332926720380783, 5.942876466273274, 0.3414596366975502, 94.70590655258754, 0, 0, 0, 0, 0, 0, 0, 0, -0.008408758789300919, -0.024218371137976646, 1.0171854496002197, 2.09677791595459, -10.104598999023438, 21.313072204589844
30490, 2.2484447956085205, -1.9982250928878784, 2.137394428253174, 0.003083870280534029, -0.002686850493773818, 0.007656511384993792, 0.048427581787109375, -0.04110570624470711, 0.07446612417697906, -3.123727560043335, -3.534686326980591, 0.020283877849578857, 6.3174239982177385, 0.7759878344227218, 94.85547789535575, 0, 0, 0, 0, 0, 0, 0, 0, -0.01124423649162054, -0.04373004287481308, 1.0658577680587769, -0.7451022863388062, -6.639399528503418, 23.19660186767578
30500, 2.236315965652466, -1.9231541156768799, 2.3714654445648193, 0.0035877085756510496, -0.0031174826435744762, 0.008427971042692661, 0.052346810698509216, -0.045007117092609406, 0.07983153313398361, -3.1207985877990723, -3.5321295261383057, 0.02092859335243702, 6.186738919374531, -0.781671468002628, 93.97653221226463, 0, 0, 0, 0, 0, 0, 0, 0, -0.001715599442832172, -0.01134424190968275, 1.0441371202468872, -3.6132607460021973, -6.99409294128418, 23.777624130249023
30510, 2.1933233737945557, -1.847541093826294, 2.614948034286499, 0.0041298470459878445, -0.003587060607969761, 0.009249689057469368, 0.05609118565917015, -0.04889259859919548, 0.08451803773641586, -3.120962381362915, -3.53290057182312, 0.023035796359181404, 6.533218489989509, 0.8051269566758208, 95.57326557783335, 0, 0, 0, 0, 0, 0, 0, 0, 0.018233394250273705, -0.0041119251400232315, 1.0238274335861206, -7.326066970825195, -5.843094825744629, 25.097835540771484
30520, 2.111056089401245, -1.793710708618164, 2.866152763366699, 0.004708493128418922, -0.004094973206520081, 0.010108663700520992, 0.05965116620063782, -0.052673086524009705, 0.08728475868701935, -3.122093677520752, -3.5323076248168945, 0.02899160049855709, 6.966060763452985, -2.7172103653776674, 94.38130027183051, 0, 0, 0, 0, 0, 0, 0, 0, 0.017228268086910248, -0.035004694014787674, 1.0374122858047485, -10.8983154296875, -3.162123203277588, 25.47311782836914
30530, 1.9945464134216309, -1.7546274662017822, 3.1219794750213623, 0.005322278011590242, -0.004640419036149979, 0.010999467223882675, 0.06311960518360138, -0.056396204978227615, 0.09088525921106339, -3.121246576309204, -3.5318474769592285, 0.031050551682710648, 6.905014961195354, -3.125081008489957, 94.56345128291434, 0, 0, 0, 0, 0, 0, 0, 0, -0.001032015192322433, -0.009639454074203968, 1.0050992965698242, -12.433060646057129, -2.6761317253112793, 26.07512092590332
30540, 1.8615131378173828, -1.7418649196624756, 3.383030414581299, 0.00596995372325182, -0.005221928469836712, 0.011915368027985096, 0.06643136590719223, -0.05988847091794014, 0.0923052504658699, -3.120098829269409, -3.531172037124634, 0.03193148225545883, 6.778245072860604, -3.288775154848935, 94.73452781475186, 0, 0, 0, 0, 0, 0, 0, 0, -0.024531405419111252, -0.011130571365356445, 0.9934295415878296, -17.16843605041504, 0.5365166068077087, 26.456565856933594
30550, 1.6792024374008179, -1.7228907346725464, 3.651235818862915, 0.0066502694971859455, -0.00583712849766016, 0.01284051313996315, 0.06964796036481857, -0.0631365105509758, 0.09273344278335571, -3.1145763397216797, -3.5276143550872803, 0.025192217901349068, 6.034251224499523, -4.0067053488022, 95.53669381304178, 0, 0, 0, 0, 0, 0, 0, 0, -0.02951516956090927, 0.013969182036817074, 0.9825615882873535, -20.67275047302246, -0.6055167317390442, 26.548986434936523
30560, 1.4705947637557983, -1.7081377506256104, 3.9198544025421143, 0.007362213917076588, -0.00648318650200963, 0.01375648844987154, 0.07275772094726562, -0.0660683810710907, 0.09047374129295349, -3.1167185306549072, -3.5284547805786133, 0.03482833132147789, 6.9511695702831595, -2.748151081135859, 95.26720952641034, 0, 0, 0, 0, 0, 0, 0, 0, 0.0015320851234719157, -0.0010833882261067629, 1.0065011978149414, -23.00607681274414, -2.7729904651641846, 27.62820816040039
30570, 1.224993348121643, -1.663140892982483, 4.197773456573486, 0.008105544373393059, -0.007157384417951107, 0.014664771035313606, 0.07592260837554932, -0.0687546357512474, 0.0911957174539566, -3.1150455474853516, -3.5264172554016113, 0.04529011622071266, -8.390670169748471, 9.662181408033092, 96.4055869509235, 0, 0, 0, 0, 0, 0, 0, 0, -0.018034476786851883, -0.015676435083150864, 1.026093602180481, -27.045515060424805, -2.0799500942230225, 28.08823013305664
30580, 0.981666088104248, -1.6296029090881348, 4.486316680908203, 0.008880509063601494, -0.007856711745262146, 0.015585753135383129, 0.07908216118812561, -0.07108894735574722, 0.09301584213972092, -3.1137125492095947, -3.5251870155334473, 0.046459853649139404, -8.572994535014068, 9.546511868513477, 96.81482738530396, 0, 0, 0, 0, 0, 0, 0, 0, -0.009855808690190315, 0.008780498057603836, 1.0324630737304688, -19.94898796081543, -5.054397106170654, 29.485828399658203
30590, 0.8188515305519104, -1.5627001523971558, 4.780733585357666, 0.009686662815511227, -0.008577249944210052, 0.016527708619832993, 0.08215851336717606, -0.07299450039863586, 0.09538821130990982, -3.110668659210205, -3.522519588470459, 0.03864254802465439, -0.03686330572935803, 9.539694476961671, 98.3135765481984, 0, 0, 0, 0, 0, 0, 0, 0, 0.0014292607083916664, 0.0031377431005239487, 1.0208970308303833, -14.935885429382324, -7.256558418273926, 29.696483612060547
30600, 0.7210975289344788, -1.4808789491653442, 5.074769973754883, 0.010523244738578796, -0.009314699098467827, 0.017495961859822273, 0.08516356348991394, -0.07447291165590286, 0.09827175736427307, -3.1061038970947266, -3.5212478637695312, 0.03278990462422371, 4.5174656460005345, -0.6299857571268603, 96.80087643904876, 0, 0, 0, 0, 0, 0, 0, 0, -0.01976705715060234, -0.0034797913394868374, 1.045833945274353, -5.267541885375977, -6.970047473907471, 29.33909034729004
30610, 0.6883973479270935, -1.4089399576187134, 5.367304801940918, 0.011389234103262424, -0.010065484791994095, 0.018493998795747757, 0.08803751319646835, -0.07566539943218231, 0.10134263336658478, -3.104644536972046, -3.5200958251953125, 0.03482681140303612, 4.507307675961516, 0.6017044160190039, 97.02657563326169, 0, 0, 0, 0, 0, 0, 0, 0, 0.00939369760453701, -0.005137232132256031, 1.032671332359314, -3.0186409950256348, -7.930053234100342, 29.00420570373535
30620, 0.6957016587257385, -1.3236587047576904, 5.652177810668945, 0.012283409014344215, -0.01082740630954504, 0.019530614838004112, 0.09079818427562714, -0.07670334726572037, 0.10598509013652802, -3.1062190532684326, -3.5205914974212646, 0.04207031428813934, 5.700269829891426, -2.074398021310742, 97.36296689735345, 0, 0, 0, 0, 0, 0, 0, 0, 0.009392457082867622, -0.012394017539918423, 1.0497812032699585, 6.62504243850708, -8.150420188903809, 28.57991600036621
30630, 0.805470883846283, -1.2438017129898071, 5.939216613769531, 0.013204550370573997, -0.0115994056686759, 0.020613761618733406, 0.09342925250530243, -0.07768531888723373, 0.11064814031124115, -3.1015472412109375, -3.5177106857299805, 0.04209374636411667, 8.00955851605078, 1.9786000030298396, 98.78838965335234, 0, 0, 0, 0, 0, 0, 0, 0, 0.01206126157194376, -0.012869860045611858, 1.0600101947784424, 12.4822998046875, -5.741694927215576, 29.374662399291992
30640, 0.9634543657302856, -1.182370662689209, 6.231493949890137, 0.014151385985314846, -0.012381345964968204, 0.021748261526226997, 0.09593680500984192, -0.07870249450206757, 0.11625288426876068, -3.1015942096710205, -3.516420841217041, 0.04331083595752716, 8.595925299839081, 1.8138202382677662, 98.40238209249691, 0, 0, 0, 0, 0, 0, 0, 0, 0.03906162455677986, -0.042601294815540314, 1.0540480613708496, 17.723520278930664, -4.278709888458252, 29.225112915039062
30650, 1.1408843994140625, -1.1554423570632935, 6.524428844451904, 0.015122718177735806, -0.013174464926123619, 0.022939344868063927, 0.09833177179098129, -0.07992648333311081, 0.12196233123540878, -3.1000020503997803, -3.5151143074035645, 0.044696323573589325, 9.082476584123972, 2.005625183695628, 98.61718688963762, 0, 0, 0, 0, 0, 0, 0, 0, 0.02038990706205368, -0.01929302327334881, 1.004311203956604, 17.002229690551758, -1.4590522050857544, 29.290958404541016
30660, 1.3674145936965942, -1.131839394569397, 6.816041469573975, 0.01611730456352234, -0.013981033116579056, 0.024172840639948845, 0.10059289634227753, -0.08138586580753326, 0.12473254650831223, -3.0971791744232178, -3.512640953063965, 0.05061034858226776, 7.3827653950457215, -1.8662659408738023, 98.46648155521787, 0, 0, 0, 0, 0, 0, 0, 0, 0.00853466521948576, -0.017243023961782455, 1.0088435411453247, 22.789690017700195, -0.35165926814079285, 29.162668228149414
30670, 1.5436317920684814, -1.161020278930664, 7.110550880432129, 0.017134202644228935, -0.014803498052060604, 0.02542150393128395, 0.10279531031847, -0.08309884369373322, 0.12499373406171799, -3.09513521194458, -3.510831356048584, 0.053459811955690384, 7.604799012484911, -3.467457820861597, 98.60004336267748, 0, 0, 0, 0, 0, 0, 0, 0, -0.00890276487916708, -0.02999170869588852, 1.0384793281555176, 11.155722618103027, 3.8598880767822266, 29.138917922973633
30680, 1.6525812149047852, -1.178362250328064, 7.396333694458008, 0.018173405900597572, -0.015645191073417664, 0.026682067662477493, 0.10505872964859009, -0.085236556828022, 0.12711116671562195, -3.0916249752044678, -3.5081584453582764, 0.05460697039961815, 0.31082785595333595, 10.1817492376004, 100.29602791693733, 0, 0, 0, 0, 0, 0, 0, 0, 0.015560110099613667, -0.027738040313124657, 1.0071496963500977, 8.54666519165039, 1.4271401166915894, 28.46396255493164
30690, 1.7123363018035889, -1.2200195789337158, 7.6846394538879395, 0.01923583261668682, -0.01650979556143284, 0.027967611327767372, 0.10744095593690872, -0.0876791924238205, 0.12999187409877777, -3.0893800258636475, -3.5051136016845703, 0.05465775355696678, 1.5469333780425945, 9.476770685518574, 101.5493563057602, 0, 0, 0, 0, 0, 0, 0, 0, -0.00182205974124372, -0.012672442011535168, 0.9733983874320984, 4.9463114738464355, 6.766129970550537, 28.15044593811035
30700, 1.7768994569778442, -1.2725826501846313, 7.9713006019592285, 0.020321892574429512, -0.01739913411438465, 0.029260186478495598, 0.10978341102600098, -0.09017699956893921, 0.12851928174495697, -3.0874886512756348, -3.5035812854766846, 0.05574125051498413, 2.090256836239202, 9.416116122496135, 101.85280531488442, 0, 0, 0, 0, 0, 0, 0, 0, 0.006201518699526787, -0.028328483924269676, 0.9737898111343384, 5.911830902099609, 8.830011367797852, 28.755321502685547
30710, 1.8249551057815552, -1.3674473762512207, 8.260120391845703, 0.021431658416986465, -0.018313635140657425, 0.03053014911711216, 0.11218015849590302, -0.09270966798067093, 0.12546873092651367, -3.087158679962158, -3.504549741744995, 0.05653252825140953, 6.844394585999133, -2.307008146013203, 99.80994360045173, 0, 0, 0, 0, 0, 0, 0, 0, -0.01756102964282036, -0.008123613893985748, 0.9657098054885864, 2.977278232574463, 12.528396606445312, 28.864566802978516
30720, 1.8770357370376587, -1.4918274879455566, 8.553409576416016, 0.02256605587899685, -0.01925397291779518, 0.031773220747709274, 0.1147100180387497, -0.095345638692379, 0.1231406182050705, -3.0848677158355713, -3.50272798538208, 0.05421003699302673, 9.198472275728228, 2.5594565525926782, 100.55508748121078, 0, 0, 0, 0, 0, 0, 0, 0, 0.008177771233022213, -0.022942760959267616, 0.9862056970596313, 4.055578708648682, 13.989046096801758, 28.400604248046875
30730, 1.8652188777923584, -1.630617380142212, 8.8346586227417, 0.023726604878902435, -0.020220834761857986, 0.03299099579453468, 0.11740884929895401, -0.09801345318555832, 0.12040787190198898, -3.079798936843872, -3.4996461868286133, 0.05325658246874809, 5.323911045014935, 0.45002890008831287, 100.31027999939953, 0, 0, 0, 0, 0, 0, 0, 0, 0.0011492675403133035, -0.013082018122076988, 0.9843177199363708, -7.7545013427734375, 13.417484283447266, 26.943084716796875
30740, 1.8124010562896729, -1.755908489227295, 9.104220390319824, 0.02491549216210842, -0.021214760839939117, 0.03418773412704468, 0.12038052082061768, -0.10075990855693817, 0.11893568933010101, -3.0810232162475586, -3.499627113342285, 0.06053338944911957, 6.6532216562531525, -2.585690033222221, 100.3648201735417, 0, 0, 0, 0, 0, 0, 0, 0, -0.0044364361092448235, -0.035866376012563705, 0.9875962138175964, -5.816552639007568, 12.73349666595459, 26.108016967773438
30750, 1.724102258682251, -1.8716456890106201, 9.36705207824707, 0.02613534964621067, -0.02223583683371544, 0.035371050238609314, 0.123602956533432, -0.10344337671995163, 0.11772575229406357, -3.074788808822632, -3.495753765106201, 0.06027619168162346, 8.517389209845712, 1.115381118534799, 102.09133307049753, 0, 0, 0, 0, 0, 0, 0, 0, -0.013296937569975853, -0.012284159660339355, 0.9518236517906189, -13.153104782104492, 11.222086906433105, 25.579442977905273
30760, 1.6367243528366089, -1.982531189918518, 9.620485305786133, 0.027388151735067368, -0.02328282594680786, 0.036533236503601074, 0.1269657015800476, -0.10594599694013596, 0.11471173912286758, -3.0742931365966797, -3.4942548274993896, 0.06427370011806488, 6.597971737467813, -2.7061467506517545, 101.30055893495394, 0, 0, 0, 0, 0, 0, 0, 0, -0.0019529630662873387, -0.014353862963616848, 0.9599473476409912, -7.366696834564209, 12.29453182220459, 24.173519134521484
30770, 1.5609710216522217, -2.0783650875091553, 9.858418464660645, 0.028675097972154617, -0.024353640154004097, 0.0376553013920784, 0.1304270178079605, -0.10821216553449631, 0.10970157384872437, -3.070322036743164, -3.4920308589935303, 0.0627889409661293, 8.548302716815053, 0.8763684246414982, 102.419402685153, 0, 0, 0, 0, 0, 0, 0, 0, 0.0012565285433083773, -0.008284743875265121, 0.9543695449829102, -8.433698654174805, 10.333210945129395, 22.70051383972168
30780, 1.5051220655441284, -2.1628103256225586, 10.084190368652344, 0.02999773994088173, -0.025446340441703796, 0.03873400390148163, 0.13410648703575134, -0.1103195920586586, 0.10603880137205124, -3.0666277408599854, -3.4887356758117676, 0.06007405370473862, 5.326114028869948, -1.4781661900018719, 101.40267975088642, 0, 0, 0, 0, 0, 0, 0, 0, -0.0039034674409776926, -0.020471708849072456, 0.9842732548713684, -4.874250411987305, 7.514037132263184, 21.874513626098633
30790, 1.4695141315460205, -2.225820779800415, 10.300804138183594, 0.031357910484075546, -0.02655929885804653, 0.03977657109498978, 0.1379324197769165, -0.11226224899291992, 0.1024729534983635, -3.065953254699707, -3.4876084327697754, 0.06282456964254379, 2.9085284729178578, -7.520763639780171, 100.79103096241522, 0, 0, 0, 0, 0, 0, 0, 0, 0.0005684027564711869, -0.025734523311257362, 0.9655699133872986, -5.101451873779297, 6.202053546905518, 20.380294799804688
30800, 1.4522076845169067, -2.2719573974609375, 10.506292343139648, 0.03275750204920769, -0.027691271156072617, 0.040795840322971344, 0.14199325442314148, -0.1141185387969017, 0.10137946903705597, -3.0628201961517334, -3.4843716621398926, 0.07009049504995346, 6.275178732426437, -3.2639194364774653, 102.08740598182854, 0, 0, 0, 0, 0, 0, 0, 0, -0.01577984355390072, -0.015316248871386051, 0.9460633397102356, -0.14648163318634033, 3.896909475326538, 20.348392486572266
30810, 1.4682899713516235, -2.3199775218963623, 10.7083158493042, 0.03419734165072441, -0.028840966522693634, 0.04178393632173538, 0.14597822725772858, -0.1158093512058258, 0.09623786062002182, -3.058589458465576, -3.4819223880767822, 0.06845498830080032, 8.33702483637358, 0.6527991312089227, 103.19849045303859, 0, 0, 0, 0, 0, 0, 0, 0, -0.0038925784174352884, -0.02239500731229782, 0.9568517208099365, 3.014317274093628, 3.5074896812438965, 20.170515060424805
30820, 1.52046799659729, -2.32230281829834, 10.912064552307129, 0.0356774739921093, -0.030007319524884224, 0.0427221916615963, 0.1500508338212967, -0.1174473837018013, 0.09141036868095398, -3.0578818321228027, -3.4800987243652344, 0.07213703542947769, 6.58241202033788, -3.2810400890879237, 102.17309798141206, 0, 0, 0, 0, 0, 0, 0, 0, 0.00031930310069583356, -0.0063359495252370834, 0.9485398530960083, 5.44857120513916, -3.05076265335083, 20.301471710205078
30830, 1.5948045253753662, -2.2742702960968018, 11.112011909484863, 0.03719896078109741, -0.031190114095807076, 0.043616458773612976, 0.1542525291442871, -0.11909405887126923, 0.08744100481271744, -3.0560245513916016, -3.4782238006591797, 0.07383717596530914, 7.498615303315692, -2.8338734069395173, 102.31678846925895, 0, 0, 0, 0, 0, 0, 0, 0, -0.008720874786376953, -0.0002579370338935405, 0.9720821976661682, 9.345338821411133, -6.996406555175781, 19.7392520904541
30840, 1.7014751434326172, -2.183525800704956, 11.303473472595215, 0.03876226395368576, -0.03238958120346069, 0.04446366801857948, 0.15841791033744812, -0.12077835202217102, 0.08200060576200485, -3.052858352661133, -3.4755730628967285, 0.07384229451417923, 6.673975481252967, -2.728330374252323, 102.66135964419512, 0, 0, 0, 0, 0, 0, 0, 0, -0.007085166871547699, -0.02261507883667946, 0.9520467519760132, 9.180482864379883, -9.246407508850098, 19.229618072509766
30850, 1.8143634796142578, -2.0720667839050293, 11.487177848815918, 0.04036742448806763, -0.03360667824745178, 0.04526634141802788, 0.16262467205524445, -0.1226208284497261, 0.0785348191857338, -3.0476365089416504, -3.471129894256592, 0.07567131519317627, 6.771925645924711, -2.6215365112659583, 102.93011566654829, 0, 0, 0, 0, 0, 0, 0, 0, -0.009708412922918797, -0.027378208935260773, 0.9464139938354492, 11.314379692077637, -9.937515258789062, 18.227046966552734
30860, 1.9402228593826294, -1.96316397190094, 11.660390853881836, 0.042013708502054214, -0.03484293818473816, 0.04602484777569771, 0.16664697229862213, -0.1246064081788063, 0.07316740602254868, -3.0427277088165283, -3.4665520191192627, 0.07870958000421524, 7.531314136308031, -2.812512184655219, 103.12249227383106, 0, 0, 0, 0, 0, 0, 0, 0, -0.007247177883982658, -0.0006441361620090902, 0.9540064930915833, 11.643719673156738, -10.818605422973633, 16.69579315185547
30870, 2.033233404159546, -1.841392159461975, 11.814507484436035, 0.0436997190117836, -0.03610016405582428, 0.04673382267355919, 0.17056816816329956, -0.12681598961353302, 0.06862699240446091, -3.036734104156494, -3.4614789485931396, 0.07927694171667099, 6.996960913836329, -2.3641285693923635, 103.40477783891971, 0, 0, 0, 0, 0, 0, 0, 0, -0.004403365775942802, -0.02989703044295311, 0.9451375007629395, 5.886667251586914, -11.550257682800293, 14.863350868225098
30880, 2.0816590785980225, -1.7323031425476074, 11.950352668762207, 0.04542401060461998, -0.03738041967153549, 0.04738999903202057, 0.17430748045444489, -0.1292131245136261, 0.0626102164387703, -3.031433343887329, -3.4568686485290527, 0.08111124485731125, 7.632654825871415, -1.8503436817002523, 103.685731723776, 0, 0, 0, 0, 0, 0, 0, 0, -0.016536274924874306, -0.020348142832517624, 0.9414799809455872, 1.7248843908309937, -10.828059196472168, 13.590784072875977
30890, 2.0958774089813232, -1.648232102394104, 12.080452919006348, 0.04718488082289696, -0.038685496896505356, 0.047984957695007324, 0.17788369953632355, -0.13178670406341553, 0.05638426914811134, -3.023472309112549, -3.45111083984375, 0.07975773513317108, 8.610817956038286, 1.0901470693690953, 104.86314010783944, 0, 0, 0, 0, 0, 0, 0, 0, -0.024106236174702644, -0.020894275978207588, 0.9396953582763672, -2.7333691120147705, -3.252548933029175, 12.711695671081543
30900, 2.061971426010132, -1.6077115535736084, 12.202744483947754, 0.048981014639139175, -0.0400170236825943, 0.04852426052093506, 0.18135632574558258, -0.13450820744037628, 0.05147963762283325, -3.0222744941711426, -3.4488282203674316, 0.08053401857614517, 9.58331127942345, 1.5933165142206462, 104.17213621487313, 0, 0, 0, 0, 0, 0, 0, 0, -0.020017748698592186, -0.016344327479600906, 0.9177296161651611, -3.2543325424194336, -1.8726741075515747, 12.019804954528809
30910, 2.007117748260498, -1.6012725830078125, 12.310303688049316, 0.050810813903808594, -0.04137561097741127, 0.04900206997990608, 0.1846158504486084, -0.13720569014549255, 0.04408615827560425, -3.013110876083374, -3.4419960975646973, 0.07740062475204468, 6.069278254850459, -2.09392372341631, 104.01619181551774, 0, 0, 0, 0, 0, 0, 0, 0, -0.006766369100660086, -0.002467324025928974, 0.9304219484329224, -7.921151638031006, -1.6140179634094238, 10.203219413757324
30920, 1.930651307106018, -1.5941463708877563, 12.412771224975586, 0.05267256498336792, -0.0427606925368309, 0.049397390335798264, 0.18774287402629852, -0.13981327414512634, 0.034981660544872284, -3.012901544570923, -3.440821647644043, 0.08476793020963669, 6.706727718799116, -1.9040834835846, 104.25843174838937, 0, 0, 0, 0, 0, 0, 0, 0, -0.022305447608232498, -0.001223475905135274, 0.9636489748954773, -8.885781288146973, 0.06539364904165268, 10.244425773620605
30930, 1.8453491926193237, -1.5780137777328491, 12.51291561126709, 0.05456623062491417, -0.044172029942274094, 0.04972343519330025, 0.19099722802639008, -0.14245475828647614, 0.030232250690460205, -3.00980281829834, -3.438033103942871, 0.0854087546467781, 6.586817888268207, -1.9458178292783828, 104.14704906754257, 0, 0, 0, 0, 0, 0, 0, 0, -0.008254984393715858, -0.024988682940602303, 0.9574136734008789, -8.358108520507812, -2.9078290462493896, 9.41243839263916
30940, 1.773730754852295, -1.5350958108901978, 12.602702140808105, 0.056492485105991364, -0.04560932517051697, 0.050008174031972885, 0.19426065683364868, -0.14500340819358826, 0.02672128938138485, -3.0042946338653564, -3.43416690826416, 0.0807885229587555, 5.246547262362719, 0.8400228742962668, 104.80748888940745, 0, 0, 0, 0, 0, 0, 0, 0, -0.01147016417235136, -0.007809152361005545, 0.9578638076782227, -6.7951860427856445, -4.153868675231934, 8.563389778137207
30950, 1.7028567790985107, -1.4707584381103516, 12.683542251586914, 0.058450985699892044, -0.04707132279872894, 0.05025410279631615, 0.19744831323623657, -0.14739583432674408, 0.02247035503387451, -3.0034520626068115, -3.4322941303253174, 0.08390816301107407, 9.180292077526259, 2.191052370931544, 104.58580470607218, 0, 0, 0, 0, 0, 0, 0, 0, -0.005794363096356392, -0.0252390056848526, 0.9575119614601135, -5.488232612609863, -8.867013931274414, 8.139288902282715
30960, 1.634535312652588, -1.3883787393569946, 12.754802703857422, 0.060440827161073685, -0.04855665937066078, 0.05045493692159653, 0.20053020119667053, -0.1496720314025879, 0.01770293153822422, -3.0000853538513184, -3.4297592639923096, 0.0870467871427536, 6.447780224148381, -1.629273966382101, 104.45433206707209, 0, 0, 0, 0, 0, 0, 0, 0, -0.0015607629902660847, -0.006954805459827185, 0.9293285608291626, -8.088197708129883, -11.118412017822266, 6.764699935913086
30970, 1.5812679529190063, -1.285654067993164, 12.815958023071289, 0.06246048957109451, -0.05006400868296623, 0.050596218556165695, 0.20341742038726807, -0.15180076658725739, 0.010560194030404091, -2.9943959712982178, -3.4255316257476807, 0.08115541189908981, 4.379262532634048, -0.43887997200386053, 104.74776493952915, 0, 0, 0, 0, 0, 0, 0, 0, -0.022619251161813736, -0.027268176898360252, 0.9543300867080688, -6.6974687576293945, -9.425074577331543, 5.679800033569336
30980, 1.5069217681884766, -1.1902658939361572, 12.869475364685059, 0.06450854986906052, -0.051592446863651276, 0.050675150007009506, 0.20620818436145782, -0.1538868546485901, 0.00523291015997529, -2.989154100418091, -3.420746326446533, 0.08585570007562637, 4.352950064545879, -2.2100534304317705, 104.53896844199055, 0, 0, 0, 0, 0, 0, 0, 0, -0.007502080872654915, -0.028600651770830154, 0.9759640693664551, -5.2731428146362305, -8.852500915527344, 5.31125020980835
30990, 1.4361765384674072, -1.1113190650939941, 12.914787292480469, 0.06658398360013962, -0.05314178019762039, 0.05071377754211426, 0.20888690650463104, -0.15597982704639435, 0.0024998821318149567, -2.982511520385742, -3.4145116806030273, 0.08663000911474228, 4.931576957533008, 0.960786013656616, 105.09070564316694, 0, 0, 0, 0, 0, 0, 0, 0, -0.017139719799160957, -0.01019724365323782, 0.959108829498291, -9.942987442016602, -7.58553409576416, 4.616128921508789
31000, 1.3528372049331665, -1.0233154296875, 12.957845687866211, 0.06868517398834229, -0.05471149832010269, 0.050720032304525375, 0.21135911345481873, -0.1579650491476059, -0.0012430170318111777, -2.976823568344116, -3.4088804721832275, 0.09244052320718765, 2.369208959695727, 2.535303116407448, 105.07707937336184, 0, 0, 0, 0, 0, 0, 0, 0, -0.024485452100634575, -0.010049503296613693, 0.9702990651130676, -6.619587421417236, -8.003795623779297, 4.261523246765137
31010, 1.278964877128601, -0.9574494361877441, 12.999051094055176, 0.07081033289432526, -0.05630064010620117, 0.05068909004330635, 0.21368178725242615, -0.15986552834510803, -0.004938464146107435, -2.96913743019104, -3.4031763076782227, 0.08988471329212189, 5.627008917732806, -0.7222917498355059, 104.89016104719725, 0, 0, 0, 0, 0, 0, 0, 0, -0.008077975362539291, -0.0021409729961305857, 0.9643537998199463, -7.44952917098999, -5.710310935974121, 4.453699588775635
31020, 1.200250267982483, -0.9016162753105164, 13.043652534484863, 0.07295787334442139, -0.05790827423334122, 0.050621528178453445, 0.21583330631256104, -0.16166387498378754, -0.008569043129682541, -2.962128162384033, -3.396847724914551, 0.08794280886650085, 8.073629077087023, 3.354525003652867, 105.3773335655299, 0, 0, 0, 0, 0, 0, 0, 0, -0.024757320061326027, -0.006299190688878298, 0.9619237184524536, -11.218299865722656, -3.845637559890747, 4.967654228210449
31030, 1.059865117073059, -0.859025239944458, 13.09200382232666, 0.07512609660625458, -0.059533268213272095, 0.05050962045788765, 0.21782001852989197, -0.16333964467048645, -0.013808038085699081, -2.9526162147521973, -3.3899407386779785, 0.08582797646522522, 3.600628976797045, 2.0837927892249013, 105.54453080389297, 0, 0, 0, 0, 0, 0, 0, 0, -0.008148545399308205, -0.006117868237197399, 0.9464922547340393, -12.90871524810791, -6.482947826385498, 5.134864807128906
31040, 0.9284396171569824, -0.7621147036552429, 13.140514373779297, 0.07731375843286514, -0.06117461994290352, 0.05035284161567688, 0.21971963346004486, -0.16493812203407288, -0.01754091866314411, -2.946509838104248, -3.383610486984253, 0.08738377690315247, 5.349391931715074, 5.232642170569903, 106.38278693138656, 0, 0, 0, 0, 0, 0, 0, 0, -0.013337774202227592, -0.0006454839021898806, 0.951068103313446, -17.746826171875, -13.254858016967773, 5.280568599700928
31050, 0.7664908170700073, -0.6062828898429871, 13.198888778686523, 0.0795196145772934, -0.06283073872327805, 0.05014755204319954, 0.22146622836589813, -0.16629576683044434, -0.02351015992462635, -2.9403364658355713, -3.379179000854492, 0.09232126176357269, 4.743486267460804, -0.8883056132850982, 105.06889875387597, 0, 0, 0, 0, 0, 0, 0, 0, -0.01529865525662899, -0.003701249836012721, 0.9643080234527588, -15.700291633605957, -17.422752380371094, 6.2954864501953125
31060, 0.5935195684432983, -0.42739686369895935, 13.260416984558105, 0.08174214512109756, -0.06449972838163376, 0.049894753843545914, 0.22305434942245483, -0.16750942170619965, -0.027041347697377205, -2.9355032444000244, -3.3753457069396973, 0.08953146636486053, 3.6487819650152367, 1.7559197640151751, 105.39628564161457, 0, 0, 0, 0, 0, 0, 0, 0, -0.021975530311465263, -0.01820635050535202, 0.9691044688224792, -17.531770706176758, -15.768783569335938, 6.1580352783203125
31070, 0.4344117045402527, -0.2678861916065216, 13.3206787109375, 0.08397907763719559, -0.06617990136146545, 0.0496123805642128, 0.2243451476097107, -0.16853025555610657, -0.02942587062716484, -2.9288675785064697, -3.369622230529785, 0.08932660520076752, 8.091713157289215, 3.665804181812206, 105.51087954804268, 0, 0, 0, 0, 0, 0, 0, 0, -0.036462023854255676, 0.0008315285085700452, 0.9646238684654236, -14.450889587402344, -15.212541580200195, 6.164046287536621
31080, 0.2763800024986267, -0.14096134901046753, 13.375276565551758, 0.08622708916664124, -0.0678691640496254, 0.04930105805397034, 0.22527183592319489, -0.16933032870292664, -0.03283393383026123, -2.923417329788208, -3.3658576011657715, 0.0874282643198967, 3.790258339719508, 0.7303196933735876, 105.58434969808978, 0, 0, 0, 0, 0, 0, 0, 0, -0.01222908589988947, -0.002953031798824668, 0.9543720483779907, -14.462723731994629, -11.743620872497559, 5.207381248474121
31090, 0.1522921919822693, -0.0369766503572464, 13.423877716064453, 0.08848275244235992, -0.06956540793180466, 0.04894942045211792, 0.22587524354457855, -0.1699298471212387, -0.037490736693143845, -2.9212865829467773, -3.363410711288452, 0.0894705131649971, 7.82553760553934, 3.3546537202289812, 105.50219797406045, 0, 0, 0, 0, 0, 0, 0, 0, -0.036184169352054596, 0.007876780815422535, 0.9478893876075745, -11.8926420211792, -9.478324890136719, 4.770386695861816
31100, 0.05045700818300247, 0.036156635731458664, 13.466574668884277, 0.09074312448501587, -0.07126660645008087, 0.048545170575380325, 0.2262134999036789, -0.1703205704689026, -0.04335755854845047, -2.9167470932006836, -3.360095262527466, 0.08997245132923126, 3.876628552492287, 1.7229171543416157, 105.46681642145067, 0, 0, 0, 0, 0, 0, 0, 0, -0.02728126384317875, -0.010334149934351444, 0.9590038657188416, -5.363205909729004, -4.445199489593506, 3.776705503463745
31110, -0.021686498075723648, 0.06427305936813354, 13.50045108795166, 0.09300585091114044, -0.07297096401453018, 0.048093367367982864, 0.22633783519268036, -0.17055624723434448, -0.04700194299221039, -2.9118871688842773, -3.356567859649658, 0.08753633499145508, 1.3370192938354728, -0.3328916415152321, 105.16841268871357, 0, 0, 0, 0, 0, 0, 0, 0, -0.02672027423977852, 0.008553552441298962, 0.9385053515434265, -8.371848106384277, -1.4594531059265137, 3.083456039428711
31120, -0.0882829949259758, 0.06205160543322563, 13.524354934692383, 0.09526903927326202, -0.0746769905090332, 0.047594863921403885, 0.22630470991134644, -0.17065556347370148, -0.052698180079460144, -2.904998302459717, -3.3507893085479736, 0.08969718962907791, 3.9487673933897427, 1.4191387078273578, 105.3865498244901, 0, 0, 0, 0, 0, 0, 0, 0, -0.029712045565247536, -0.008457300253212452, 0.9607073068618774, -7.704357624053955, 2.8368189334869385, 1.8229939937591553
31130, -0.15795081853866577, 0.01863756775856018, 13.540054321289062, 0.09753153473138809, -0.07638349384069443, 0.04704270884394646, 0.22619615495204926, -0.1706516295671463, -0.057732559740543365, -2.9012303352355957, -3.34765625, 0.0897919312119484, 4.175494627170766, 1.2226180546167313, 105.52422172362914, 0, 0, 0, 0, 0, 0, 0, 0, -0.0123955262824893, -0.005488237831741571, 0.958299458026886, -4.235875129699707, 6.201606273651123, 0.8246296644210815
31140, -0.18739737570285797, -0.05346337705850601, 13.544215202331543, 0.09979283809661865, -0.07808943092823029, 0.04644256457686424, 0.2260618358850479, -0.17054155468940735, -0.06229635328054428, -2.897810697555542, -3.3451035022735596, 0.0913240909576416, 5.269258925046959, -0.8427024937618341, 105.1198271563843, 0, 0, 0, 0, 0, 0, 0, 0, -0.02748839743435383, -0.0037977201864123344, 0.974787175655365, -2.628272294998169, 10.53049373626709, -0.1290787160396576
31150, -0.19649650156497955, -0.14819742739200592, 13.540635108947754, 0.10205300152301788, -0.07979360967874527, 0.0458044558763504, 0.22596712410449982, -0.1702963411808014, -0.06532549858093262, -2.8925509452819824, -3.3414390087127686, 0.08907214552164078, 6.480588501413506, 1.9013681705315832, 105.82718740080797, 0, 0, 0, 0, 0, 0, 0, 0, -0.017180293798446655, -0.0063049523159861565, 0.9711710214614868, 1.6601922512054443, 7.5535502433776855, -0.8966541886329651
31160, -0.17980709671974182, -0.21950843930244446, 13.531180381774902, 0.10431274026632309, -0.08149494975805283, 0.045137736946344376, 0.22597654163837433, -0.1699734777212143, -0.06801801919937134, -2.8833365440368652, -3.33416748046875, 0.08479062467813492, 3.979391488798609, -0.9895525533863463, 104.80261460260593, 0, 0, 0, 0, 0, 0, 0, 0, -0.020111003890633583, -0.001604727003723383, 0.9367247223854065, -0.9136991500854492, 5.521170139312744, -0.7218565940856934
31170, -0.14473901689052582, -0.26073145866394043, 13.525508880615234, 0.10657330602407455, -0.083192840218544, 0.04443452134728432, 0.22613097727298737, -0.16960522532463074, -0.07262527942657471, -2.8799214363098145, -3.3310606479644775, 0.08767908066511154, 1.9024697479291501, 1.9197587271893326, 105.12905823801991, 0, 0, 0, 0, 0, 0, 0, 0, -0.015385511331260204, -0.026845861226320267, 0.9604356288909912, 5.9868998527526855, 5.6196370124816895, -0.41393613815307617
31180, -0.08920160681009293, -0.3057383596897125, 13.523065567016602, 0.10883601754903793, -0.08488703519105911, 0.043687496334314346, 0.22640855610370636, -0.16923269629478455, -0.07677925378084183, -2.8770551681518555, -3.3290483951568604, 0.08810466527938843, 2.828436942903532, -1.1576372535601536, 104.95865530837315, 0, 0, 0, 0, 0, 0, 0, 0, -0.019821781665086746, -0.004890041425824165, 0.9541694521903992, 7.756998538970947, 2.0938494205474854, -0.25741952657699585
31190, -0.004413123708218336, -0.3496563732624054, 13.520058631896973, 0.11110188066959381, -0.08657772839069366, 0.042892664670944214, 0.22675874829292297, -0.1689024269580841, -0.08218715339899063, -2.867835760116577, -3.3219258785247803, 0.08463284373283386, 2.389716803018284, 1.085615200319495, 105.12429550073567, 0, 0, 0, 0, 0, 0, 0, 0, -0.020927967503666878, -0.01752392202615738, 0.9769268035888672, 8.828482627868652, 5.67043399810791, -0.531440794467926
31200, 0.08864014595746994, -0.390215128660202, 13.519002914428711, 0.11337175965309143, -0.08826544135808945, 0.04205578565597534, 0.22721445560455322, -0.16863633692264557, -0.08518818765878677, -2.8610785007476807, -3.316199779510498, 0.08707552403211594, 3.306149562066295, 2.3941408905626815, 105.27274485332018, 0, 0, 0, 0, 0, 0, 0, 0, -0.007161720655858517, -0.005071229767054319, 0.9673800468444824, 8.18269157409668, 4.798465251922607, 0.22998329997062683
31210, 0.1386515349149704, -0.4387558698654175, 13.5162992477417, 0.11564674228429794, -0.08995108306407928, 0.04119259491562843, 0.22777926921844482, -0.16848959028720856, -0.087449811398983, -2.8569703102111816, -3.3131954669952393, 0.08695070445537567, 3.0878059044112414, 2.269558514244011, 105.17679776714877, 0, 0, 0, 0, 0, 0, 0, 0, -0.018106678500771523, -0.006171283312141895, 0.9714115858078003, 2.5911829471588135, 3.3906946182250977, -0.7153181433677673
31220, 0.15871909260749817, -0.4541967809200287, 13.507394790649414, 0.11792784184217453, -0.09163593500852585, 0.04030102491378784, 0.22843721508979797, -0.16847921907901764, -0.09086483716964722, -2.851412296295166, -3.3091824054718018, 0.08487813174724579, -0.06329114235106345, 1.8394792208277977, 104.93941172845736, 0, 0, 0, 0, 0, 0, 0, 0, -0.0029235295951366425, -0.011369158513844013, 0.9353647232055664, -2.0058414936065674, -1.5042753219604492, -0.9427592158317566
31230, 0.128617063164711, -0.43348589539527893, 13.492514610290527, 0.12021603435277939, -0.09332099556922913, 0.03937865048646927, 0.22920019924640656, -0.16853228211402893, -0.09360992163419724, -2.843151092529297, -3.3029983043670654, 0.08416575938463211, -0.3016606068331396, 1.808335650669477, 104.78651879311593, 0, 0, 0, 0, 0, 0, 0, 0, -0.014233839698135853, 0.003924115095287561, 0.9460803270339966, -4.701546669006348, -5.907314300537109, -2.226836681365967
31240, 0.06411238759756088, -0.35444918274879456, 13.46740436553955, 0.1225118637084961, -0.09500670433044434, 0.03841026872396469, 0.22996900975704193, -0.16861245036125183, -0.10006605833768845, -2.838752508163452, -3.299574613571167, 0.08409927040338516, 2.0643005439320237, 4.0319070472177145, 104.8994140237124, 0, 0, 0, 0, 0, 0, 0, 0, -0.0048018554225564, -0.025022488087415695, 0.9594240784645081, -9.22095012664795, -11.176219940185547, -3.001497268676758
31250, -0.034002650529146194, -0.2111200988292694, 13.438916206359863, 0.12481523305177689, -0.0966930240392685, 0.0373862162232399, 0.2307131588459015, -0.16865555942058563, -0.10474304109811783, -2.835005760192871, -3.2970314025878906, 0.0856085941195488, 4.481727369853887, 4.53254461427187, 105.03557056604551, 0, 0, 0, 0, 0, 0, 0, 0, -0.016186436638236046, -0.011111751198768616, 0.9486015439033508, -9.790446281433105, -13.614556312561035, -3.187499761581421
31260, -0.14437390863895416, -0.04202961549162865, 13.40726375579834, 0.1271253228187561, -0.09837941080331802, 0.03631900995969772, 0.23131655156612396, -0.16862733662128448, -0.10869624465703964, -2.8319454193115234, -3.2946367263793945, 0.08442339301109314, 1.4646896199618331, -0.45364906480349987, 104.51757568439528, 0, 0, 0, 0, 0, 0, 0, 0, -0.020167114213109016, -0.0037286223378032446, 0.9706076383590698, -10.61569881439209, -18.533334732055664, -3.119464635848999
31270, -0.2709694504737854, 0.13483281433582306, 13.377278327941895, 0.1294400990009308, -0.10006501525640488, 0.03520911931991577, 0.23165574669837952, -0.1684993952512741, -0.11328121274709702, -2.8271591663360596, -3.291128396987915, 0.08253751695156097, 2.48199044690262, 1.3139371315456003, 105.0509975745593, 0, 0, 0, 0, 0, 0, 0, 0, -0.011949965730309486, -0.011355012655258179, 0.9467671513557434, -15.71155834197998, -18.263010025024414, -3.0347542762756348
31280, -0.4137432873249054, 0.3085322082042694, 13.344139099121094, 0.1317567229270935, -0.10174877196550369, 0.034057144075632095, 0.23168347775936127, -0.16825848817825317, -0.11711443960666656, -2.822448968887329, -3.2873375415802, 0.08364901691675186, 2.5785139830209673, 4.360225192140604, 104.72561053613008, 0, 0, 0, 0, 0, 0, 0, 0, -0.019427254796028137, 0.009863178245723248, 0.9630705714225769, -13.90139102935791, -17.413999557495117, -3.136331081390381
31290, -0.5758417248725891, 0.4716116189956665, 13.312507629394531, 0.13407199084758759, -0.10342948138713837, 0.032858483493328094, 0.23139183223247528, -0.16789303719997406, -0.12261994928121567, -2.8181538581848145, -3.2841789722442627, 0.0830964520573616, 2.8332837852284722, 2.0103800834490926, 104.61824349017783, 0, 0, 0, 0, 0, 0, 0, 0, -0.02502387948334217, -0.011764604598283768, 0.9797067642211914, -18.148963928222656, -15.993173599243164, -3.6121551990509033
31300, -0.7366169095039368, 0.6254796981811523, 13.278756141662598, 0.13638262450695038, -0.10510566085577011, 0.031617578119039536, 0.2307470589876175, -0.16734957695007324, -0.12556540966033936, -2.8141074180603027, -3.2814667224884033, 0.0818694457411766, 0.6666956906636072, 1.983564417787818, 104.56255570457917, 0, 0, 0, 0, 0, 0, 0, 0, -0.01865045167505741, 0.009947067126631737, 0.980036735534668, -14.505301475524902, -13.105900764465332, -2.8167388439178467
31310, -0.8892244100570679, 0.7456609010696411, 13.24889087677002, 0.13868515193462372, -0.10677538067102432, 0.03035014681518078, 0.22976863384246826, -0.16660001873970032, -0.12792626023292542, -2.8100943565368652, -3.2784323692321777, 0.08248179405927658, 0.9833709486979754, 2.0957537594612745, 104.41093925259214, 0, 0, 0, 0, 0, 0, 0, 0, -0.01825399324297905, -0.01384413056075573, 0.9844359159469604, -16.825523376464844, -9.727243423461914, -3.085435628890991
31320, -1.0436736345291138, 0.8287441730499268, 13.216923713684082, 0.14097626507282257, -0.10843653976917267, 0.029064059257507324, 0.2284606546163559, -0.1656351536512375, -0.12929697334766388, -2.805785894393921, -3.275153398513794, 0.08231863379478455, 3.122846931811012, 3.9037312161462125, 104.65879521748629, 0, 0, 0, 0, 0, 0, 0, 0, -0.02983022667467594, 0.005138944834470749, 0.9712191224098206, -15.491789817810059, -4.213499546051025, -3.665165901184082
31330, -1.2037686109542847, 0.8572592735290527, 13.178771018981934, 0.1432531177997589, -0.11008709669113159, 0.027758395299315453, 0.22691689431667328, -0.16448211669921875, -0.1318417489528656, -2.8031842708587646, -3.27347731590271, 0.08511879295110703, 3.2555076928644984, 0.36346244825648455, 104.02216357455363, 0, 0, 0, 0, 0, 0, 0, 0, -0.017748970538377762, -0.009813455864787102, 1.0006338357925415, -14.064825057983398, -3.8267722129821777, -3.5493764877319336
31340, -1.3495248556137085, 0.8846083283424377, 13.135211944580078, 0.1455134004354477, -0.11172489076852798, 0.0264364555478096, 0.2251419723033905, -0.1630782037973404, -0.13255207240581512, -2.7942261695861816, -3.26652193069458, 0.08491204679012299, 3.51813204088884, -0.8519898787457976, 104.13276300174891, 0, 0, 0, 0, 0, 0, 0, 0, -0.03041483461856842, -0.003146486124023795, 0.9891058802604675, -15.352813720703125, 0.003167924005538225, -4.425788402557373
31350, -1.4858293533325195, 0.8929070830345154, 13.092768669128418, 0.14797855913639069, -0.11350870877504349, 0.024974007159471512, 0.22307099401950836, -0.16125285625457764, -0.13335414230823517, -2.7849795818328857, -3.2603342533111572, 0.08128451555967331, 6.787337855277971, 1.5982795194949517, 104.41466204919074, 0, 0, 0, 0, 0, 0, 0, 0, -0.01720769889652729, -0.012262442149221897, 0.9802864193916321, -8.428975105285645, 0.8780018091201782, -4.619234561920166
31360, -1.5628745555877686, 0.8686030507087708, 13.048237800598145, 0.15019944310188293, -0.11511187255382538, 0.023631973192095757, 0.22110828757286072, -0.1593821793794632, -0.1350584477186203, -2.7776379585266113, -3.2546117305755615, 0.08200658112764359, 4.547588846110582, 1.0726606766486952, 103.78325732989511, 0, 0, 0, 0, 0, 0, 0, 0, -0.006436004303395748, 0.0056816511787474155, 0.9961667060852051, -6.982432842254639, 4.290559768676758, -4.355659484863281
31370, -1.5872243642807007, 0.8022274971008301, 13.001931190490723, 0.1524002104997635, -0.11669504642486572, 0.02228073589503765, 0.2190471589565277, -0.15725135803222656, -0.1351916640996933, -2.774649143218994, -3.252385139465332, 0.08352319151163101, 3.06566048431007, 2.4965416583601154, 104.54885560987782, 0, 0, 0, 0, 0, 0, 0, 0, -0.01735035516321659, 0.001982441172003746, 0.9657096266746521, 2.5444393157958984, 8.505910873413086, -4.453135967254639
31380, -1.5131571292877197, 0.6885654926300049, 12.956217765808105, 0.15458060801029205, -0.11825641244649887, 0.020919546484947205, 0.21703281998634338, -0.15502206981182098, -0.13704529404640198, -2.7683253288269043, -3.248380422592163, 0.07801153510808945, 1.622463436596813, 0.29907826676281957, 104.10206856402561, 0, 0, 0, 0, 0, 0, 0, 0, -0.0313243567943573, 0.01794774830341339, 0.9353171586990356, 11.513437271118164, 13.377298355102539, -4.193833827972412
31390, -1.376808762550354, 0.5541837811470032, 12.907286643981934, 0.15674181282520294, -0.11979568004608154, 0.019517909735441208, 0.21519529819488525, -0.15282490849494934, -0.14327631890773773, -2.7618134021759033, -3.242870330810547, 0.0816265344619751, 2.8800996015634155, 2.7830934745511797, 104.53132100297803, 0, 0, 0, 0, 0, 0, 0, 0, -0.018997369334101677, -0.014508834108710289, 0.9970155954360962, 15.006056785583496, 15.25895881652832, -4.834129333496094
31400, -1.207932710647583, 0.3912070691585541, 12.851258277893066, 0.15888524055480957, -0.12131278961896896, 0.018077971413731575, 0.2134896069765091, -0.15059375762939453, -0.1447029709815979, -2.757244348526001, -3.239820718765259, 0.08022793382406235, 2.35108492031888, 5.123616975897136, 104.17891685854877, 0, 0, 0, 0, 0, 0, 0, 0, -0.022274132817983627, 0.009708433412015438, 0.9639643430709839, 17.982202529907227, 17.036880493164062, -5.659965515136719
31410, -0.9955703616142273, 0.2262980341911316, 12.79291820526123, 0.16101311147212982, -0.12280862033367157, 0.016615640372037888, 0.21207650005817413, -0.14856578409671783, -0.14775450527668, -2.7525157928466797, -3.235656261444092, 0.08042813837528229, 5.509141709608137, -0.4533096801106353, 102.884282066467, 0, 0, 0, 0, 0, 0, 0, 0, -0.018803639337420464, -0.008748926222324371, 0.9970006346702576, 25.834091186523438, 17.98011016845703, -5.642680644989014
31420, -0.7553086876869202, 0.019439157098531723, 12.732523918151855, 0.16312839090824127, -0.12428507953882217, 0.015130697749555111, 0.21097877621650696, -0.14672289788722992, -0.14922577142715454, -2.74385142326355, -3.2293484210968018, 0.0744897872209549, 6.817548062869478, 4.8304830243785375, 103.63792354506101, 0, 0, 0, 0, 0, 0, 0, 0, -0.01799665577709675, 0.007010583765804768, 0.935652494430542, 20.897157669067383, 21.82297134399414, -5.679401397705078
31430, -0.5382555723190308, -0.19669057428836823, 12.673392295837402, 0.16523459553718567, -0.12574481964111328, 0.013614306226372719, 0.21024374663829803, -0.14520996809005737, -0.15404632687568665, -2.7385427951812744, -3.2261359691619873, 0.07459735125303268, 3.7403885691078447, 2.7908466190231422, 103.34937886241204, 0, 0, 0, 0, 0, 0, 0, 0, -0.04701831191778183, 6.282176036620513e-05, 0.9682976603507996, 19.505054473876953, 23.229228973388672, -5.322891712188721
31440, -0.3604457676410675, -0.43280288577079773, 12.615927696228027, 0.16733551025390625, -0.12719090282917023, 0.012054470367729664, 0.20992551743984222, -0.14399629831314087, -0.15791785717010498, -2.729837656021118, -3.220245838165283, 0.07366862148046494, 4.723858489690952, 2.008111854550606, 103.30719714857058, 0, 0, 0, 0, 0, 0, 0, 0, -0.016974249854683876, -0.013904755935072899, 0.9572877883911133, 20.447092056274414, 21.443639755249023, -5.929843902587891
31450, -0.2209257036447525, -0.6340115666389465, 12.559103965759277, 0.16943536698818207, -0.12862618267536163, 0.010457086376845837, 0.21003402769565582, -0.1430535614490509, -0.16155938804149628, -2.707942485809326, -3.2042555809020996, 0.06982773542404175, 4.91459153292079, 2.1737624065092973, 102.80544910135676, 0, 0, 0, 0, 0, 0, 0, 0, -0.013406944461166859, -0.005141171161085367, 0.9351773262023926, 6.767698287963867, 19.29697036743164, -5.487098693847656
31460, -0.16839390993118286, -0.8111932277679443, 12.503591537475586, 0.17153847217559814, -0.13005313277244568, 0.008811925537884235, 0.21056634187698364, -0.14232778549194336, -0.1674748808145523, -2.7037370204925537, -3.200469732284546, 0.07156281918287277, 3.280046200445268, -0.0694528445339131, 102.87014507845943, 0, 0, 0, 0, 0, 0, 0, 0, -3.056819332414307e-05, -0.023101238533854485, 0.9377501010894775, 3.2217631340026855, 16.667768478393555, -5.781420707702637
31470, -0.17590588331222534, -0.9422063231468201, 12.443333625793457, 0.17364870011806488, -0.1314735859632492, 0.007105435244739056, 0.21146179735660553, -0.14176151156425476, -0.1738266795873642, -2.6947033405303955, -3.1938915252685547, 0.06998960673809052, 5.089261457854821, 0.3565776686607478, 102.10512856372799, 0, 0, 0, 0, 0, 0, 0, 0, -0.001974815968424082, 0.002644091611728072, 0.934485673904419, -1.5627349615097046, 10.83552360534668, -6.465315341949463
31480, -0.22221888601779938, -0.9995824694633484, 12.377090454101562, 0.1757693588733673, -0.13288848102092743, 0.005334888584911823, 0.212657168507576, -0.1412230283021927, -0.18028588593006134, -2.6872715950012207, -3.188655138015747, 0.06881581991910934, 2.8664285084947294, 4.18847483877974, 102.97327049278314, 0, 0, 0, 0, 0, 0, 0, 0, -0.022967437282204628, -0.008198338560760021, 0.9558529853820801, -7.5088348388671875, 2.5730128288269043, -6.84055233001709
31490, -0.30165255069732666, -1.007881999015808, 12.303654670715332, 0.17790307104587555, -0.1342976838350296, 0.0035049496218562126, 0.21408097445964813, -0.14062395691871643, -0.1857035905122757, -2.677720546722412, -3.1817822456359863, 0.06916309148073196, -1.2324455957130305, 8.042335309879093, 102.88856106023022, 0, 0, 0, 0, 0, 0, 0, 0, -0.0004647274035960436, -0.026853047311306, 0.9587870240211487, -7.831750392913818, -0.2748692035675049, -7.708680152893066
31500, -0.38715723156929016, -0.9564372301101685, 12.226310729980469, 0.1800515204668045, -0.13570037484169006, 0.0016289445338770747, 0.2156115621328354, -0.13992133736610413, -0.18949812650680542, -2.6675000190734863, -3.1746366024017334, 0.06435437500476837, 5.522979237941555, 0.8179264788414287, 102.04954768390643, 0, 0, 0, 0, 0, 0, 0, 0, -0.007448009215295315, -0.005913594737648964, 0.9522262215614319, -7.075676918029785, -6.632018089294434, -8.179576873779297
31510, -0.49569010734558105, -0.8694306015968323, 12.140398979187012, 0.1822151243686676, -0.13709543645381927, -0.0002903575077652931, 0.2171170562505722, -0.13910049200057983, -0.19436150789260864, -2.655806303024292, -3.1658401489257812, 0.06384249776601791, 5.91103909018137, -1.7860096581145228, 102.21853237656246, 0, 0, 0, 0, 0, 0, 0, 0, -0.007749323267489672, -0.014701585285365582, 0.9843538403511047, -13.640353202819824, -11.28061580657959, -8.955540657043457
31520, -0.6069967150688171, -0.7227305173873901, 12.051980018615723, 0.18439342081546783, -0.13848158717155457, -0.0022454657591879368, 0.21854980289936066, -0.13813500106334686, -0.1966591775417328, -2.6441338062286377, -3.1579246520996094, 0.05999757722020149, 3.912964319457274, 1.2954503650675804, 101.66655600318776, 0, 0, 0, 0, 0, 0, 0, 0, -0.010224285535514355, 0.009157083928585052, 0.985153317451477, -10.920058250427246, -15.461325645446777, -9.112516403198242
31530, -0.7488431930541992, -0.559842586517334, 11.956934928894043, 0.1865851879119873, -0.13985732197761536, -0.004220503382384777, 0.2198130190372467, -0.13701625168323517, -0.1983467936515808, -2.6354265213012695, -3.152371406555176, 0.05875115469098091, 3.80839984978052, -0.3055342003807766, 101.04838660539875, 0, 0, 0, 0, 0, 0, 0, 0, -0.00876649096608162, -0.00014125708548817784, 0.9863148927688599, -12.7664155960083, -17.424474716186523, -9.89339828491211
31540, -0.848571240901947, -0.3768700063228607, 11.855958938598633, 0.1887882798910141, -0.14122110605239868, -0.006204185076057911, 0.220810204744339, -0.13574416935443878, -0.19838954508304596, -2.6297528743743896, -3.1479549407958984, 0.05936959385871887, 4.853422431086612, 0.9331118977014512, 101.24339067825959, 0, 0, 0, 0, 0, 0, 0, 0, -0.01243783999234438, 0.020033884793519974, 0.9282142519950867, -11.003976821899414, -15.097269058227539, -10.952425003051758
31550, -0.9336284399032593, -0.2303047627210617, 11.751416206359863, 0.1909995675086975, -0.14257164299488068, -0.008212821558117867, 0.2214701622724533, -0.13437077403068542, -0.20333771407604218, -2.625676393508911, -3.145129442214966, 0.05925491452217102, 5.583785158391327, 0.6737239198374425, 100.77103923155927, 0, 0, 0, 0, 0, 0, 0, 0, -0.017236335203051567, 0.008398226462304592, 0.9793588519096375, -5.275638580322266, -14.59420108795166, -10.48568058013916
