timeTick, roll, pitch, yaw, stateX, stateY, stateZ, stateVX, stateVY, stateVZ, otX0, otY0, otZ0, otRoll0, otPitch0, otYaw0, cmdThrust, cmdRoll, cmdPitch, cmdYaw, actThrust, rRoll, rPitch, rYaw, accx, accy, accz, gyrox, gyroy, gyroz
17144, 0.0, 0.0, 0.0, 0, 0, 0, 0, 0, 0, -3.0036168098449707, -3.6820249557495117, 0.006725238636136055, 2.7911273925683955, 1.3131309808148046, 91.98861997446859, 0, 0, 0, 0, 0, 0, 0, 0, 0, 0, 0, 0, 0, 0
17154, 0.1756199151277542, 0.020921139046549797, 0.0644381195306778, 0.0, 0.0, 0.0, 0.0, 0.0, 0.0, -3.003041982650757, -3.681710720062256, 0.009153062477707863, 3.2721385568647516, 1.9646275041680212, 92.20070801447648, 0, 0, 0, 0, 0, 0, 0, 0, 0, 0, 0, 0, 0, 0
17164, 0.34008780121803284, 0.06474411487579346, 0.15964339673519135, 0.0, 0.0, 3.027200000360608e-05, -2.7372977910999907e-06, -2.3200038413051516e-05, 0.007567950524389744, -3.0025417804718018, -3.6814846992492676, 0.011009715497493744, 3.34270594865882, 2.5724763392569514, 92.4714477662148, 0, 0, 0, 0, 0, 0, 0, 0, 0.009385928511619568, -0.030440932139754295, 1.0905038118362427, 0, 0, 0
17174, 0.42533889412879944, 0.18105709552764893, 0.28110402822494507, -2.2281771805410244e-07, -1.8884974224420148e-06, 0.0001558078220114112, -4.883969450020231e-05, -0.00038320242310874164, 0.01753859780728817, -3.0025417804718018, -3.6814846992492676, 0.011009715497493744, 3.34270594865882, 2.5724763392569514, 92.4714477662148, 0, 0, 0, 0, 0, 0, 0, 0, 0.013855994679033756, -0.005595432128757238, 1.0682892799377441, 6.302303791046143, -11.562851905822754, 11.331108093261719
17184, 0.42464354634284973, 0.28890907764434814, 0.40842729806900024, -1.4735112472408218e-06, -9.909090294968337e-06, 0.00039598537841811776, -0.00019449582032393664, -0.0010881929192692041, 0.02612921968102455, -3.00231671333313, -3.68133544921875, 0.012098322622478008, 3.2157838306972284, 2.672639472419746, 92.6152069772274, 0, 0, 0, 0, 0, 0, 0, 0, 0.016929833218455315, -0.02117415890097618, 1.0750576257705688, -0.46957579255104065, -11.027710914611816, 12.98586368560791
17194, 0.37729859352111816, 0.35049042105674744, 0.5534311532974243, -5.068061909696553e-06, -2.4719680368434638e-05, 0.0006948837544769049, -0.0005368258571252227, -0.0018746142741292715, 0.033650271594524384, -3.001401901245117, -3.6807234287261963, 0.014607589691877365, 2.8928240070293656, 1.9201464190032596, 93.05615360402079, 0, 0, 0, 0, 0, 0, 0, 0, 0.00250806100666523, -0.04094922915101051, 1.0582505464553833, -5.072227954864502, -5.055819511413574, 14.591815948486328
17204, 0.27558693289756775, 0.35661980509757996, 0.7232694029808044, -1.3046075764577836e-05, -4.736118717119098e-05, 0.001063935225829482, -0.0010638220701366663, -0.002649651374667883, 0.04016052559018135, -3.001011371612549, -3.6804919242858887, 0.01527311746031046, 2.8117749631085145, 1.4395205985638597, 93.2039139892031, 0, 0, 0, 0, 0, 0, 0, 0, -0.005936169996857643, -0.027310773730278015, 1.0556058883666992, -9.386767387390137, -0.7117779850959778, 16.9505615234375
17214, 0.1457194834947586, 0.3375459313392639, 0.9070423245429993, -2.6811729185283184e-05, -7.729030767222866e-05, 0.0014916802756488323, -0.0016878537135198712, -0.0033287517726421356, 0.04539008438587189, -3.0000975131988525, -3.6800670623779297, 0.017019281163811684, 2.8456665788416404, 0.7968425556609589, 93.54290570008098, 0, 0, 0, 0, 0, 0, 0, 0, 0.0004735593101941049, -0.03126118332147598, 1.05831778049469, -13.123982429504395, 2.280191421508789, 18.11248779296875
17224, 0.00809879507869482, 0.3449613153934479, 1.100554347038269, -4.689588968176395e-05, -0.00011312034621369094, 0.0019752150401473045, -0.0023254358675330877, -0.0038258859422057867, 0.05131871625781059, -2.999140977859497, -3.6795713901519775, 0.019922371953725815, 2.8682950259004696, 1.0224499152007809, 93.98362742305652, 0, 0, 0, 0, 0, 0, 0, 0, 0.011828185990452766, -0.027999067679047585, 1.0557222366333008, -13.082335472106934, -1.0442721843719482, 19.170276641845703
17234, -0.11245141178369522, 0.3577623665332794, 1.3016706705093384, -7.31699401512742e-05, -0.00015273992903530598, 0.0025140568614006042, -0.002929162234067917, -0.004087768495082855, 0.05645071715116501, -2.9981424808502197, -3.6790549755096436, 0.022816814482212067, 2.799163346703863, 1.2467085478488116, 94.2511115666813, 0, 0, 0, 0, 0, 0, 0, 0, 0.024505432695150375, -0.027774732559919357, 1.0650651454925537, -12.669303894042969, -1.1391937732696533, 20.00266456604004
17244, -0.17222025990486145, 0.3645576238632202, 1.5153526067733765, -0.00010558786743786186, -0.00019375112606212497, 0.003107645083218813, -0.0035557125229388475, -0.004104461055248976, 0.06226730719208717, -2.9975435733795166, -3.678842306137085, 0.024672139436006546, 3.028712151943562, 2.017749054004611, 94.4746696471525, 0, 0, 0, 0, 0, 0, 0, 0, 0.015783259645104408, -0.035537488758563995, 1.0691478252410889, -5.682328224182129, -0.6361035704612732, 21.288938522338867
17254, -0.1887490600347519, 0.3704439401626587, 1.7333669662475586, -0.000144440375152044, -0.0002338416234124452, 0.0037639602087438107, -0.004216382745653391, -0.003909111954271793, 0.06899585574865341, -2.9969382286071777, -3.678572416305542, 0.026799941435456276, 3.053467949540364, 2.970291225564239, 94.67864671859397, 0, 0, 0, 0, 0, 0, 0, 0, -0.0029189642518758774, -0.03789513558149338, 1.0916764736175537, -2.3369598388671875, -0.8606098294258118, 21.66594886779785
17264, -0.11947847902774811, 0.3588496148586273, 1.9568917751312256, -0.0001900034985737875, -0.0002714355068746954, 0.004491251893341541, -0.004898200277239084, -0.003610137151554227, 0.07646268606185913, -2.9962570667266846, -3.678243398666382, 0.02763546258211136, 3.043911148237491, 2.0485383515366777, 94.85743584777, 0, 0, 0, 0, 0, 0, 0, 0, 0.014691188000142574, -0.022640768438577652, 1.0747101306915283, 7.356330871582031, 1.3275748491287231, 22.310840606689453
17274, -0.03903350979089737, 0.3386596739292145, 2.188588857650757, -0.00024249426496680826, -0.0003058807924389839, 0.0053000664338469505, -0.005599306896328926, -0.0032923489343374968, 0.08530121296644211, -2.997199535369873, -3.6798250675201416, 0.03051176108419895, 3.580991626459707, 3.5807720121786986, 96.97515987400155, 0, 0, 0, 0, 0, 0, 0, 0, 0.014009043574333191, -0.03820143640041351, 1.0594695806503296, 8.633848190307617, 1.3691567182540894, 22.956436157226562
17284, 0.04775986447930336, 0.2721717357635498, 2.4261422157287598, -0.00030179269379004836, -0.0003378278051968664, 0.00618469063192606, -0.006258886773139238, -0.0031086166854947805, 0.09162469953298569, -2.996532678604126, -3.679560899734497, 0.03180648013949394, 3.4766590512117936, 3.522587805774947, 97.16496161011989, 0, 0, 0, 0, 0, 0, 0, 0, -0.01582115702331066, -0.026463743299245834, 1.0377838611602783, 8.895148277282715, 6.097329139709473, 23.732912063598633
17294, 0.13235221803188324, 0.1644999235868454, 2.6614058017730713, -0.00036742561496794224, -0.0003686804848257452, 0.007123550400137901, -0.006862686015665531, -0.003071326995268464, 0.09614865481853485, -2.9941952228546143, -3.677398204803467, 0.03237243369221687, 3.607203112147494, 2.7051444179630835, 95.43687063142553, 0, 0, 0, 0, 0, 0, 0, 0, -0.001509456429630518, -0.028294915333390236, 1.0140821933746338, 8.526562690734863, 10.579558372497559, 23.43543815612793
17304, 0.22825729846954346, 0.04297079145908356, 2.907092809677124, -0.000438447023043409, -0.000399919314077124, 0.008102849125862122, -0.007334570866078138, -0.003183753229677677, 0.09971248358488083, -2.9941952228546143, -3.677398204803467, 0.03237243369221687, 3.607203112147494, 2.7051444179630835, 95.43687063142553, 0, 0, 0, 0, 0, 0, 0, 0, 0.0020338534377515316, -0.021025998517870903, 1.021252989768982, 9.17726993560791, 12.140623092651367, 24.732452392578125
17314, 0.36980926990509033, -0.1052512526512146, 3.151705026626587, -0.0005131672951392829, -0.00043297212687321007, 0.009107375517487526, -0.00760559132322669, -0.003430794458836317, 0.10119375586509705, -2.9934706687927246, -3.677079916000366, 0.03360384330153465, 3.480225338819276, 2.4099999370179432, 95.69092757012824, 0, 0, 0, 0, 0, 0, 0, 0, 0.0019039955222979188, -0.01838783547282219, 0.9982483386993408, 13.87399959564209, 15.765989303588867, 24.119827270507812
17324, 0.5575847625732422, -0.23602566123008728, 3.403672695159912, -0.0005894956411793828, -0.0004692807560786605, 0.01012689433991909, -0.00765483733266592, -0.003835286945104599, 0.10271039605140686, -2.992739200592041, -3.6767308712005615, 0.03497873246669769, 3.4518178061891374, 1.8542456030977519, 95.89675805962621, 0, 0, 0, 0, 0, 0, 0, 0, -0.01622811332345009, -0.009748429991304874, 1.003979206085205, 18.68126678466797, 13.284045219421387, 24.763572692871094
17334, 0.7562804222106934, -0.356673926115036, 3.6609838008880615, -0.0006649749702773988, -0.0005107316537760198, 0.011151858605444431, -0.007440159562975168, -0.004453185945749283, 0.10228125005960464, -2.9919888973236084, -3.6763601303100586, 0.03565823659300804, 3.463398990255785, 0.4348912793757336, 96.07229258712533, 0, 0, 0, 0, 0, 0, 0, 0, 0.007226703688502312, -0.028607241809368134, 0.9890573024749756, 19.73882293701172, 13.120882987976074, 25.51084327697754
17344, 0.9574044346809387, -0.44614580273628235, 3.925163507461548, -0.0007370816310867667, -0.0005598975694738328, 0.012173496186733246, -0.006978422403335571, -0.005377722438424826, 0.10204336792230606, -2.9919888973236084, -3.6763601303100586, 0.03565823659300804, 3.463398990255785, 0.4348912793757336, 96.07229258712533, 0, 0, 0, 0, 0, 0, 0, 0, 0.0024369233287870884, -0.031024975702166557, 1.010894775390625, 20.566146850585938, 9.032299041748047, 26.201120376586914
17354, 1.1336047649383545, -0.5321152210235596, 4.19845724105835, -0.0008033996564336121, -0.0006199514609761536, 0.013194710947573185, -0.006280018948018551, -0.0066308751702308655, 0.10219524055719376, -2.9912514686584473, -3.675957679748535, 0.03689172491431236, 4.133672050590625, 0.24392923518928455, 96.33823123208991, 0, 0, 0, 0, 0, 0, 0, 0, 0.007098523434251547, -0.04032490774989128, 0.9867651462554932, 17.99894142150879, 8.840605735778809, 27.192678451538086
17364, 1.2263511419296265, -0.5882951617240906, 4.470354080200195, -0.0008617986459285021, -0.0006942302570678294, 0.014219979755580425, -0.005391872953623533, -0.008223147131502628, 0.10285332798957825, -2.990377426147461, -3.6755571365356445, 0.03922847658395767, 3.985455268057041, 1.8373092931530266, 96.5555710068726, 0, 0, 0, 0, 0, 0, 0, 0, -0.0005225500208325684, -0.021315377205610275, 1.0130140781402588, 9.0707368850708, 6.5589213371276855, 26.980083465576172
17374, 1.298899531364441, -0.6006317138671875, 4.745658874511719, -0.0009104814962483943, -0.0007857764721848071, 0.01524683553725481, -0.0043366956524550915, -0.01008097268640995, 0.10251442342996597, -2.9886386394500732, -3.6746151447296143, 0.04176739230751991, 4.259918898127314, 0.9684871257610723, 97.02426455342686, 0, 0, 0, 0, 0, 0, 0, 0, 0.010219289921224117, -0.021301761269569397, 1.0090879201889038, 7.0840744972229, 2.1010916233062744, 27.523542404174805
17384, 1.3119717836380005, -0.5890403389930725, 5.022357940673828, -0.0009479225263930857, -0.0008968113688752055, 0.016279229894280434, -0.003141612047329545, -0.012122311629354954, 0.10396205633878708, -2.987733840942383, -3.6741867065429688, 0.04343625530600548, 4.201647391384429, 1.0169863363320815, 97.27092176301316, 0, 0, 0, 0, 0, 0, 0, 0, 0.013084308244287968, -0.027024919167160988, 1.0001022815704346, 1.1315385103225708, -0.14862260222434998, 27.69234848022461
17394, 1.26446533203125, -0.5188430547714233, 5.3003950119018555, -0.0009732792968861759, -0.0010287190089002252, 0.017320042476058006, -0.0019195860950276256, -0.014253493398427963, 0.10420038551092148, -2.9856796264648438, -3.6732499599456787, 0.0469343326985836, 3.683214200778618, 2.690754754388877, 97.69513477305556, 0, 0, 0, 0, 0, 0, 0, 0, 0.00860611256211996, -0.04362159222364426, 1.0163164138793945, -5.990964412689209, -7.077225685119629, 28.15970230102539
17404, 1.2550445795059204, -0.41014930605888367, 5.572703838348389, -0.0009864239254966378, -0.0011820826912298799, 0.018365660682320595, -0.0006995983421802521, -0.016412660479545593, 0.10492679476737976, -2.984567642211914, -3.672722101211548, 0.04798552021384239, 3.7482454965090297, 2.2963485921304994, 97.9684674181591, 0, 0, 0, 0, 0, 0, 0, 0, 0.0025503472425043583, -0.02354476973414421, 1.0096379518508911, -1.1582552194595337, -9.992859840393066, 27.29893684387207
17414, 1.2308826446533203, -0.2488606572151184, 5.843828201293945, -0.0009879224235191941, -0.0013567220885306597, 0.019421661272644997, 0.0004073020245414227, -0.01850971020758152, 0.10627589374780655, -2.9824466705322266, -3.6717443466186523, 0.05131401866674423, 3.8601383261320352, 3.358754074873417, 98.41959112066637, 0, 0, 0, 0, 0, 0, 0, 0, 0.0047819968312978745, -0.03811538219451904, 1.0054881572723389, -2.35766339302063, -15.335566520690918, 27.584123611450195
17424, 1.2424427270889282, -0.07364572584629059, 6.107393264770508, -0.0009792950004339218, -0.001552210538648069, 0.020486166700720787, 0.0013270589988678694, -0.02058308757841587, 0.10662874579429626, -2.985646963119507, -3.672776937484741, 0.059395138174295425, 5.907037884164926, 0.27597173755805215, 98.74399259256248, 0, 0, 0, 0, 0, 0, 0, 0, 0.003487563692033291, -0.030133208259940147, 1.0083917379379272, 1.0584876537322998, -17.816110610961914, 26.714962005615234
17434, 1.277211308479309, 0.07728105783462524, 6.364587306976318, -0.0009628105326555669, -0.001768377609550953, 0.021555742248892784, 0.0019772229716181755, -0.022647185251116753, 0.1072881817817688, -2.983289957046509, -3.6717350482940674, 0.0623454749584198, 6.291649719135293, 0.3932400115380972, 99.17103144236594, 0, 0, 0, 0, 0, 0, 0, 0, -0.007848425768315792, -0.026448776945471764, 0.9864352345466614, 3.8115005493164062, -14.530841827392578, 25.970388412475586
17444, 1.3304210901260376, 0.22210794687271118, 6.623365879058838, -0.0009412868530489504, -0.0020053167827427387, 0.02262660674750805, 0.0023377258330583572, -0.024738319218158722, 0.1068844199180603, -2.9823250770568848, -3.670649290084839, 0.059444330632686615, 8.087635841818724, 5.511740579532301, 99.35871170335534, 0, 0, 0, 0, 0, 0, 0, 0, -0.0015244068345054984, -0.01187150925397873, 1.0023642778396606, 4.662350177764893, -15.06291675567627, 26.364765167236328
17454, 1.4176816940307617, 0.3044944703578949, 6.8819193840026855, -0.0009173602447845042, -0.002263534814119339, 0.02369065210223198, 0.0024593982379883528, -0.026903264224529266, 0.10592297464609146, -2.980191230773926, -3.670151710510254, 0.062281638383865356, 7.776001323128745, 3.812181839034338, 100.02546170550815, 0, 0, 0, 0, 0, 0, 0, 0, 9.396662790095434e-05, -0.032725632190704346, 0.9859923124313354, 9.445980072021484, -7.470510005950928, 26.142868041992188
17464, 1.4762307405471802, 0.3592136800289154, 7.133912563323975, -0.0008933426579460502, -0.002544133923947811, 0.024751227349042892, 0.002353839809074998, -0.029217539355158806, 0.10618856549263, -2.975032091140747, -3.669570207595825, 0.061207957565784454, 3.928359070169418, 3.8749775962441504, 101.8688125082968, 0, 0, 0, 0, 0, 0, 0, 0, 0.0077999308705329895, -0.024508927017450333, 0.9632800817489624, 5.523421764373779, -5.2373366355896, 25.008899688720703
17474, 1.5149726867675781, 0.34896641969680786, 7.388657569885254, -0.0008709070971235633, -0.0028483394999057055, 0.025799868628382683, 0.0021457956172525883, -0.03162164241075516, 0.10353726893663406, -2.9719903469085693, -3.667022705078125, 0.06277038156986237, 3.799298319936394, 3.913608230544355, 100.11102085888785, 0, 0, 0, 0, 0, 0, 0, 0, -0.013662910088896751, -0.015922747552394867, 0.9795578718185425, 5.457962512969971, 1.9103546142578125, 25.3049373626709
17484, 1.4955202341079712, 0.3346368372440338, 7.642916202545166, -0.0008508857572451234, -0.0031770889181643724, 0.026820369064807892, 0.0018687123665586114, -0.034127943217754364, 0.1005617305636406, -2.9691569805145264, -3.6656129360198975, 0.06411920487880707, 3.937427955575775, 1.715370427465956, 100.52625655337549, 0, 0, 0, 0, 0, 0, 0, 0, -0.007119630463421345, -0.029504870995879173, 0.9661369323730469, -1.9996072053909302, 1.5436805486679077, 25.37041473388672
17494, 1.430864930152893, 0.26342344284057617, 7.89648962020874, -0.0008334642043337226, -0.0035313223488628864, 0.02781505510210991, 0.0016267506871372461, -0.036721013486385345, 0.09837671369314194, -2.966054677963257, -3.664414405822754, 0.0664820671081543, 4.256704023473587, 1.2613063015917305, 100.95043075693259, 0, 0, 0, 0, 0, 0, 0, 0, -0.009313955903053284, -0.016699902713298798, 0.9810900688171387, -6.575382232666016, 8.86495304107666, 24.966903686523438
17504, 1.3674683570861816, 0.18002207577228546, 8.153508186340332, -0.0008182962192222476, -0.003911184147000313, 0.028783001005649567, 0.001414898899383843, -0.0392569825053215, 0.09521675109863281, -2.964512348175049, -3.663694143295288, 0.06719757616519928, 4.042946793029639, 0.3337503214112303, 101.12980860452367, 0, 0, 0, 0, 0, 0, 0, 0, -0.007534317672252655, -0.031093887984752655, 0.9715801477432251, -6.349042892456055, 8.286003112792969, 25.437297821044922
17514, 1.294643759727478, 0.05640629306435585, 8.410324096679688, -0.0008046904113143682, -0.0043160333298146725, 0.029728606343269348, 0.0013158507645130157, -0.041715700179338455, 0.0939083993434906, -2.963231086730957, -3.6632087230682373, 0.06788069754838943, 4.294393715874511, -1.0210615698747176, 101.63736162167528, 0, 0, 0, 0, 0, 0, 0, 0, -0.013091749511659145, -0.013634813949465752, 0.9509391784667969, -8.128613471984863, 13.742433547973633, 25.256351470947266
17524, 1.239692211151123, -0.0805283784866333, 8.669733047485352, -0.0007914027664810419, -0.004744479898363352, 0.03064611181616783, 0.0013436649460345507, -0.0439811572432518, 0.08959722518920898, -2.963231086730957, -3.6632087230682373, 0.06788069754838943, 4.294393715874511, -1.0210615698747176, 101.63736162167528, 0, 0, 0, 0, 0, 0, 0, 0, -0.00690888985991478, -0.030479801818728447, 0.960394024848938, -5.268161296844482, 13.822700500488281, 25.587444305419922
17534, 1.1995370388031006, -0.21607092022895813, 8.929858207702637, -0.0007768718060106039, -0.005194852128624916, 0.03152092546224594, 0.0015629183035343885, -0.046098701655864716, 0.08536851406097412, -2.9594805240631104, -3.6615548133850098, 0.0718996524810791, 3.7255661681419756, 2.5450048614494847, 101.72497839382378, 0, 0, 0, 0, 0, 0, 0, 0, -0.0005211691604927182, -0.026011159643530846, 0.9425836801528931, -4.366652488708496, 13.684759140014648, 25.573123931884766
17544, 1.1710286140441895, -0.3455955684185028, 9.188961029052734, -0.0007590687018819153, -0.005665738135576248, 0.03235147148370743, 0.001996543724089861, -0.048082366585731506, 0.08074237406253815, -2.9578237533569336, -3.6608388423919678, 0.0723349004983902, 3.9988759754279735, 1.3654311608042917, 101.94762195729068, 0, 0, 0, 0, 0, 0, 0, 0, -0.008684974163770676, -0.013098767958581448, 0.9473040103912354, -3.699922561645508, 14.51562213897705, 25.493236541748047
17554, 1.1664258241653442, -0.4444105923175812, 9.445355415344238, -0.0007358895963989198, -0.006155821494758129, 0.03312908858060837, 0.002634957432746887, -0.04993739724159241, 0.07478213310241699, -2.9561820030212402, -3.6600630283355713, 0.07367481291294098, 3.812261055503352, 1.8701553592056541, 102.21302739943269, 0, 0, 0, 0, 0, 0, 0, 0, -0.00031888284138403833, -0.025881512090563774, 0.9213444590568542, -0.24569609761238098, 9.664990425109863, 25.467056274414062
17564, 1.1652928590774536, -0.5081084966659546, 9.696682929992676, -0.0007052912260405719, -0.006664051674306393, 0.03384729474782944, 0.0034827077761292458, -0.05170777440071106, 0.06885872781276703, -2.9561820030212402, -3.6600630283355713, 0.07367481291294098, 3.812261055503352, 1.8701553592056541, 102.21302739943269, 0, 0, 0, 0, 0, 0, 0, 0, -0.0058123040944337845, -0.008747050538659096, 0.9482432007789612, -1.0430455207824707, 6.827783107757568, 24.828479766845703
17574, 1.1801422834396362, -0.5495001673698425, 9.943589210510254, -0.0006654346361756325, -0.0071897367015480995, 0.03450290486216545, 0.004489005543291569, -0.053426798433065414, 0.0622633695602417, -2.956766366958618, -3.6603493690490723, 0.08386127650737762, 6.017967656736825, -1.4001670312082979, 102.59223477555992, 0, 0, 0, 0, 0, 0, 0, 0, -0.005554460920393467, -0.016492173075675964, 0.9602519273757935, 1.2284523248672485, 5.475564002990723, 24.68944549560547
17584, 1.2241849899291992, -0.5606822371482849, 10.191007614135742, -0.0006148513639345765, -0.007732687518000603, 0.035102926194667816, 0.005631724372506142, -0.05515844747424126, 0.05774029716849327, -2.950855016708374, -3.6577186584472656, 0.07661042362451553, 3.9680095764345227, 1.8570461956176416, 102.74515293765143, 0, 0, 0, 0, 0, 0, 0, 0, -0.005938936024904251, -0.01918644830584526, 0.9379390478134155, 4.456488132476807, 0.8496389389038086, 24.607473373413086
17594, 1.296717882156372, -0.553119421005249, 10.438446044921875, -0.0005524796433746815, -0.00829294789582491, 0.03565540537238121, 0.006848420947790146, -0.05688544362783432, 0.052754562348127365, -2.9488935470581055, -3.656928777694702, 0.07656268775463104, 4.519610738783064, 1.0679433142482537, 102.95506410793507, 0, 0, 0, 0, 0, 0, 0, 0, -0.003422992769628763, -0.00024372384359594434, 0.9384387731552124, 6.2700276374816895, 0.32612019777297974, 24.727149963378906
17604, 1.3898688554763794, -0.5259419679641724, 10.689438819885254, -0.0004778069269377738, -0.00887070782482624, 0.03615384176373482, 0.008093122392892838, -0.05865442380309105, 0.04693060368299484, -2.9485697746276855, -3.656991481781006, 0.07872841507196426, 4.426797979871353, 1.7970035547107557, 104.08671969280151, 0, 0, 0, 0, 0, 0, 0, 0, -0.0014454047195613384, -0.017781900241971016, 0.9347513914108276, 9.251761436462402, -1.9658915996551514, 24.993759155273438
17614, 1.4997069835662842, -0.4793473482131958, 10.936178207397461, -0.00039061883580870926, -0.009466692805290222, 0.03659285977482796, 0.009353620000183582, -0.06052742525935173, 0.04087037593126297, -2.9485697746276855, -3.656991481781006, 0.07872841507196426, 4.426797979871353, 1.7970035547107557, 104.08671969280151, 0, 0, 0, 0, 0, 0, 0, 0, -0.0004468797123990953, -0.015172160230576992, 0.926631510257721, 11.66598129272461, -3.3964171409606934, 24.777875900268555
17624, 1.6051197052001953, -0.41387122869491577, 11.177937507629395, -0.0002909702598117292, -0.010081975720822811, 0.03696313127875328, 0.010587893426418304, -0.06250888854265213, 0.03318070247769356, -2.946892738342285, -3.6578657627105713, 0.08213573694229126, 4.849431353636164, 6.655129895233927, 106.17216137440286, 0, 0, 0, 0, 0, 0, 0, 0, -0.012521696276962757, -0.020254531875252724, 0.9421562552452087, 10.333785057067871, -7.041279315948486, 24.251691818237305
17634, 1.7268120050430298, -0.36881276965141296, 11.413603782653809, -0.0001790422829799354, -0.010718133300542831, 0.03726334124803543, 0.011811736971139908, -0.06470523774623871, 0.026858113706111908, -2.9476778507232666, -3.6562321186065674, 0.08638040721416473, 7.0278637590360855, 0.055694441995967736, 103.69582853496907, 0, 0, 0, 0, 0, 0, 0, 0, -0.003543360624462366, -0.006927895825356245, 0.9208951592445374, 11.854066848754883, -4.020835876464844, 23.359832763671875
17644, 1.8424553871154785, -0.337057888507843, 11.644550323486328, -5.519148544408381e-05, -0.011377135291695595, 0.037499405443668365, 0.01297044102102518, -0.06707647442817688, 0.020350052043795586, -2.9456565380096436, -3.655229091644287, 0.08713524788618088, 7.203704289708949, 0.0736389557393693, 103.88725402690868, 0, 0, 0, 0, 0, 0, 0, 0, -0.00449181254953146, 0.005204011686146259, 0.9220328330993652, 11.232709884643555, -2.385315179824829, 22.945180892944336
17654, 1.936469554901123, -0.29205459356307983, 11.872811317443848, 8.006009738892317e-05, -0.01206067856401205, 0.03766428306698799, 0.01409119088202715, -0.06961219012737274, 0.012620595283806324, -2.9407408237457275, -3.6547186374664307, 0.08130169659852982, 4.659807526569432, 3.1632447432281197, 106.00854696874813, 0, 0, 0, 0, 0, 0, 0, 0, -0.0051545691676437855, -0.018764156848192215, 0.9410818815231323, 9.598396301269531, -3.7780609130859375, 23.07210922241211
17664, 2.007481813430786, -0.23594236373901367, 12.094977378845215, 0.0002265583025291562, -0.012770621106028557, 0.03775583952665329, 0.01522245816886425, -0.0723603293299675, 0.0056869108229875565, -2.935105562210083, -3.650733232498169, 0.08110581338405609, 4.625868327969388, 1.6899511685279265, 104.30566461440309, 0, 0, 0, 0, 0, 0, 0, 0, -0.0008083467255346477, -0.018163291737437248, 0.9318819642066956, 7.1658616065979, -4.345674991607666, 22.417715072631836
17674, 2.038106918334961, -0.15685619413852692, 12.314785957336426, 0.0003842645965050906, -0.013508928008377552, 0.037781137973070145, 0.0163346529006958, -0.07528842985630035, -0.0006304694688878953, -2.9313855171203613, -3.649026393890381, 0.08074011653661728, 5.193712808497217, -1.0612471305108215, 104.96717075697323, 0, 0, 0, 0, 0, 0, 0, 0, -0.012701544910669327, -0.01240993570536375, 0.9581751823425293, 2.7140824794769287, -8.165417671203613, 22.098209381103516
17684, 2.052807092666626, -0.07687708735466003, 12.550826072692871, 0.0005528861656785011, -0.014277311973273754, 0.03774823248386383, 0.017408201470971107, -0.07838045805692673, -0.005951646715402603, -2.9313855171203613, -3.649026393890381, 0.08074011653661728, 5.193712808497217, -1.0612471305108215, 104.96717075697323, 0, 0, 0, 0, 0, 0, 0, 0, -0.015550955198705196, -0.024632446467876434, 0.9595119953155518, 1.8215291500091553, -6.43451452255249, 21.53851890563965
17694, 2.035294771194458, -0.013514762744307518, 12.759666442871094, 0.000750253617297858, -0.015159069560468197, 0.037661824375391006, 0.018496550619602203, -0.08193325251340866, -0.00975931715220213, -2.9289402961730957, -3.6473336219787598, 0.09267253428697586, 6.05658352951694, -1.783546582478749, 104.92578614301553, 0, 0, 0, 0, 0, 0, 0, 0, -0.002502995543181896, -0.02946390211582184, 0.9472541213035583, -0.38193759322166443, -5.654824733734131, 21.138078689575195
17704, 1.9901944398880005, 0.04904408007860184, 12.961983680725098, 0.0009394724620506167, -0.015994621440768242, 0.03754119947552681, 0.019364455714821815, -0.08517476171255112, -0.014364260248839855, -2.923306465148926, -3.6469430923461914, 0.08493954688310623, 4.075977242033833, 3.4027022911819813, 107.29697387474613, 0, 0, 0, 0, 0, 0, 0, 0, -0.006063756532967091, -0.019465668126940727, 0.9642494320869446, -3.9552955627441406, -5.13050651550293, 20.460290908813477
17714, 1.92570960521698, 0.10067316144704819, 13.15584659576416, 0.0011369335697963834, -0.016862718388438225, 0.037379465997219086, 0.020143941044807434, -0.0884443148970604, -0.017979532480239868, -2.920105218887329, -3.644167423248291, 0.08313476294279099, 4.5514118054775405, 0.12379714454419855, 105.82493076639953, 0, 0, 0, 0, 0, 0, 0, 0, -0.014251366257667542, -0.03202521428465843, 0.9746735692024231, -6.3674750328063965, -5.17858362197876, 19.663061141967773
17724, 1.8313153982162476, 0.14016665518283844, 13.346282005310059, 0.0013416659785434604, -0.017763273790478706, 0.0371822863817215, 0.020817521959543228, -0.09166824072599411, -0.02145245298743248, -2.9157111644744873, -3.642322063446045, 0.0846891775727272, 4.634250091757436, -0.016709688954165358, 106.12418833516777, 0, 0, 0, 0, 0, 0, 0, 0, 0.0003505305212456733, -0.0258363988250494, 0.9740691184997559, -9.011249542236328, -2.9273977279663086, 19.186189651489258
17734, 1.7296340465545654, 0.1854449063539505, 13.52169132232666, 0.0015527025097981095, -0.01869591511785984, 0.03695883974432945, 0.02140239253640175, -0.0948614552617073, -0.023231683298945427, -2.909846305847168, -3.639707565307617, 0.08677413314580917, 3.920189712667176, 3.2770004651982845, 106.07051752183428, 0, 0, 0, 0, 0, 0, 0, 0, -0.00451335683465004, -0.006075529847294092, 0.9976397156715393, -9.673352241516113, -3.189387559890747, 17.80337142944336
17744, 1.6206892728805542, 0.239104226231575, 13.687392234802246, 0.001769134309142828, -0.019659781828522682, 0.03671757131814957, 0.021895550191402435, -0.09791390597820282, -0.02501673623919487, -2.9103522300720215, -3.640214443206787, 0.09188805520534515, 3.9190403049928797, -1.382675561353608, 106.32810178260776, 0, 0, 0, 0, 0, 0, 0, 0, -0.006936705205589533, -0.018513672053813934, 0.9990593194961548, -9.84811782836914, -4.922549247741699, 16.750207901000977
17754, 1.4949567317962646, 0.28055697679519653, 13.849355697631836, 0.001989999320358038, -0.0206536166369915, 0.03646485507488251, 0.022286798804998398, -0.100853331387043, -0.025521256029605865, -2.903414487838745, -3.6385326385498047, 0.088359534740448, 3.76273274078274, 3.6102338995000878, 108.42031004289278, 0, 0, 0, 0, 0, 0, 0, 0, -0.01593133807182312, -0.031788699328899384, 1.0071988105773926, -12.255934715270996, -4.690469741821289, 16.153989791870117
17764, 1.365270733833313, 0.2953166663646698, 14.012002944946289, 0.002214162377640605, -0.021676119416952133, 0.03620964661240578, 0.02255384251475334, -0.10364698618650436, -0.025514138862490654, -2.9023828506469727, -3.6377484798431396, 0.08565587550401688, -4.253011856582368, -0.2826465698490779, 107.53343390880484, 0, 0, 0, 0, 0, 0, 0, 0, -0.01961596868932247, -0.018544722348451614, 1.006413221359253, -12.2393159866333, -1.8338491916656494, 16.222150802612305
17774, 1.2330386638641357, 0.2690156102180481, 14.179880142211914, 0.002440433017909527, -0.02272559329867363, 0.03595448657870293, 0.022707736119627953, -0.10624794661998749, -0.025512181222438812, -2.8956141471862793, -3.635059118270874, 0.08992507308721542, 3.643710509502398, 3.1334396975132677, 108.71036921726625, 0, 0, 0, 0, 0, 0, 0, 0, -0.013568122871220112, -0.0036692824214696884, 0.99929279088974, -11.550350189208984, 3.0720748901367188, 16.57705307006836
17784, 1.1093039512634277, 0.21204401552677155, 14.350770950317383, 0.002667888067662716, -0.023800034075975418, 0.03569963201880455, 0.022790279239416122, -0.10864053666591644, -0.02545309066772461, -2.8921191692352295, -3.632189989089966, 0.0881645530462265, 3.4666711699518804, -0.51161729826228, 107.33676132644746, 0, 0, 0, 0, 0, 0, 0, 0, -0.011528274975717068, -0.02203814499080181, 1.022822380065918, -12.774103164672852, 6.148143291473389, 16.858652114868164
17794, 1.0007271766662598, 0.10430029034614563, 14.517581939697266, 0.0028961526695638895, -0.0248974971473217, 0.03545680269598961, 0.022870179265737534, -0.1108471155166626, -0.02310747653245926, -2.8864598274230957, -3.629772424697876, 0.08927471935749054, 3.7680544643600706, -0.24041813023609393, 107.4976771568679, 0, 0, 0, 0, 0, 0, 0, 0, 0.0019181969109922647, -0.028561726212501526, 1.0150330066680908, -10.002079963684082, 12.352151870727539, 16.299610137939453
17804, 0.9072775840759277, -0.0255515705794096, 14.683104515075684, 0.0031254603527486324, -0.026015786454081535, 0.03523422032594681, 0.022999197244644165, -0.11280721426010132, -0.02140415832400322, -2.8833417892456055, -3.6283113956451416, 0.09206361323595047, 3.347546534996054, 3.0674411922946376, 107.36670015774368, 0, 0, 0, 0, 0, 0, 0, 0, -0.00927788857370615, -0.010699516162276268, 1.0212469100952148, -7.966492652893066, 12.535468101501465, 16.49147605895996
17814, 0.8374574780464172, -0.1525339037179947, 14.848108291625977, 0.003356758737936616, -0.0271525289863348, 0.03502894937992096, 0.02326844446361065, -0.11453742533922195, -0.0196459349244833, -2.8789594173431396, -3.6279726028442383, 0.0935254842042923, 4.0282046669106535, 3.1285529717912084, 109.60928361148217, 0, 0, 0, 0, 0, 0, 0, 0, -0.0071319397538900375, -0.018915031105279922, 1.014999270439148, -8.109461784362793, 11.959153175354004, 16.230724334716797
17824, 0.7912706732749939, -0.2551063299179077, 15.014129638671875, 0.0035916585475206375, -0.028305482119321823, 0.034840356558561325, 0.023718681186437607, -0.11604958772659302, -0.018070464953780174, -2.872584819793701, -3.623713731765747, 0.09368520975112915, 2.8844908669430267, -0.7619504091415479, 108.01954930400258, 0, 0, 0, 0, 0, 0, 0, 0, -0.009057906456291676, -0.02690790221095085, 1.054274082183838, -6.7619781494140625, 10.595457077026367, 16.286643981933594
17834, 0.7911861538887024, -0.3370991051197052, 15.17935562133789, 0.003832070156931877, -0.029472840949892998, 0.03467945381999016, 0.024373598396778107, -0.11741571873426437, -0.014108519069850445, -2.8733012676239014, -3.623913288116455, 0.10123402625322342, 6.31363994954144, 0.4472930612631103, 108.16113376158208, 0, 0, 0, 0, 0, 0, 0, 0, -0.0006267664139159024, -0.013888141140341759, 1.0606266260147095, 0.07251577079296112, 10.452102661132812, 16.45979881286621
17844, 0.8402654528617859, -0.37843674421310425, 15.341483116149902, 0.004079882986843586, -0.03065330535173416, 0.03456535190343857, 0.02520015649497509, -0.11867304146289825, -0.008711695671081543, -2.8635671138763428, -3.619769811630249, 0.09534133970737457, 4.046251955574915, -0.2547964266746874, 108.75164018162846, 0, 0, 0, 0, 0, 0, 0, 0, -0.0036673047579824924, -0.0070524378679692745, 1.0673052072525024, 5.850279331207275, 5.030768871307373, 15.925414085388184
17854, 0.9124215245246887, -0.3554219603538513, 15.499319076538086, 0.004336714278906584, -0.03184616193175316, 0.03450737148523331, 0.026175063103437424, -0.11989954859018326, -0.0028858231380581856, -2.860607862472534, -3.6183695793151855, 0.09574870020151138, 3.948637218853911, -0.27975340625923195, 108.97051811345472, 0, 0, 0, 0, 0, 0, 0, 0, -0.0019304781453683972, -0.024342186748981476, 1.0676270723342896, 5.4425835609436035, -2.3303744792938232, 15.517370223999023
17864, 0.9909204840660095, -0.3249761462211609, 15.661845207214355, 0.004603824578225613, -0.033051639795303345, 0.03451089933514595, 0.027250315994024277, -0.12120211869478226, 0.00358989997766912, -2.8557658195495605, -3.6168503761291504, 0.10237570106983185, 6.450391297628621, 3.2211423314531373, 110.49368444057565, 0, 0, 0, 0, 0, 0, 0, 0, -0.003044828539714217, -0.021042024716734886, 1.0516741275787354, 7.487802028656006, -2.4899449348449707, 16.311359405517578
17874, 1.087852120399475, -0.30249112844467163, 15.836831092834473, 0.004881653469055891, -0.03427078574895859, 0.03457670286297798, 0.02831871807575226, -0.12263328582048416, 0.009569301269948483, -2.848186492919922, -3.612725019454956, 0.09948146343231201, 3.7875737534159186, -0.5863457758379127, 109.58172755187037, 0, 0, 0, 0, 0, 0, 0, 0, 0.0011265670182183385, -0.011022699065506458, 1.0472854375839233, 11.207550048828125, -2.5973711013793945, 17.35566520690918
17884, 1.1676905155181885, -0.30198776721954346, 16.021455764770508, 0.005170026794075966, -0.03550485894083977, 0.03469381481409073, 0.029361126944422722, -0.12418670207262039, 0.01385074108839035, -2.8470988273620605, -3.6123554706573486, 0.10540653765201569, 2.7806749426284014, -0.9098540748435369, 109.80963834636111, 0, 0, 0, 0, 0, 0, 0, 0, -0.0025917678140103817, -0.005524761509150267, 1.0429778099060059, 6.560499668121338, -1.438157558441162, 18.29140853881836
17894, 1.2134225368499756, -0.32677221298217773, 16.217567443847656, 0.00546890776604414, -0.03675536811351776, 0.03485538810491562, 0.030422531068325043, -0.1259186565876007, 0.018461911007761955, -2.8384673595428467, -3.608222484588623, 0.10567166656255722, 2.687174667209067, 3.5580697085704287, 109.94453720016472, 0, 0, 0, 0, 0, 0, 0, 0, -0.004338050726801157, -0.017922475934028625, 1.0343698263168335, 4.616430282592773, 3.2638683319091797, 19.120149612426758
17904, 1.240037441253662, -0.3519022762775421, 16.427160263061523, 0.0057785967364907265, -0.038023822009563446, 0.035060539841651917, 0.031524430960416794, -0.1277720332145691, 0.022566968575119972, -2.8367390632629395, -3.6076090335845947, 0.1067386344075203, 2.9920390179101473, 1.8275152112638864, 110.9475526085218, 0, 0, 0, 0, 0, 0, 0, 0, -0.0016136792255565524, -0.025276293978095055, 1.055592656135559, 4.010240077972412, 4.2219929695129395, 20.916479110717773
17914, 1.228361964225769, -0.36997663974761963, 16.63736343383789, 0.006099669262766838, -0.039311133325099945, 0.03530729189515114, 0.03269956633448601, -0.12968803942203522, 0.0267824474722147, -2.828847646713257, -3.603818416595459, 0.10817483812570572, 2.6501192710823247, 1.7885453883087905, 110.44667178090212, 0, 0, 0, 0, 0, 0, 0, 0, -0.0011387265985831618, -0.020807549357414246, 1.0717405080795288, -1.6484969854354858, 2.043008804321289, 20.792402267456055
17924, 1.1932224035263062, -0.365923136472702, 16.84906578063965, 0.006432961206883192, -0.040617987513542175, 0.03560875356197357, 0.0339680090546608, -0.1316768079996109, 0.03351050615310669, -2.8264942169189453, -3.602936267852783, 0.1094956323504448, 3.1363288757189545, 0.05152438225508149, 111.04702891557507, 0, 0, 0, 0, 0, 0, 0, 0, -0.0030700229108333588, -0.007709268014878035, 1.0716595649719238, -3.418494701385498, 0.29918932914733887, 21.104408264160156
17934, 1.1507256031036377, -0.3693598508834839, 17.05957794189453, 0.006779082585126162, -0.04194452613592148, 0.03597593307495117, 0.03526221588253975, -0.13362333178520203, 0.039926834404468536, -2.819572925567627, -3.5997064113616943, 0.11149080842733383, 2.2301525648668217, 0.4980233210439451, 111.44302706464177, 0, 0, 0, 0, 0, 0, 0, 0, 0.0004896625177934766, 0.0022349862847477198, 1.0542885065078735, -4.6341166496276855, 1.912447452545166, 20.64746856689453
17944, 1.0671826601028442, -0.3405422270298004, 17.272686004638672, 0.007138043642044067, -0.04329019412398338, 0.03640642389655113, 0.03653622046113014, -0.13550199568271637, 0.04617336392402649, -2.8177669048309326, -3.5991172790527344, 0.11573009938001633, -0.7649983695195729, 1.5486965703352098, 112.17236006020696, 0, 0, 0, 0, 0, 0, 0, 0, 0.0002168955688830465, -0.0018242021324113011, 1.0561540126800537, -8.241398811340332, -2.7539420127868652, 21.14087677001953
17954, 0.9660289287567139, -0.312496155500412, 17.492948532104492, 0.007509657181799412, -0.04465419054031372, 0.03689618781208992, 0.037788499146699905, -0.1372867077589035, 0.0517827570438385, -2.816213607788086, -3.5981924533843994, 0.12275855988264084, 3.440917248838485, 0.7520564493367203, 111.8229439832455, 0, 0, 0, 0, 0, 0, 0, 0, -0.002719694981351495, -0.005621836520731449, 1.0783250331878662, -8.382099151611328, -2.038651466369629, 21.780073165893555
17964, 0.8208224177360535, -0.2723277807235718, 17.724979400634766, 0.007893413305282593, -0.04603544995188713, 0.037447378039360046, 0.03896300867199898, -0.13895183801651, 0.058459021151065826, -2.810490608215332, -3.5960326194763184, 0.11677860468626022, -0.15461063829397784, 3.7337791378570273, 112.69919554946003, 0, 0, 0, 0, 0, 0, 0, 0, -0.0027843511197715998, -0.0012962206965312362, 1.071418046951294, -14.388233184814453, -3.079364776611328, 23.23585319519043
17974, 0.6663106083869934, -0.1933600902557373, 17.95951271057129, 0.008288457058370113, -0.04743257910013199, 0.038068536669015884, 0.04004214331507683, -0.1404552012681961, 0.06577767431735992, -2.8053462505340576, -3.5936264991760254, 0.12613478302955627, 1.5635225787889504, -0.6377012720958533, 112.21771562410981, 0, 0, 0, 0, 0, 0, 0, 0, 0.001314862398430705, 0.010950728319585323, 1.0679243803024292, -14.865309715270996, -7.830559730529785, 23.284393310546875
17984, 0.5049483180046082, -0.09245670586824417, 18.19704246520996, 0.008693519979715347, -0.04884350299835205, 0.03875797614455223, 0.04096315801143646, -0.1417131870985031, 0.07211505621671677, -2.7995011806488037, -3.5907530784606934, 0.12153010815382004, 2.228633277044612, -0.13498233827192507, 112.4403678622315, 0, 0, 0, 0, 0, 0, 0, 0, -0.006831654347479343, 0.004547059535980225, 1.0753381252288818, -16.39744758605957, -9.247307777404785, 23.47446632385254
17994, 0.33023878931999207, 0.016491064801812172, 18.438034057617188, 0.009106730110943317, -0.05026591196656227, 0.03951510041952133, 0.04166598990559578, -0.1427515298128128, 0.07931429147720337, -2.79590106010437, -3.589158535003662, 0.1257825642824173, 1.0589517074110277, 4.198193871078615, 112.43060863626664, 0, 0, 0, 0, 0, 0, 0, 0, -0.0037847422063350677, -0.007481421809643507, 1.0748093128204346, -17.16033172607422, -10.460864067077637, 23.91092872619629
18004, 0.14975276589393616, 0.14258718490600586, 18.678386688232422, 0.00952565111219883, -0.05169757828116417, 0.04034531116485596, 0.04210245981812477, -0.1435641497373581, 0.08673083782196045, -2.79590106010437, -3.589158535003662, 0.1257825642824173, 1.0589517074110277, 4.198193871078615, 112.43060863626664, 0, 0, 0, 0, 0, 0, 0, 0, -0.000987012404948473, -0.0048648822121322155, 1.0696091651916504, -17.96487045288086, -12.698586463928223, 23.886882781982422
18014, -0.040923792868852615, 0.2609662413597107, 18.9169979095459, 0.009947492741048336, -0.053136151283979416, 0.041249144822359085, 0.04224718362092972, -0.14413399994373322, 0.09403812885284424, -2.7940568923950195, -3.588515043258667, 0.12835091352462769, 1.7700465646079688, 2.962325365576021, 113.42741339109801, 0, 0, 0, 0, 0, 0, 0, 0, -0.00409611314535141, -0.0008475861395709217, 1.0703765153884888, -18.17772102355957, -12.05314826965332, 24.029499053955078
18024, -0.21471501886844635, 0.3861808180809021, 19.152860641479492, 0.010369171388447285, -0.054579198360443115, 0.04222053661942482, 0.042072780430316925, -0.14446191489696503, 0.10024086385965347, -2.785797595977783, -3.5849251747131348, 0.13079339265823364, 1.9397537287373234, 2.1490376060634446, 112.97707124241379, 0, 0, 0, 0, 0, 0, 0, 0, -0.013822125270962715, -0.0007507684640586376, 1.0984828472137451, -17.345556259155273, -12.25070858001709, 23.451032638549805
18034, -0.39604178071022034, 0.49946630001068115, 19.38652801513672, 0.010787476785480976, -0.05602424591779709, 0.043265875428915024, 0.041563939303159714, -0.1445319652557373, 0.10882624983787537, -2.783968925476074, -3.5842676162719727, 0.13486522436141968, 1.7807949303260313, 2.73887376352792, 113.91756515606302, 0, 0, 0, 0, 0, 0, 0, 0, -0.013755181804299355, -0.012158810161054134, 1.0894954204559326, -18.52998161315918, -10.299881935119629, 23.4948787689209
18044, -0.5241299867630005, 0.6377582550048828, 19.620513916015625, 0.01119904313236475, -0.057468853890895844, 0.04439976438879967, 0.040723733603954315, -0.14437264204025269, 0.11794962733983994, -2.7806079387664795, -3.5829017162323, 0.1372608244419098, 1.6290149601954946, 2.633797666473953, 114.08719868507883, 0, 0, 0, 0, 0, 0, 0, 0, -0.008442041464149952, -0.022771373391151428, 1.0928765535354614, -11.831538200378418, -15.49195384979248, 23.103412628173828
18054, -0.6535819172859192, 0.7497797012329102, 19.848115921020508, 0.011600623838603497, -0.05891063064336777, 0.04562653601169586, 0.039563436061143875, -0.14397555589675903, 0.12740075588226318, -2.7766785621643066, -3.581468105316162, 0.13911999762058258, 1.0193976212538516, 3.7962648022735834, 114.42741824952165, 0, 0, 0, 0, 0, 0, 0, 0, -0.01116545032709837, -0.0070461705327034, 1.089556336402893, -14.707533836364746, -10.446796417236328, 22.65454864501953
18064, -0.7090250849723816, 0.8602930903434753, 20.073089599609375, 0.011989041231572628, -0.0603477880358696, 0.046942368149757385, 0.0380973294377327, -0.14345021545886993, 0.13576114177703857, -2.77266526222229, -3.5795068740844727, 0.1394304633140564, 1.7759619370092599, 0.22890850685428177, 113.81756301209948, 0, 0, 0, 0, 0, 0, 0, 0, -0.01798802614212036, -0.006052488461136818, 1.1061196327209473, -4.899727821350098, -13.186155319213867, 22.487483978271484
18074, -0.7656357884407043, 0.9407527446746826, 20.293107986450195, 0.012361275963485241, -0.06177889555692673, 0.04834944009780884, 0.0363263264298439, -0.14277614653110504, 0.14564910531044006, -2.7704148292541504, -3.5787832736968994, 0.14424042403697968, 1.1166800095679863, 2.3729392501337543, 114.55336470034872, 0, 0, 0, 0, 0, 0, 0, 0, -0.014138578437268734, -0.010622246190905571, 1.0770646333694458, -6.099675178527832, -7.140415191650391, 21.803171157836914
18084, -0.7783799767494202, 1.0069468021392822, 20.51641845703125, 0.012714754790067673, -0.06320320814847946, 0.04984859749674797, 0.034353118389844894, -0.14209045469760895, 0.15417881309986115, -2.7667083740234375, -3.578496217727661, 0.146227166056633, -0.07301917989382153, 3.4103334312485174, 115.70858770845506, 0, 0, 0, 0, 0, 0, 0, 0, -0.018816636875271797, -0.018539508804678917, 1.0819833278656006, -0.4583504796028137, -8.029781341552734, 22.10974884033203
18094, -0.8059901595115662, 1.030742883682251, 20.736209869384766, 0.01304763462394476, -0.0646204799413681, 0.05143146589398384, 0.032210733741521835, -0.14137382805347443, 0.16239246726036072, -2.7631709575653076, -3.5760443210601807, 0.1478477418422699, -1.3507340151324645, 2.8771631862939557, 114.95470247645149, 0, 0, 0, 0, 0, 0, 0, 0, -0.02167205698788166, -0.0002538943663239479, 1.0917410850524902, -3.0972092151641846, -1.7853997945785522, 21.892793655395508
18104, -0.8187528252601624, 1.0392489433288574, 20.95191764831543, 0.013358408585190773, -0.06603071093559265, 0.0530988983809948, 0.029936809092760086, -0.14067944884300232, 0.17109273374080658, -2.760298013687134, -3.5747933387756348, 0.15204693377017975, -0.09966343033528192, 2.05701822980501, 115.06129345422794, 0, 0, 0, 0, 0, 0, 0, 0, -0.01586531475186348, -0.005488589871674776, 1.096821904182434, 0.583928644657135, -2.736319065093994, 21.40721893310547
18114, -0.8803515434265137, 1.0181161165237427, 21.164270401000977, 0.013646065257489681, -0.06743385642766953, 0.05485635623335838, 0.027589982375502586, -0.13995862007141113, 0.180398628115654, -2.7530081272125244, -3.571747303009033, 0.15620237588882446, -2.7193223300425036, 1.9366872890449827, 115.12049337352424, 0, 0, 0, 0, 0, 0, 0, 0, -0.008990936912596226, -0.006592936348170042, 1.0755101442337036, -6.395936489105225, 1.4220175743103027, 21.16663932800293
18124, -0.9443555474281311, 0.9509688019752502, 21.375883102416992, 0.013910239562392235, -0.06882979720830917, 0.05670158192515373, 0.02524232119321823, -0.13922923803329468, 0.18864643573760986, -2.746615409851074, -3.569225549697876, 0.16171813011169434, -4.4206010413821115, 1.4684890888001974, 115.43976838314073, 0, 0, 0, 0, 0, 0, 0, 0, 0.0006042970926500857, -0.004286374431103468, 1.0662201642990112, -4.106847763061523, 5.224719047546387, 21.186521530151367
18134, -1.085326910018921, 0.8497368097305298, 21.581016540527344, 0.014151019044220448, -0.07021792232990265, 0.05862390995025635, 0.022916017100214958, -0.1383952796459198, 0.19582003355026245, -2.7431795597076416, -3.5677998065948486, 0.1637309491634369, -4.673681358804245, -0.8608296642723872, 115.42625629580301, 0, 0, 0, 0, 0, 0, 0, 0, -0.005313882138580084, -0.004423459526151419, 1.069259524345398, -13.954240798950195, 9.23709487915039, 20.342634201049805
18144, -1.2876887321472168, 0.7182987332344055, 21.786529541015625, 0.014368986710906029, -0.07159702479839325, 0.06061302125453949, 0.020679639652371407, -0.1374167501926422, 0.20200270414352417, -2.7372586727142334, -3.565605640411377, 0.16909077763557434, -6.82275078975009, -0.7581337714551637, 115.70421405897339, 0, 0, 0, 0, 0, 0, 0, 0, -0.01894216239452362, -0.007566123269498348, 1.085666298866272, -20.273090362548828, 12.452147483825684, 20.78034210205078
18154, -1.5899354219436646, 0.5421467423439026, 21.9915828704834, 0.014564838260412216, -0.07296478003263474, 0.06266971677541733, 0.018493566662073135, -0.13611409068107605, 0.209336057305336, -2.734236717224121, -3.5642714500427246, 0.17212240397930145, -7.759063325942191, -0.6623702146290782, 115.81797759936079, 0, 0, 0, 0, 0, 0, 0, 0, -0.023069286718964577, -0.021724969148635864, 1.0785890817642212, -29.11895179748535, 16.673870086669922, 21.04109764099121
18164, -2.0506527423858643, 0.3543858528137207, 22.188400268554688, 0.014739129692316055, -0.07431728392839432, 0.06480516493320465, 0.0163680762052536, -0.13434651494026184, 0.2177494466304779, -2.734236717224121, -3.5642714500427246, 0.17212240397930145, -7.759063325942191, -0.6623702146290782, 115.81797759936079, 0, 0, 0, 0, 0, 0, 0, 0, -0.003742662025615573, -0.0174501184374094, 1.0639958381652832, -46.00114822387695, 17.90387725830078, 20.033767700195312
18174, -2.6601438522338867, 0.12785634398460388, 22.382328033447266, 0.014892748557031155, -0.07564909756183624, 0.0670170783996582, 0.014351114630699158, -0.13196933269500732, 0.2246212214231491, -2.7320010662078857, -3.5633466243743896, 0.17680180072784424, -7.506867501525578, 0.4480282004118976, 115.99889734265301, 0, 0, 0, 0, 0, 0, 0, 0, -0.008075471967458725, -0.000844951078761369, 1.0671935081481934, -58.85551834106445, 22.077392578125, 20.175769805908203
18184, -3.535444974899292, -0.12579770386219025, 22.58544921875, 0.015026194974780083, -0.07695267349481583, 0.06929564476013184, 0.012329492717981339, -0.12868912518024445, 0.23106889426708221, -2.7262842655181885, -3.5611536502838135, 0.18112938106060028, -10.626706780372297, -0.12861540507913105, 116.27207138068107, 0, 0, 0, 0, 0, 0, 0, 0, -0.01852235198020935, -0.013339345343410969, 1.0721826553344727, -77.86414337158203, 22.750499725341797, 19.4626522064209
18194, -4.484712600708008, -0.3558101952075958, 22.761634826660156, 0.015149246901273727, -0.07834145426750183, 0.07188030332326889, 0.010020886547863483, -0.12371786683797836, 0.23881681263446808, -2.724536180496216, -3.5604310035705566, 0.18565712869167328, -9.167266606873378, 1.670684139101695, 116.47590616044891, 0, 0, 0, 0, 0, 0, 0, 0, -0.008527282625436783, -0.015389670617878437, 1.0612964630126953, -92.47001647949219, 22.038667678833008, 19.099515914916992
18204, -5.597786903381348, -0.5555214881896973, 22.932077407836914, 0.015238126739859581, -0.0795484110713005, 0.07430002093315125, 0.007728259544819593, -0.11759252101182938, 0.24505333602428436, -2.724536180496216, -3.5604310035705566, 0.18565712869167328, -9.167266606873378, 1.670684139101695, 116.47590616044891, 0, 0, 0, 0, 0, 0, 0, 0, 0.002747638849541545, -0.012719040736556053, 1.048160433769226, -109.46302032470703, 19.116458892822266, 18.744049072265625
18214, -6.808743953704834, -0.6981799602508545, 23.094152450561523, 0.015302743762731552, -0.08068589121103287, 0.0767744928598404, 0.005162909626960754, -0.10984151810407639, 0.2497289776802063, -2.7221627235412598, -3.5594899654388428, 0.1886562556028366, -9.466691362118823, 1.8532103121250714, 116.60330516330114, 0, 0, 0, 0, 0, 0, 0, 0, 0.0035843111108988523, -0.0014581766445189714, 1.0574965476989746, -118.68061065673828, 14.348115921020508, 18.06591033935547
18224, -8.091425895690918, -0.7841801643371582, 23.249574661254883, 0.015339294448494911, -0.08173584192991257, 0.07929658144712448, 0.0021029093768447638, -0.10007981956005096, 0.25452813506126404, -2.7203032970428467, -3.558779716491699, 0.19226546585559845, -9.535246015338455, -0.05841131373256303, 116.59111591025531, 0, 0, 0, 0, 0, 0, 0, 0, -6.092307376093231e-05, -0.00787105318158865, 1.076750636100769, -127.50912475585938, 8.837443351745605, 16.702409744262695
18234, -9.37796688079834, -0.7879891991615295, 23.40199089050293, 0.01534175779670477, -0.08267690986394882, 0.08187247812747955, -0.0016749328933656216, -0.08803800493478775, 0.2604324519634247, -2.719086170196533, -3.558494806289673, 0.19764935970306396, -11.582932419952936, 8.903707408415727, 117.5719462556979, 0, 0, 0, 0, 0, 0, 0, 0, -0.007300609722733498, 0.0017027624417096376, 1.076493501663208, -130.10287475585938, -0.7011479735374451, 15.334236145019531
18244, -10.638035774230957, -0.7094950675964355, 23.568622589111328, 0.015302284620702267, -0.08348630368709564, 0.08450810611248016, -0.006300186272710562, -0.07374351471662521, 0.266422837972641, -2.7155182361602783, -3.55720853805542, 0.1959640234708786, -10.943566432021816, 2.0483936822686815, 117.04402294617721, 0, 0, 0, 0, 0, 0, 0, 0, -0.0029316425789147615, -0.0022048484534025192, 1.0727441310882568, -128.0233154296875, -7.131948947906494, 14.438936233520508
18254, -11.7716064453125, -0.5341131091117859, 23.766206741333008, 0.015211787074804306, -0.08414223790168762, 0.08720081299543381, -0.011891837231814861, -0.05736122280359268, 0.271806538105011, -2.7142488956451416, -3.5567433834075928, 0.20077744126319885, -8.966692585547275, 3.3014335175969336, 117.23806755613364, 0, 0, 0, 0, 0, 0, 0, 0, 0.0008348461706191301, 0.0014005511766299605, 1.0756760835647583, -117.85161590576172, -19.1325740814209, 15.649230003356934
18264, -12.699758529663086, -0.2684791684150696, 23.997716903686523, 0.01505990605801344, -0.0846242755651474, 0.08994536101818085, -0.01859394460916519, -0.03898637369275093, 0.2767753601074219, -2.7126047611236572, -3.5563690662384033, 0.2033698707818985, -10.587627052625995, 4.9669799920203275, 117.5663710991876, 0, 0, 0, 0, 0, 0, 0, 0, -0.009342940524220467, 0.0255760308355093, 1.0868865251541138, -99.55282592773438, -28.370153427124023, 17.040664672851562
18274, -13.39255428314209, 0.11598488688468933, 24.266340255737305, 0.014834762550890446, -0.08491308987140656, 0.0927421823143959, -0.026571135967969894, -0.0187322199344635, 0.2822801172733307, -2.7105391025543213, -3.5559535026550293, 0.2052704095840454, -8.730719185937213, 3.579233663854666, 117.59916304869667, 0, 0, 0, 0, 0, 0, 0, 0, -0.0045092846266925335, -0.0005319069605320692, 1.0869877338409424, -76.94155883789062, -40.728031158447266, 17.003854751586914
18284, -13.720649719238281, 0.5989215970039368, 24.566946029663086, 0.014523722231388092, -0.08499260991811752, 0.09559328854084015, -0.03579527884721756, 0.002838276093825698, 0.28768739104270935, -2.7090437412261963, -3.555577516555786, 0.2086825668811798, -7.499274427280454, 3.4334139238686134, 117.72930679977168, 0, 0, 0, 0, 0, 0, 0, 0, -0.00620180182158947, 0.008577115833759308, 1.0876715183258057, -41.46567916870117, -52.09403991699219, 17.917024612426758
18294, -13.724907875061035, 1.1641478538513184, 24.88713836669922, 0.014114324003458023, -0.08485265076160431, 0.09849567711353302, -0.0462522991001606, 0.025116214528679848, 0.2926631271839142, -2.7076022624969482, -3.5553348064422607, 0.21189144253730774, -6.546642944997836, 3.664729847324793, 117.97122621940935, 0, 0, 0, 0, 0, 0, 0, 0, -0.004094036296010017, 0.004348940681666136, 1.0665695667266846, -8.74182415008545, -60.90693664550781, 17.59990692138672
18304, -13.419527053833008, 1.7632241249084473, 25.209646224975586, 0.013594957999885082, -0.08449001610279083, 0.1014438048005104, -0.0577893890440464, 0.04733622446656227, 0.296965628862381, -2.7063064575195312, -3.555194616317749, 0.2153080403804779, -5.502949040512946, 3.7656083890837806, 118.0924824510003, 0, 0, 0, 0, 0, 0, 0, 0, -0.014420805498957634, 0.025206154212355614, 1.0437759160995483, 23.990819931030273, -65.06128692626953, 17.518144607543945
18314, -12.781901359558105, 2.357639789581299, 25.513975143432617, 0.012956435792148113, -0.08391011506319046, 0.10442303866147995, -0.07006075978279114, 0.06856278330087662, 0.299013614654541, -2.705022096633911, -3.5552151203155518, 0.218660369515419, -4.120123036816584, 3.3996132789671663, 118.1905479145834, 0, 0, 0, 0, 0, 0, 0, 0, -0.010790049098432064, -0.003293942427262664, 1.0501940250396729, 57.61602783203125, -65.42436981201172, 16.01811981201172
18324, -11.914911270141602, 2.889676332473755, 25.78362464904785, 0.012190756388008595, -0.08312257379293442, 0.10742506384849548, -0.08321484923362732, 0.08884426206350327, 0.3016645014286041, -2.7036638259887695, -3.555234432220459, 0.22192752361297607, -3.1834774903484044, 3.787464483951055, 118.45197067193496, 0, 0, 0, 0, 0, 0, 0, 0, -0.010630889795720577, 0.0160029586404562, 1.0398194789886475, 83.10811614990234, -59.13098907470703, 15.222492218017578
18334, -10.810566902160645, 3.3295578956604004, 26.01089859008789, 0.01129188947379589, -0.08214159309864044, 0.11044558137655258, -0.09667439758777618, 0.10727739334106445, 0.3027929365634918, -2.703019618988037, -3.5558247566223145, 0.22575531899929047, -3.9892047768051695, 5.388566116385988, 118.93346446522, 0, 0, 0, 0, 0, 0, 0, 0, -0.0265542920678854, -0.005655811168253422, 1.0737218856811523, 106.73600006103516, -52.443904876708984, 13.913187980651855
18344, -9.590989112854004, 3.6250321865081787, 26.190780639648438, 0.010255107656121254, -0.080983005464077, 0.1134929284453392, -0.11078009009361267, 0.12430857121944427, 0.3071210980415344, -2.701738119125366, -3.5556747913360596, 0.22991620004177094, -2.2195420730554294, 4.737395060405305, 118.85005424896771, 0, 0, 0, 0, 0, 0, 0, 0, -0.020890727639198303, -0.002320587867870927, 1.030083417892456, 120.11737823486328, -34.729347229003906, 12.789072036743164
18354, -8.276749610900879, 3.7718632221221924, 26.324617385864258, 0.009079552255570889, -0.07966707646846771, 0.11657122522592545, -0.12441080063581467, 0.13881298899650574, 0.3089912533760071, -2.700545310974121, -3.5557861328125, 0.23341986536979675, -1.3772712917635193, 3.721471518926535, 118.93430447418905, 0, 0, 0, 0, 0, 0, 0, 0, -0.011095462366938591, -0.030740564689040184, 1.0518834590911865, 130.96627807617188, -22.690196990966797, 11.01347541809082
18364, -6.94036340713501, 3.7227001190185547, 26.420560836791992, 0.0077690258622169495, -0.07821636646986008, 0.11967542767524719, -0.13774710893630981, 0.15125003457069397, 0.31230849027633667, -2.698878049850464, -3.5558714866638184, 0.23603200912475586, 0.12911875803013986, 1.4657891192634906, 118.82808917581222, 0, 0, 0, 0, 0, 0, 0, 0, -0.01790018565952778, -0.016340918838977814, 1.0500470399856567, 135.53445434570312, -1.3382116556167603, 10.273845672607422
18374, -5.674720764160156, 3.4708118438720703, 26.487184524536133, 0.00632853340357542, -0.07665220648050308, 0.12281731516122818, -0.150376558303833, 0.16150236129760742, 0.3165074288845062, -2.6978344917297363, -3.5562243461608887, 0.23912648856639862, 0.3186309080592984, 0.8623699704882313, 118.95831260920136, 0, 0, 0, 0, 0, 0, 0, 0, -0.021482905372977257, -0.037683360278606415, 1.0616166591644287, 130.9922332763672, 19.93260383605957, 9.894389152526855
18384, -4.473125457763672, 3.030216693878174, 26.53408432006836, 0.004766999743878841, -0.0749959722161293, 0.1260051727294922, -0.1619272381067276, 0.16966967284679413, 0.32144924998283386, -2.6970696449279785, -3.5561962127685547, 0.24587276577949524, -1.8569022620958242, 1.6319176217673999, 119.14956833010042, 0, 0, 0, 0, 0, 0, 0, 0, -0.009236442856490612, -0.03425609692931175, 1.0336569547653198, 122.42095184326172, 39.19793701171875, 8.563640594482422
18394, -3.4153544902801514, 2.4259119033813477, 26.57819366455078, 0.003097581211477518, -0.07326774299144745, 0.1292373090982437, -0.17195650935173035, 0.17593394219875336, 0.3253180682659149, -2.695739984512329, -3.5566320419311523, 0.2476690411567688, 0.8724977643132334, 0.8807862613590771, 119.28888214708067, 0, 0, 0, 0, 0, 0, 0, 0, -0.008440897800028324, -0.02975120022892952, 1.0225425958633423, 110.91219329833984, 55.64107894897461, 8.29866886138916
18404, -2.5109305381774902, 1.6780214309692383, 26.628385543823242, 0.0013368148356676102, -0.07148516923189163, 0.13250026106834412, -0.18021583557128906, 0.1805676519870758, 0.3275468349456787, -2.695784330368042, -3.5575339794158936, 0.25405019521713257, 1.3359464522279674, -1.7690186249204203, 119.12337557282737, 0, 0, 0, 0, 0, 0, 0, 0, -0.020330097526311874, -0.036809228360652924, 1.043165683746338, 94.1375732421875, 72.05742645263672, 8.907689094543457
18414, -1.7740528583526611, 0.8299077749252319, 26.692852020263672, -0.0004981897072866559, -0.06966197490692139, 0.1357935667037964, -0.18676868081092834, 0.1840476244688034, 0.3313347101211548, -2.693742036819458, -3.5571224689483643, 0.2561819553375244, -0.5120750420326842, -1.1463336990392747, 119.46563253254574, 0, 0, 0, 0, 0, 0, 0, 0, 0.00042204317287541926, -0.03127975016832352, 1.0124744176864624, 78.73443603515625, 83.75811004638672, 9.310249328613281
