timeTick, roll, pitch, yaw, stateX, stateY, stateZ, stateVX, stateVY, stateVZ, otX0, otY0, otZ0, otRoll0, otPitch0, otYaw0, cmdThrust, cmdRoll, cmdPitch, cmdYaw, actThrust, rRoll, rPitch, rYaw, accx, accy, accz, gyrox, gyroy, gyroz
22298, -0.00025335498503409326, 0.0006867407937534153, -0.0014446378918364644, 0, 0, 0, 0, 0, 0, -2.770739793777466, -3.5446882247924805, 0.012607097625732422, 3.806924935899519, 0.33255274944349367, 87.84061291619209, 0, 0, 0, 0, 0, 0, 0, 0, 0, 0, 0, 0, 0, 0
22308, -0.0007798677543178201, 0.00036368067958392203, -0.0025354044046252966, 0, 0, 0, 0, 0, 0, -2.77070951461792, -3.544682741165161, 0.012609409168362617, 3.807505559146349, 0.39574464586397085, 87.83296213914456, 0, 0, 0, 0, 0, 0, 0, 0, 0, 0, 0, 0, 0, 0
22318, -0.0007668947800993919, 0.0011865840060636401, -0.0026881000958383083, 0, 0, 0, 0, 0, 0, -2.770754098892212, -3.5446910858154297, 0.012588203884661198, 3.8224975965180192, 0.4031266879050577, 87.84173765336708, 0, 0, 0, 0, 0, 0, 0, 0, 0, 0, 0, 0, 0, 0
22328, -5.5103546401369385e-06, 0.00011589367204578593, 0.00016575379413552582, -1.8025253893938498e-06, -9.494133337284438e-07, -6.007030606269836e-08, -0.0007210076437331736, -0.00037976668681949377, -2.4029199266806245e-05, -2.7707204818725586, -3.5446815490722656, 0.012585434131324291, 3.694254265360801, 0.333284795182351, 87.81951955970449, 0, 0, 0, 0, 0, 0, 0, 0, 0, 0, 0, 0, 0, 0
22338, -0.00016882398631423712, -0.001017542788758874, -0.0002718598407227546, -1.606914884177968e-05, -8.76498506841017e-06, 1.5139812603592873e-07, -0.002132321475073695, -0.0011833363678306341, 6.674234464298934e-05, -2.770726442337036, -3.5446887016296387, 0.012575545348227024, 3.816686879695336, 0.33945976119827037, 87.83016402422071, 0, 0, 0, 0, 0, 0, 0, 0, -0.013845558278262615, -0.00898686982691288, 1.002227544784546, 0, 0, 0
22348, -0.0007095173350535333, -0.0001009794941637665, -0.0009534837445244193, -4.4421009079087526e-05, -2.5283003196818754e-05, 2.0794104784727097e-06, -0.003538066055625677, -0.0021202482748776674, 0.0003192549047525972, -2.770716905593872, -3.5447022914886475, 0.012577126733958721, 3.7681938412312093, 0.32515299149579846, 87.82192510718787, 0, 0, 0, 0, 0, 0, 0, 0, -0.015184449963271618, -0.010463451966643333, 1.001220941543579, 0, 0, 0
22358, -0.0009564412175677717, -0.0002919276594184339, -6.86694766045548e-05, -8.719602919882163e-05, -5.1667415391420946e-05, 5.7480065152049065e-06, -0.00501692108809948, -0.0031566566321998835, 0.0004148762673139572, -2.770711660385132, -3.544672727584839, 0.012594962492585182, 3.735831091526819, 0.4086858830278288, 87.82911593980118, 0, 0, 0, 0, 0, 0, 0, 0, -0.01522546261548996, -0.010548396967351437, 1.0008822679519653, 0.0865149199962616, -0.01162460446357727, 0.11809884756803513
22368, -0.0026078899390995502, -0.0007244828739203513, -0.0001193979915115051, -0.00014498474774882197, -8.809314749669284e-05, 1.0390591342002153e-05, -0.006540820933878422, -0.004128485918045044, 0.0005140774301253259, -2.7707393169403076, -3.5446815490722656, 0.01256151869893074, 3.7783360271398303, 0.40092123617475295, 87.82181297244702, 0, 0, 0, 0, 0, 0, 0, 0, -0.016314435750246048, -0.009273816831409931, 1.001861333847046, -0.2246822863817215, 0.04224836453795433, -0.032063405960798264
22378, -0.0029968225862830877, -0.0022688177414238453, -0.00011011613241862506, -0.00021835448569618165, -0.0001341335300821811, 1.6406644135713577e-05, -0.008133120834827423, -0.005079592112451792, 0.0006895636324770749, -2.770716428756714, -3.544672966003418, 0.012539530172944069, 3.7506022588133745, 0.3819406978597897, 87.83964821639661, 0, 0, 0, 0, 0, 0, 0, 0, -0.014692431315779686, -0.009610177017748356, 1.001866340637207, -0.09423767775297165, 0.2568826675415039, 0.03351745381951332
22388, -0.0038205201271921396, -0.0035667759366333485, 0.0005466379807330668, -0.0003064652846660465, -0.0001899584021884948, 2.429058076813817e-05, -0.009489024057984352, -0.006085393950343132, 0.0008876672363840044, -2.768378734588623, -3.5439047813415527, 0.008068910799920559, 3.1218016102996375, 2.72005431344553, 88.12124451801432, 0, 0, 0, 0, 0, 0, 0, 0, -0.013176658190786839, -0.011094378307461739, 1.0023263692855835, -0.06270547956228256, 0.24547599256038666, -0.01326681487262249
22398, -0.0036599761806428432, -0.002299810526892543, 0.0013973466120660305, -0.00040812385850585997, -0.000255830236710608, 3.384659066796303e-05, -0.010842680931091309, -0.0070889913477003574, 0.0010239038383588195, -2.7713937759399414, -3.5447142124176025, 0.014892816543579102, 3.2022735077488003, -2.1631312561900415, 87.57664083097161, 0, 0, 0, 0, 0, 0, 0, 0, -0.015544810332357883, -0.010219830088317394, 1.0001286268234253, 0.09229755401611328, -0.1350260227918625, 0.04528344050049782
22408, -0.003999034408479929, -0.001973210135474801, 5.191122181713581e-05, -0.0005241935723461211, -0.0003323864657431841, 4.4481304939836264e-05, -0.012371290475130081, -0.008222214877605438, 0.0011034361086785793, -2.768416404724121, -3.5438735485076904, 0.00812026672065258, 3.163322336441665, 2.6239548462071696, 88.10757883186585, 0, 0, 0, 0, 0, 0, 0, 0, -0.014835032634437084, -0.011719338595867157, 1.0009281635284424, 0.015438087284564972, 0.10198843479156494, -0.1322941780090332
22418, -0.0036731199361383915, -0.0019441600888967514, -0.0002869893505703658, -0.0006555915460921824, -0.0004196002264507115, 5.5870681535452604e-05, -0.013908308930695057, -0.009220526553690434, 0.00117484200745821, -2.770725727081299, -3.5446994304656982, 0.012547149322926998, 3.737359976075644, 0.3640243044765157, 87.80956107078498, 0, 0, 0, 0, 0, 0, 0, 0, -0.017131850123405457, -0.010260581970214844, 1.0000662803649902, 0.10455209016799927, 0.1415269672870636, 0.03803033381700516
22428, -0.004801095928996801, -0.003020952921360731, -0.0005745727103203535, -0.0008028807933442295, -0.0005173507379367948, 6.744894199073315e-05, -0.015549550764262676, -0.010329564101994038, 0.0011412642197683454, -2.7707297801971436, -3.5446815490722656, 0.012591147795319557, 3.6920773230885144, 0.30923975525482206, 87.81969286258825, 0, 0, 0, 0, 0, 0, 0, 0, -0.015623962506651878, -0.011469561606645584, 0.9997422695159912, -0.17588452994823456, 0.1775057315826416, 0.026368562132120132
22438, -0.0049629248678684235, -0.0028012122493237257, -0.0008154044626280665, -0.0009660273208282888, -0.0006264524417929351, 7.900851778686047e-05, -0.017079759389162064, -0.011490767821669579, 0.0011710479157045484, -2.770707130432129, -3.544689178466797, 0.012618313543498516, 3.749525910826819, 0.374886942231484, 87.83478468876486, 0, 0, 0, 0, 0, 0, 0, 0, -0.01679540053009987, -0.011607366614043713, 1.000966191291809, 0.02462460845708847, -0.02131274901330471, -0.0007260238635353744
22448, -0.006925559602677822, -0.004537184722721577, -0.000934879994019866, -0.0011452920734882355, -0.0007467439281754196, 9.137473534792662e-05, -0.018773186951875687, -0.01256752572953701, 0.0013026937376707792, -2.770704746246338, -3.5446956157684326, 0.01255054585635662, 3.805032994448899, 0.4124741062279611, 87.84264469014593, 0, 0, 0, 0, 0, 0, 0, 0, -0.016814159229397774, -0.010810303501784801, 1.0017623901367188, -0.2616322934627533, 0.2894350290298462, 0.0516415573656559
22458, -0.006828548386693001, -0.003667684970423579, -0.00040137182804755867, -0.0013410465326160192, -0.0008778841583989561, 0.00010485277744010091, -0.02037770114839077, -0.01366053894162178, 0.001393284648656845, -2.7707231044769287, -3.544699192047119, 0.01256533432751894, 3.8541481159375004, 0.41609201867126444, 87.84007970168737, 0, 0, 0, 0, 0, 0, 0, 0, -0.016030753031373024, -0.012408969923853874, 1.0006587505340576, 0.11208856850862503, -0.0391845777630806, 0.18547981977462769
22468, -0.008223840966820717, -0.0042162793688476086, -0.0014087918680161238, -0.0015524033224210143, -0.0010206281440332532, 0.00011893577175214887, -0.021893683820962906, -0.01488824188709259, 0.0014237485593184829, -2.770730972290039, -3.544691801071167, 0.012607837095856667, 3.7322616134402873, 0.304027516051832, 87.81359932553933, 0, 0, 0, 0, 0, 0, 0, 0, -0.01577739790081978, -0.011640077456831932, 0.9992240071296692, -0.15672096610069275, 0.11442866921424866, -0.033311862498521805
22478, -0.008658945560455322, -0.004926200490444899, -0.0007847826345823705, -0.0017791594145819545, -0.001174574252218008, 0.00013294030213728547, -0.023457515984773636, -0.0159009899944067, 0.0013775648549199104, -2.7707152366638184, -3.5447044372558594, 0.012532750144600868, 3.729421707806414, 0.3372814424712942, 87.8258245610052, 0, 0, 0, 0, 0, 0, 0, 0, -0.015613485127687454, -0.009605363942682743, 1.0004955530166626, 0.03115025907754898, 0.0704030841588974, 0.0724930390715599
22488, -0.009283961728215218, -0.004743393510580063, 0.00033528063795529306, -0.0020215522963553667, -0.0013386528007686138, 0.00014695938443765044, -0.02502102591097355, -0.016914762556552887, 0.0014266502112150192, -2.7707080841064453, -3.544685125350952, 0.012558333575725555, 3.7074466224408713, 0.34012558735625475, 87.83918529302402, 0, 0, 0, 0, 0, 0, 0, 0, -0.016029998660087585, -0.01097196713089943, 1.0006332397460938, -0.2081371545791626, 0.029971133917570114, 0.0015692046144977212
22498, -0.009434940293431282, -0.0017287546070292592, 0.0006680957158096135, -0.0022793884854763746, -0.0015133196720853448, 0.00016167201101779938, -0.026546211913228035, -0.018018625676631927, 0.0015161939663812518, -2.7707369327545166, -3.5447030067443848, 0.012601026333868504, 3.794331335624968, 0.37421790442851943, 87.82373101002217, 0, 0, 0, 0, 0, 0, 0, 0, -0.014534909278154373, -0.011453966610133648, 1.0005375146865845, -0.018483756110072136, -0.4039749205112457, 0.018916714936494827
22508, -0.009071087464690208, -0.0018875089008361101, -0.00041111739119514823, -0.002551731187850237, -0.0016989719588309526, 0.00017700105672702193, -0.027922334149479866, -0.019111817702651024, 0.001550006098113954, -2.7707109451293945, -3.5446908473968506, 0.012612477876245975, 3.7432450160581134, 0.3589424511254151, 87.83180717575947, 0, 0, 0, 0, 0, 0, 0, 0, -0.013843577355146408, -0.010948233306407928, 0.9989444613456726, 0.12319549918174744, -0.01414116844534874, -0.25168368220329285
22518, -0.00910620391368866, -0.001740184728987515, -0.000342597282724455, -0.0028378539718687534, -0.0018950070952996612, 0.00019223353592678905, -0.02930220030248165, -0.020095208659768105, 0.0014968611067160964, -2.770717144012451, -3.5446794033050537, 0.012578901834785938, 3.8036450017690493, 0.3904491350087369, 87.8302866650915, 0, 0, 0, 0, 0, 0, 0, 0, -0.01427606400102377, -0.008842986077070236, 0.999801516532898, -0.047030989080667496, 0.0041167885065078735, -0.13732530176639557
22528, -0.009673806838691235, -0.0030221797060221434, -0.0002750481362454593, -0.0031378259882330894, -0.0021004253067076206, 0.0002068450557999313, -0.030692223459482193, -0.020988430827856064, 0.001425869413651526, -2.7707183361053467, -3.5446970462799072, 0.01255518477410078, 3.7953682390479035, 0.40048641158929854, 87.82427856263465, 0, 0, 0, 0, 0, 0, 0, 0, -0.014566808007657528, -0.010948550887405872, 0.9993090629577637, -0.1497478038072586, 0.17736320197582245, 0.008237847127020359
22538, -0.009508613497018814, -0.0014730104012414813, -0.00025021491455845535, -0.003451806725934148, -0.002316369442269206, 0.0002208305522799492, -0.03210394084453583, -0.02220040000975132, 0.001371580408886075, -2.771369695663452, -3.5447089672088623, 0.014934292063117027, 3.202052661259687, -2.0931937262567715, 87.58207853430218, 0, 0, 0, 0, 0, 0, 0, 0, -0.01401382964104414, -0.014460442587733269, 0.9991655349731445, 0.03806477040052414, -0.15272316336631775, 0.037716809660196304
22548, -0.008697493001818657, -0.0009780200198292732, -0.001766502158716321, -0.003779592225328088, -0.0025451581459492445, 0.00023396697361022234, -0.03345320001244545, -0.023557309061288834, 0.001256069983355701, -2.7707114219665527, -3.5446901321411133, 0.012588310055434704, 3.6660169822599764, 0.2968729411738025, 87.83317696654603, 0, 0, 0, 0, 0, 0, 0, 0, -0.014107247814536095, -0.01217588596045971, 0.999076783657074, 0.02910240925848484, -0.10471876710653305, -0.25001776218414307
22558, -0.00987449660897255, -0.002296488732099533, -0.002033946802839637, -0.004121195990592241, -0.002786509692668915, 0.0002464576391503215, -0.0348675362765789, -0.024712981656193733, 0.0012425101594999433, -2.77072811126709, -3.5446853637695312, 0.012562802992761135, 3.8657947983794854, 0.43394832890888324, 87.83086086808083, 0, 0, 0, 0, 0, 0, 0, 0, -0.014263882301747799, -0.012056516483426094, 1.0004228353500366, -0.20920085906982422, 0.08510138839483261, -0.07736881077289581
22568, -0.009482402354478836, -0.0024784186389297247, -0.002302928129211068, -0.0044768922962248325, -0.00303932698443532, 0.00025883695343509316, -0.03627176955342293, -0.025850467383861542, 0.0012337444350123405, -2.7683777809143066, -3.543894052505493, 0.008002503775060177, 3.094772559733603, 2.6554985625610925, 88.1061209511807, 0, 0, 0, 0, 0, 0, 0, 0, -0.014118814840912819, -0.011239377781748772, 1.0000637769699097, 0.09963221848011017, 0.03155664727091789, -0.06659779697656631
22578, -0.009121490642428398, -0.0031111298594623804, -0.001205806853249669, -0.004846271593123674, -0.003303088480606675, 0.00027117697754874825, -0.037604086101055145, -0.02690187282860279, 0.001234658993780613, -2.7683846950531006, -3.5438849925994873, 0.008057952858507633, 3.1187733595433076, 2.6649904390233417, 88.10835679709896, 0, 0, 0, 0, 0, 0, 0, 0, -0.01377861201763153, -0.01185714453458786, 0.9986638426780701, 0.05586604028940201, 0.10545593500137329, 0.003895167028531432
22588, -0.00927052740007639, -0.002672417089343071, -0.0022348081693053246, -0.005229318048804998, -0.0035779327154159546, 0.00028266769368201494, -0.03900526463985443, -0.028066949918866158, 0.0010638526873663068, -2.7683866024017334, -3.5438859462738037, 0.00799013115465641, 3.0919324229358542, 2.654504711910789, 88.10464760766784, 0, 0, 0, 0, 0, 0, 0, 0, -0.013638586737215519, -0.011394294910132885, 0.9996597766876221, -0.040628962218761444, -0.1482832431793213, -0.29636913537979126
22598, -0.008754126727581024, -0.0032893121242523193, -0.0024457683321088552, -0.005626270547509193, -0.003863867372274399, 0.00029358791653066874, -0.04038526490330696, -0.02911999821662903, 0.0011205823393538594, -2.7707040309906006, -3.5446887016296387, 0.01261069718748331, 3.731377932947277, 0.3288538006495685, 87.80716495282678, 0, 0, 0, 0, 0, 0, 0, 0, -0.015501703135669231, -0.010459928773343563, 1.000293493270874, 0.09211932122707367, 0.059303853660821915, 0.05214068666100502
22608, -0.009016415104269981, -0.002471625106409192, -0.003733809106051922, -0.006037919316440821, -0.00416026683524251, 0.00030443386640399694, -0.04194449260830879, -0.030159831047058105, 0.0010489864507690072, -2.7706971168518066, -3.5446765422821045, 0.012549357488751411, 3.6904716528529002, 0.3802043621281541, 87.83121737982627, 0, 0, 0, 0, 0, 0, 0, 0, -0.016187461093068123, -0.011302737519145012, 0.9985870718955994, -0.07992840558290482, -0.14606603980064392, -0.10060065984725952
22618, -0.00902860052883625, -0.002406386425718665, -0.0028652548789978027, -0.006465237587690353, -0.004467321094125509, 0.0003142059431411326, -0.04351911321282387, -0.03125102445483208, 0.0009058064897544682, -2.771383047103882, -3.544721841812134, 0.014936638996005058, 3.247270832654019, -2.107026083577381, 87.58580175820539, 0, 0, 0, 0, 0, 0, 0, 0, -0.01645626686513424, -0.011008329689502716, 0.9991486668586731, 0.06227150559425354, -0.10524493455886841, 0.22613058984279633
22628, -0.009114905260503292, -0.0026699781883507967, -0.003517746925354004, -0.006908846087753773, -0.004784461576491594, 0.0003233679453842342, -0.045202553272247314, -0.03217703104019165, 0.0009269823785871267, -2.770726203918457, -3.5446910858154297, 0.012575294822454453, 3.7980645336304026, 0.40202840152085173, 87.81853747719167, 0, 0, 0, 0, 0, 0, 0, 0, -0.017163947224617004, -0.008432778529822826, 1.0025300979614258, 0.0437033586204052, -0.0013021331978961825, 0.017449788749217987
22638, -0.009323637001216412, -0.0015701018273830414, -0.0033238453324884176, -0.007368992082774639, -0.0051106116734445095, 0.0003333654021844268, -0.04682663083076477, -0.03305303677916527, 0.0010728728957474232, -2.7707016468048096, -3.5446834564208984, 0.012580218724906445, 3.7419443137112784, 0.41213493059890993, 87.84019820854691, 0, 0, 0, 0, 0, 0, 0, 0, -0.015366356819868088, -0.00918305292725563, 1.000014066696167, -0.023356299847364426, -0.20621706545352936, -0.08608364313840866
22648, -0.010236697271466255, -0.0018174045253545046, -0.003463983302935958, -0.007844873704016209, -0.005445312708616257, 0.0003442506422288716, -0.048349615186452866, -0.03388713672757149, 0.0011045822175219655, -2.7683701515197754, -3.5438952445983887, 0.008071244694292545, 3.133754041095417, 2.716822042699306, 88.11087448701946, 0, 0, 0, 0, 0, 0, 0, 0, -0.01655392162501812, -0.008845004253089428, 1.0004013776779175, -0.15520347654819489, 0.010129261761903763, -0.04010233283042908
22658, -0.00940614752471447, -0.0018978473963215947, -0.0032561428379267454, -0.008336503058671951, -0.0057890452444553375, 0.0003552866983227432, -0.049976177513599396, -0.03485937416553497, 0.0011030166642740369, -2.7707080841064453, -3.5446784496307373, 0.012531585991382599, 3.770675962471221, 0.359900027067539, 87.83250689801461, 0, 0, 0, 0, 0, 0, 0, 0, -0.015713704749941826, -0.011910255067050457, 0.9995115399360657, 0.15014681220054626, -0.047014228999614716, 0.05607232078909874
22668, -0.008042946457862854, -0.0016410991083830595, -0.0032423166558146477, -0.008843653835356236, -0.006143675185739994, 0.0003658462082967162, -0.05145391449332237, -0.03606664389371872, 0.001009219093248248, -2.7707319259643555, -3.544672966003418, 0.012527701444923878, 3.7302066151248745, 0.3895113484232695, 87.83821489157792, 0, 0, 0, 0, 0, 0, 0, 0, -0.014988621696829796, -0.011600956320762634, 0.9988585114479065, 0.08774304389953613, -0.04985285550355911, -0.03259752318263054
22678, -0.007958861067891121, -0.001926290220580995, -0.0029357161838561296, -0.009365902282297611, -0.006509691942483187, 0.0003760341787710786, -0.0529957115650177, -0.03713672235608101, 0.0010287710465490818, -2.770707845687866, -3.5446903705596924, 0.01258200965821743, 3.730645906260186, 0.32027810949483637, 87.81487852852405, 0, 0, 0, 0, 0, 0, 0, 0, -0.015474610030651093, -0.01119559071958065, 1.0012378692626953, -0.014149561524391174, 0.11206262558698654, -0.09128029644489288
22688, -0.008681471459567547, -0.001133144018240273, -0.0015556246507912874, -0.009903269819915295, -0.00688621262088418, 0.00038672692608088255, -0.054477788507938385, -0.03816748037934303, 0.0011101620038971305, -2.770725727081299, -3.5446739196777344, 0.012584790587425232, 3.75932570680465, 0.30530415349167583, 87.81661534241933, 0, 0, 0, 0, 0, 0, 0, 0, -0.01476126816123724, -0.009837187826633453, 1.0002485513687134, -0.043497223407030106, -0.06707876920700073, 0.20005576312541962
22698, -0.008059979416429996, -0.00038409692933782935, -0.0019586822018027306, -0.010455460287630558, -0.007272309623658657, 0.00039795367047190666, -0.05596039071679115, -0.039051953703165054, 0.001135556842200458, -2.7683913707733154, -3.5439209938049316, 0.008074956014752388, 3.1268143841623277, 2.7685616522278735, 88.11818556760362, 0, 0, 0, 0, 0, 0, 0, 0, -0.015998102724552155, -0.008815387263894081, 1.0006357431411743, 0.14020781219005585, -0.05822215601801872, -0.05136743187904358
22708, -0.006789296865463257, 0.00045482421410270035, -0.0021712479647248983, -0.01102299615740776, -0.0076674665324389935, 0.0004094925825484097, -0.05754679813981056, -0.03997938707470894, 0.0011725719086825848, -2.770677328109741, -3.5446925163269043, 0.012557904236018658, 3.7210937556033405, 0.3728512436392748, 87.82867421566361, 0, 0, 0, 0, 0, 0, 0, 0, -0.016023384407162666, -0.010726678185164928, 0.999864935874939, 0.21319401264190674, -0.14114660024642944, -0.001458644401282072
22718, -0.006674834992736578, -0.0011119389673694968, -0.0027627341914922, -0.011606447398662567, -0.00807255320250988, 0.000420819444116205, -0.05914352461695671, -0.04103793576359749, 0.001093232654966414, -2.77070951461792, -3.5446767807006836, 0.01257020141929388, 3.736973464012166, 0.3425112298595536, 87.8210342786782, 0, 0, 0, 0, 0, 0, 0, 0, -0.016670743003487587, -0.010634880512952805, 0.9987753629684448, 0.04260320961475372, 0.1728658676147461, -0.1661570966243744
23178, -0.01554759219288826, -0.002412111032754183, 0.00016466141096316278, -0.038242995738983154, -0.026344742625951767, 0.0004829223616980016, -0.1073688417673111, -0.07252512872219086, 0.0003919333394151181, -2.7707061767578125, -3.544672966003418, 0.012558222748339176, 3.709944948512987, 0.330258522104657, 87.81870374808543, 0, 0, 0, 0, 0, 0, 0, 0, -0.01633283868432045, -0.010660316795110703, 0.9985462427139282, 0.017434248700737953, -0.21945728361606598, 0.10833780467510223
23598, -0.01526076439768076, -0.00412001321092248, 0.00650928495451808, -0.12087780982255936, -0.08140157908201218, 0.0013380867894738913, -0.1929369568824768, -0.1275707334280014, 0.0031332015059888363, -2.7707087993621826, -3.5447001457214355, 0.012575467117130756, 3.7482796770179374, 0.41380680314478013, 87.82512944708198, 0, 0, 0, 0, 0, 0, 0, 0, -0.01467928010970354, -0.008138997480273247, 1.0001174211502075, 0.006503458134829998, -0.06761199980974197, -0.011072047054767609
23768, -0.01759178563952446, -0.0035275337286293507, 0.0036968388594686985, -0.14719316363334656, -0.09882710874080658, 0.0016775134718045592, -0.21174679696559906, -0.14027024805545807, 0.002437852555885911, -2.7707064151763916, -3.5446817874908447, 0.012568892911076546, 3.7433461547331026, 0.35649025579110116, 87.82919004577425, 0, 0, 0, 0, 0, 0, 0, 0, -0.016673848032951355, -0.008827107958495617, 1.0014678239822388, -0.039746273308992386, -0.21491897106170654, -0.2209736555814743
23828, -0.015908878296613693, -0.0022533165756613016, 0.0018512700917199254, -0.16907265782356262, -0.11336519569158554, 0.0019237834494560957, -0.22632718086242676, -0.15007305145263672, 0.002252815989777446, -2.7707266807556152, -3.5446841716766357, 0.012555030174553394, 3.7746927228288407, 0.4445072635423344, 87.8364254852542, 0, 0, 0, 0, 0, 0, 0, 0, -0.014914131723344326, -0.0069106826558709145, 1.0000560283660889, -0.039746273308992386, -0.21491897106170654, -0.2209736555814743
23848, -0.015333237126469612, -0.001963904593139887, 0.0017494380008429289, -0.16907265782356262, -0.11336519569158554, 0.0019237834494560957, -0.22632718086242676, -0.15007305145263672, 0.002252815989777446, -2.7707266807556152, -3.5446841716766357, 0.012555030174553394, 3.7746927228288407, 0.4445072635423344, 87.8364254852542, 0, 0, 0, 0, 0, 0, 0, 0, -0.014914131723344326, -0.0069106826558709145, 1.0000560283660889, -0.039746273308992386, -0.21491897106170654, -0.2209736555814743
23908, -0.015329545363783836, -0.0029850287828594446, 0.002959230914711952, -0.18527449667453766, -0.12408042699098587, 0.0021008001640439034, -0.23679885268211365, -0.15641245245933533, 0.0023910554591566324, -2.7707064151763916, -3.544670820236206, 0.012564875185489655, 3.700669159350175, 0.3414431834392815, 87.81417166488889, 0, 0, 0, 0, 0, 0, 0, 0, -0.017602430656552315, -0.011401558294892311, 1.0011508464813232, -0.021328190341591835, -0.1821330189704895, 0.18905694782733917
23918, -0.014940137974917889, -0.0027955975383520126, 0.0031093584839254618, -0.18527449667453766, -0.12408042699098587, 0.0021008001640439034, -0.23679885268211365, -0.15641245245933533, 0.0023910554591566324, -2.770704746246338, -3.5446829795837402, 0.012529381550848484, 3.7192680463565733, 0.3406424224667717, 87.82778023230755, 0, 0, 0, 0, 0, 0, 0, 0, -0.017994217574596405, -0.010703058913350105, 1.0015976428985596, -0.021328190341591835, -0.1821330189704895, 0.18905694782733917
23988, -0.016709256917238235, -0.0048808627761900425, 0.0011425823904573917, -0.20224638283252716, -0.13526324927806854, 0.0022678570821881294, -0.2480289191007614, -0.1632712185382843, 0.002549299504607916, -2.7713611125946045, -3.544708490371704, 0.014934651553630829, 3.2507418235939705, -2.120329625847603, 87.58558027993338, 0, 0, 0, 0, 0, 0, 0, 0, -0.016115514561533928, -0.008599291555583477, 0.9991379380226135, -0.08751536905765533, -0.18891943991184235, -0.007742010988295078
24138, -0.013044256716966629, -0.007741145323961973, 0.0009295138297602534, -0.23578807711601257, -0.15728214383125305, 0.0026000128127634525, -0.26764586567878723, -0.17525985836982727, 0.0027810840401798487, -2.7707152366638184, -3.5446741580963135, 0.012546589598059654, 3.1361557688625936, 2.60307269531026, 88.09418138415741, 0, 0, 0, 0, 0, 0, 0, 0, -0.015496984124183655, -0.010715693235397339, 1.0019848346710205, -0.08751536905765533, -0.18891943991184235, -0.007742010988295078
24298, -0.010630790144205093, -0.010224172845482826, 0.004794714041054249, -0.2921886742115021, -0.19430898129940033, 0.0031429652590304613, -0.29695752263069153, -0.19470356404781342, 0.002555429469794035, -2.7706940174102783, -3.544682741165161, 0.012547528371214867, 3.739350102316699, 0.37344900594203523, 87.83045282705227, 0, 0, 0, 0, 0, 0, 0, 0, -0.015963025391101837, -0.008900503627955914, 1.0012210607528687, -0.10732996463775635, -0.07971925288438797, 0.19550155103206635
24318, -0.008647216483950615, -0.009692709892988205, 0.004631579387933016, -0.2921886742115021, -0.19430898129940033, 0.0031429652590304613, -0.29695752263069153, -0.19470356404781342, 0.002555429469794035, -2.770719528198242, -3.5446643829345703, 0.012553052976727486, 3.7864339610829933, 0.4365725424785012, 87.83665633995551, 0, 0, 0, 0, 0, 0, 0, 0, -0.014818700961768627, -0.011984341777861118, 0.998125433921814, -0.10732996463775635, -0.07971925288438797, 0.19550155103206635
24328, -0.008717171847820282, -0.008921783417463303, 0.0041039795614778996, -0.2921886742115021, -0.19430898129940033, 0.0031429652590304613, -0.29695752263069153, -0.19470356404781342, 0.002555429469794035, -2.7707314491271973, -3.544691324234009, 0.012552816420793533, 3.7279305167099817, 0.3731453479917377, 87.82188225983423, 0, 0, 0, 0, 0, 0, 0, 0, -0.014818700961768627, -0.011984341777861118, 0.998125433921814, -0.10732996463775635, -0.07971925288438797, 0.19550155103206635
24338, -0.008792313747107983, -0.009653122164309025, 0.003931096754968166, -0.2921886742115021, -0.19430898129940033, 0.0031429652590304613, -0.29695752263069153, -0.19470356404781342, 0.002555429469794035, -2.7707314491271973, -3.544691324234009, 0.012552816420793533, 3.7279305167099817, 0.3731453479917377, 87.82188225983423, 0, 0, 0, 0, 0, 0, 0, 0, -0.014818700961768627, -0.011984341777861118, 0.998125433921814, -0.10732996463775635, -0.07971925288438797, 0.19550155103206635
24398, -0.007837093435227871, -0.009621121920645237, 0.0024043067824095488, -0.3226297199726105, -0.2142970860004425, 0.0033795780036598444, -0.31195980310440063, -0.2048710733652115, 0.002154431538656354, -2.7707183361053467, -3.544696807861328, 0.012575848028063774, 3.8505155756805083, 0.4274068919155809, 87.82032726827282, 0, 0, 0, 0, 0, 0, 0, 0, -0.015002680942416191, -0.009956386871635914, 0.9983690977096558, -0.005323029588907957, -0.13983049988746643, -0.003164581721648574
24428, -0.008310571312904358, -0.00802597776055336, 0.0026702836621552706, -0.32889941334724426, -0.21841424703598022, 0.003421046305447817, -0.3150024712085724, -0.20682066679000854, 0.0019570430740714073, -2.7707359790802, -3.544696807861328, 0.012618400156497955, 3.7227311631495814, 0.37466374206152864, 87.8243101545598, 0, 0, 0, 0, 0, 0, 0, 0, -0.01739749312400818, -0.009885668754577637, 0.9989074468612671, -0.1572997123003006, -0.2117917686700821, -0.1484731286764145
24448, -0.008120044134557247, -0.007717217784374952, 0.0036373985931277275, -0.3416297733783722, -0.22676819562911987, 0.0034918400924652815, -0.32142606377601624, -0.21099330484867096, 0.0016175686614587903, -2.770726203918457, -3.5446903705596924, 0.01253973226994276, 3.761061925640395, 0.3750666693332789, 87.84099797859645, 0, 0, 0, 0, 0, 0, 0, 0, -0.01586988940834999, -0.011940025724470615, 1.0002691745758057, -0.1572997123003006, -0.2117917686700821, -0.1484731286764145
24478, -0.007699934765696526, -0.008573140949010849, 0.0039024115540087223, -0.35134294629096985, -0.23314662277698517, 0.0035422181244939566, -0.3261394798755646, -0.2144014537334442, 0.00177300616633147, -2.770699977874756, -3.5446841716766357, 0.012548131868243217, 3.748442426006191, 0.4228183734430786, 87.82805832002887, 0, 0, 0, 0, 0, 0, 0, 0, -0.016372250393033028, -0.012546174228191376, 0.9999488592147827, -0.1572997123003006, -0.2117917686700821, -0.1484731286764145
24488, -0.007503119297325611, -0.01129325944930315, 0.0038585644215345383, -0.3546122908592224, -0.23529645800590515, 0.0035601556301116943, -0.3277273178100586, -0.2155647575855255, 0.0018148634117096663, -2.7683768272399902, -3.543883800506592, 0.008044975809752941, 3.1050440021710983, 2.632631689363251, 88.10600450251455, 0, 0, 0, 0, 0, 0, 0, 0, -0.015913883224129677, -0.011236833408474922, 1.0023398399353027, -0.1572997123003006, -0.2117917686700821, -0.1484731286764145
24498, -0.007938710041344166, -0.012253175489604473, 0.004102978389710188, -0.3546122908592224, -0.23529645800590515, 0.0035601556301116943, -0.3277273178100586, -0.2155647575855255, 0.0018148634117096663, -2.7683768272399902, -3.543883800506592, 0.008044975809752941, 3.1050440021710983, 2.632631689363251, 88.10600450251455, 0, 0, 0, 0, 0, 0, 0, 0, -0.013810745440423489, -0.012196778319776058, 1.0000351667404175, -0.1572997123003006, -0.2117917686700821, -0.1484731286764145
24508, -0.008931811898946762, -0.012306741438806057, 0.005576281808316708, -0.3611953854560852, -0.23963062465190887, 0.003598741954192519, -0.3305516242980957, -0.2178792655467987, 0.0019445971120148897, -2.7713677883148193, -3.54469895362854, 0.014919715002179146, 3.1324626550765995, -2.094866323931427, 87.59331030583813, 0, 0, 0, 0, 0, 0, 0, 0, -0.015486449003219604, -0.012590199708938599, 0.9999150037765503, -0.1572997123003006, -0.2117917686700821, -0.1484731286764145
24518, -0.009136328473687172, -0.012629486620426178, 0.004785010125488043, -0.3645082712173462, -0.2418154627084732, 0.0036181220784783363, -0.3320259153842926, -0.21908745169639587, 0.0019317504484206438, -2.7707085609436035, -3.544699192047119, 0.01262842956930399, 3.7739866410966574, 0.37539725040946337, 87.82479396175609, 0, 0, 0, 0, 0, 0, 0, 0, -0.014876486733555794, -0.011569974943995476, 0.9991545677185059, 0.029684122651815414, -0.06497271358966827, -0.206865131855011
24528, -0.008617060258984566, -0.011757547035813332, 0.003924380987882614, -0.3678358793258667, -0.24401143193244934, 0.003637299407273531, -0.3334933817386627, -0.22010761499404907, 0.0019039554754272103, -2.7707254886627197, -3.5446901321411133, 0.012601199559867382, 3.7394540289702394, 0.3476053520789435, 87.82273342225143, 0, 0, 0, 0, 0, 0, 0, 0, -0.014412056654691696, -0.01037906389683485, 1.0001752376556396, 0.04028545320034027, -0.23703549802303314, -0.16924932599067688
24538, -0.009151743724942207, -0.012503941543400288, 0.004823772702366114, -0.3711775839328766, -0.24621744453907013, 0.003656163811683655, -0.334846556186676, -0.22109442949295044, 0.0018692347221076488, -2.7707359790802, -3.5446975231170654, 0.01250013429671526, 3.7969932484392954, 0.3265216904834176, 87.81162334460276, 0, 0, 0, 0, 0, 0, 0, 0, -0.014308921992778778, -0.01000454556196928, 0.9985185265541077, -0.05921288579702377, 0.06201909855008125, 0.2603455185890198
24548, -0.009463672526180744, -0.009929073043167591, 0.005345535930246115, -0.37453344464302063, -0.24843329191207886, 0.003674384206533432, -0.3363262712955475, -0.22207432985305786, 0.001775106182321906, -2.7707138061523438, -3.544670343399048, 0.012570690363645554, 3.753543954572736, 0.3540258370174456, 87.8357224920058, 0, 0, 0, 0, 0, 0, 0, 0, -0.016125084832310677, -0.010767344385385513, 1.0008046627044678, -0.04723736271262169, -0.42187735438346863, 0.14475487172603607
24558, -0.009735903702676296, -0.00977517943829298, 0.003741950960829854, -0.3779045343399048, -0.2506595253944397, 0.003692641854286194, -0.33789363503456116, -0.22317184507846832, 0.001876752357929945, -2.7683815956115723, -3.543882369995117, 0.008095304481685162, 3.1193421226961178, 2.697541172538081, 88.10760507055348, 0, 0, 0, 0, 0, 0, 0, 0, -0.01489985641092062, -0.011966267600655556, 1.0006484985351562, -0.03044327162206173, 0.04455282911658287, -0.19269874691963196
24568, -0.009515655227005482, -0.0098972013220191, 0.0034504833165556192, -0.38129064440727234, -0.25289666652679443, 0.0037115714512765408, -0.3393263816833496, -0.22425797581672668, 0.001909465529024601, -2.771395444869995, -3.544700860977173, 0.014936067163944244, 3.2998419958437157, -2.0942897037407135, 87.58445501017835, 0, 0, 0, 0, 0, 0, 0, 0, -0.014937390573322773, -0.009735682047903538, 0.9993557333946228, -0.0008419674704782665, 0.056272462010383606, -0.12728458642959595
24578, -0.009270071052014828, -0.009079793468117714, 0.003813051385805011, -0.38469117879867554, -0.25514379143714905, 0.003730390453711152, -0.3407798707485199, -0.22516745328903198, 0.0018545910716056824, -2.770716905593872, -3.5446865558624268, 0.012568960897624493, 3.786494981451482, 0.3571073634483639, 87.82440716617226, 0, 0, 0, 0, 0, 0, 0, 0, -0.015420914627611637, -0.010003913193941116, 0.9995154738426208, 0.03239928558468819, -0.13824456930160522, -0.01190380658954382
24588, -0.008661111816763878, -0.00915809627622366, 0.003004848724231124, -0.3881065845489502, -0.2574005424976349, 0.0037488986272364855, -0.342302143573761, -0.22618435323238373, 0.0018473376985639334, -2.770747423171997, -3.544705867767334, 0.012609031051397324, 3.8212089904135387, 0.34492667557319123, 87.80193712353561, 0, 0, 0, 0, 0, 0, 0, 0, -0.01655370183289051, -0.010879245586693287, 1.0007730722427368, -0.04041226953268051, 0.14511311054229736, -0.12096066772937775
24598, -0.009546124376356602, -0.010697866789996624, 0.002965266350656748, -0.3915380537509918, -0.25966769456863403, 0.0037680412642657757, -0.34399446845054626, -0.22724545001983643, 0.001981571549549699, -2.770707845687866, -3.5446910858154297, 0.012548642233014107, 3.750703249596539, 0.3456860561673807, 87.826902521524, 0, 0, 0, 0, 0, 0, 0, 0, -0.016857055947184563, -0.011520495638251305, 1.0018608570098877, -0.26546305418014526, 0.2736072838306427, -0.01854230836033821
24608, -0.009674577973783016, -0.011206377297639847, 0.0032689289655536413, -0.39498552680015564, -0.2619462013244629, 0.0037883948534727097, -0.345501571893692, -0.22845658659934998, 0.0020894771441817284, -2.7707512378692627, -3.544680118560791, 0.012609343975782394, 3.8340512623160183, 0.3606426422651339, 87.82653830262214, 0, 0, 0, 0, 0, 0, 0, 0, -0.0143206175416708, -0.014114715158939362, 1.0004624128341675, -0.049888357520103455, -0.021263165399432182, -0.0016431828262284398
24618, -0.009571028873324394, -0.011688810773193836, 0.004245382733643055, -0.3984473943710327, -0.2642371952533722, 0.0038092783652246, -0.3468746840953827, -0.22973966598510742, 0.0020875073969364166, -2.770695924758911, -3.5446817874908447, 0.012540522031486034, 3.6912152751054963, 0.42235997661768465, 87.83980045529545, 0, 0, 0, 0, 0, 0, 0, 0, -0.01422820333391428, -0.011763096787035465, 0.9990116953849792, -0.08773256093263626, -0.05270618945360184, 0.0364634208381176
24628, -0.009918172843754292, -0.013350247405469418, 0.004836157895624638, -0.40192312002182007, -0.2665398120880127, 0.0038296759594231844, -0.34827303886413574, -0.23078295588493347, 0.0019923371728509665, -2.7707390785217285, -3.5446999073028564, 0.012608574703335762, 3.784532816304435, 0.3631469184876437, 87.81290988760311, 0, 0, 0, 0, 0, 0, 0, 0, -0.0146165881305933, -0.0099246921017766, 0.9989131093025208, -0.06075894832611084, 0.23537829518318176, 0.06234298273921013
24638, -0.009852182120084763, -0.014685377478599548, 0.004691768903285265, -0.4054130017757416, -0.26885277032852173, 0.0038490621373057365, -0.34970590472221375, -0.23180866241455078, 0.0018851732602342963, -2.7707109451293945, -3.5446932315826416, 0.012574993073940277, 3.7328251328571214, 0.3411230492102675, 87.82004648309318, 0, 0, 0, 0, 0, 0, 0, 0, -0.014719780534505844, -0.011283067055046558, 0.9997859001159668, -0.020444128662347794, 0.19666200876235962, 0.05015205591917038
24648, -0.009615655988454819, -0.014604147523641586, 0.004699790850281715, -0.40891730785369873, -0.271176278591156, 0.003868191735818982, -0.35115301609039307, -0.2328944057226181, 0.0019409946398809552, -2.770714044570923, -3.5446908473968506, 0.012580107897520065, 3.705708497713133, 0.3590462907812366, 87.82741462494984, 0, 0, 0, 0, 0, 0, 0, 0, -0.015542055480182171, -0.010834451764822006, 1.00110924243927, -0.0902714729309082, 0.049430813640356064, 0.10308901965618134
24658, -0.009426077827811241, -0.014972982928156853, 0.0062997061759233475, -0.41243597865104675, -0.2735101878643036, 0.003887807484716177, -0.3525797128677368, -0.23388701677322388, 0.001982453977689147, -2.770700454711914, -3.544679641723633, 0.012540849857032299, 3.7318204028421627, 0.405040266028891, 87.82078371221891, 0, 0, 0, 0, 0, 0, 0, 0, -0.014317204244434834, -0.010185654275119305, 0.9996641278266907, -0.026655789464712143, 0.15773668885231018, 0.2377401888370514
24668, -0.009513628669083118, -0.014863861724734306, 0.006388463079929352, -0.41596871614456177, -0.27585431933403015, 0.0039069256745278835, -0.3539687395095825, -0.23494115471839905, 0.001841425197198987, -2.770704984664917, -3.5446722507476807, 0.012529047206044197, 3.699463001169484, 0.36756450587321865, 87.837958222249, 0, 0, 0, 0, 0, 0, 0, 0, -0.014669117517769337, -0.01166014838963747, 0.9974848628044128, -0.09835545718669891, 0.014665697701275349, -0.008290889672935009
24678, -0.010687426663935184, -0.015644745901226997, 0.006779946852475405, -0.41951560974121094, -0.2782094478607178, 0.003924401476979256, -0.355410099029541, -0.2360866367816925, 0.0016540479846298695, -2.770714521408081, -3.544687271118164, 0.012586708180606365, 3.7327556434815903, 0.34932649581895703, 87.8399742842581, 0, 0, 0, 0, 0, 0, 0, 0, -0.015880567952990532, -0.011357391253113747, 0.9985071420669556, -0.2465723603963852, 0.10604878515005112, -0.06419726461172104
24688, -0.011495917104184628, -0.016077615320682526, 0.006042887922376394, -0.42307716608047485, -0.2805752754211426, 0.0039402577094733715, -0.3569028377532959, -0.23708155751228333, 0.0015174396103248, -2.7707414627075195, -3.5446877479553223, 0.012570573017001152, 3.8205863168204366, 0.3730687649198785, 87.8349170738796, 0, 0, 0, 0, 0, 0, 0, 0, -0.014871635474264622, -0.00868071336299181, 0.9984912872314453, -0.05404391512274742, 0.0734027698636055, -0.031169146299362183
24698, -0.012117866426706314, -0.016669197008013725, 0.005141745787113905, -0.4266531765460968, -0.2829500138759613, 0.0039550550282001495, -0.3582971692085266, -0.2378687560558319, 0.0014423197135329247, -2.7713782787323, -3.544706106185913, 0.014912531711161137, 3.1795484900065105, -2.1323954740975637, 87.5862376774789, 0, 0, 0, 0, 0, 0, 0, 0, -0.014501254074275494, -0.009059075266122818, 0.9996130466461182, -0.16412878036499023, 0.10305647552013397, -0.11881814897060394
24708, -0.011953757144510746, -0.017166942358016968, 0.005887962877750397, -0.4302431344985962, -0.28533387184143066, 0.003969233948737383, -0.3596915006637573, -0.23890246450901031, 0.0013936846517026424, -2.7707362174987793, -3.5446794033050537, 0.012611049227416515, 3.7522889380678697, 0.3507208486894626, 87.83424844086238, 0, 0, 0, 0, 0, 0, 0, 0, -0.0152968131005764, -0.011563780717551708, 0.9992791414260864, 0.00457327114418149, -0.01951085589826107, -0.023313812911510468
24718, -0.011413496918976307, -0.016996610909700394, 0.006333430763334036, -0.4338473975658417, -0.2877281606197357, 0.003982727415859699, -0.36116209626197815, -0.23995494842529297, 0.0013052531285211444, -2.7707231044769287, -3.5446975231170654, 0.012611092999577522, 3.7542042791353425, 0.29928024428994604, 87.8210235139966, 0, 0, 0, 0, 0, 0, 0, 0, -0.01501809898763895, -0.010248547419905663, 0.999785304069519, 0.1142675131559372, -0.13619722425937653, -0.0006425735773518682
24728, -0.011393819935619831, -0.017529383301734924, 0.006879711523652077, -0.43746626377105713, -0.2901328206062317, 0.003995686303824186, -0.3626139461994171, -0.24097518622875214, 0.0012867540353909135, -2.770705223083496, -3.5446784496307373, 0.012616487219929695, 3.7132945070536483, 0.3912296488784932, 87.825174037017, 0, 0, 0, 0, 0, 0, 0, 0, -0.015241066925227642, -0.011137381196022034, 0.9992600679397583, -0.0396573469042778, 0.009884566999971867, 0.120878204703331
24738, -0.01055879145860672, -0.017277713865041733, 0.007068968378007412, -0.44109874963760376, -0.29254838824272156, 0.00400838628411293, -0.3638846278190613, -0.24213537573814392, 0.0012534062843769789, -2.7707176208496094, -3.5446786880493164, 0.01258665882050991, 3.7524262847414294, 0.405725486892635, 87.8351093772397, 0, 0, 0, 0, 0, 0, 0, 0, -0.011950885877013206, -0.012887750752270222, 0.9994536638259888, 0.14858578145503998, 0.09652972966432571, -0.008135282434523106
24748, -0.009399240836501122, -0.016833482310175896, 0.006074745208024979, -0.44474413990974426, -0.29497554898262024, 0.0040208385325968266, -0.36519551277160645, -0.24329708516597748, 0.0012372280471026897, -2.768352508544922, -3.543889284133911, 0.008009012788534164, 3.136778649797093, 2.7234384481016036, 88.11980455372777, 0, 0, 0, 0, 0, 0, 0, 0, -0.015006140805780888, -0.010552759282290936, 1.0002620220184326, 0.1570359617471695, 0.04729766026139259, -0.15942688286304474
24758, -0.009339090436697006, -0.016143102198839188, 0.005937180016189814, -0.4484035074710846, -0.2974136471748352, 0.004033622331917286, -0.36668089032173157, -0.24432212114334106, 0.001319787697866559, -2.771390676498413, -3.544731855392456, 0.014919864013791084, 3.2903149820026845, -2.0835952276568435, 87.56948877913635, 0, 0, 0, 0, 0, 0, 0, 0, -0.015393615700304508, -0.010744246654212475, 1.0009983777999878, -0.10156557708978653, -0.1135597676038742, -0.05439949035644531
24768, -0.010250596329569817, -0.016523348167538643, 0.0066612232476472855, -0.4520775079727173, -0.2998623549938202, 0.004046944435685873, -0.36811986565589905, -0.24542218446731567, 0.0013448951067402959, -2.7706992626190186, -3.544696092605591, 0.01257011853158474, 3.712958164914105, 0.332130355685905, 87.81083505325756, 0, 0, 0, 0, 0, 0, 0, 0, -0.015850042924284935, -0.011278596706688404, 1.0004756450653076, -0.07163748890161514, 0.19640760123729706, 0.02888665907084942
24778, -0.009422154165804386, -0.017860105261206627, 0.00728276651352644, -0.45576632022857666, -0.30232182145118713, 0.004060710314661264, -0.3696410357952118, -0.24647052586078644, 0.0014085171278566122, -2.770691394805908, -3.5446739196777344, 0.012590364553034306, 3.800033067035868, 0.46574760229825074, 87.84113571472493, 0, 0, 0, 0, 0, 0, 0, 0, -0.015210884623229504, -0.010869389399886131, 1.0007401704788208, 0.23695668578147888, 0.13076330721378326, -0.028982821851968765
24788, -0.010407566092908382, -0.02000722475349903, 0.0074745286256074905, -0.45946967601776123, -0.3047916889190674, 0.004075094126164913, -0.37102794647216797, -0.24750538170337677, 0.0014685543719679117, -2.7707343101501465, -3.544689655303955, 0.012550647370517254, 3.784486956836857, 0.38818964947029144, 87.82477472904365, 0, 0, 0, 0, 0, 0, 0, 0, -0.013424886390566826, -0.010106637142598629, 1.0006611347198486, -0.058519426733255386, 0.27339494228363037, -0.022422004491090775
24798, -0.009890187531709671, -0.019348690286278725, 0.007059763185679913, -0.463186651468277, -0.3072713613510132, 0.004089958034455776, -0.37236663699150085, -0.24842607975006104, 0.0015044125029817224, -2.7707250118255615, -3.5446879863739014, 0.012595214881002903, 3.7621136752768227, 0.3699355690979189, 87.81801500302555, 0, 0, 0, 0, 0, 0, 0, 0, -0.014320407062768936, -0.009767001494765282, 1.000698447227478, 0.10134401172399521, -0.12847858667373657, -0.014144237153232098
24808, -0.009803527034819126, -0.018458044156432152, 0.007693763356655836, -0.4669179320335388, -0.3097608983516693, 0.0041052233427762985, -0.3738902807235718, -0.2494790256023407, 0.0015488805947825313, -2.7707388401031494, -3.5446882247924805, 0.012566435150802135, 3.8166521577734533, 0.3812440909757697, 87.82789492292457, 0, 0, 0, 0, 0, 0, 0, 0, -0.01778339222073555, -0.011501738801598549, 1.0000325441360474, 0.09987318515777588, -0.1624222695827484, 0.1525162309408188
24818, -0.00935329683125019, -0.018988242372870445, 0.008051102980971336, -0.4706655442714691, -0.31226080656051636, 0.004120868630707264, -0.3756348490715027, -0.25050482153892517, 0.0015804028371348977, -2.7707314491271973, -3.5446865558624268, 0.012604608200490475, 3.739306579177847, 0.29389095431463375, 87.8202091144949, 0, 0, 0, 0, 0, 0, 0, 0, -0.017444096505641937, -0.011071768589317799, 1.001104474067688, 0.07015801221132278, 0.008016071282327175, 0.009834041818976402
24828, -0.009248601272702217, -0.019018955528736115, 0.009549222886562347, -0.4744298756122589, -0.31477123498916626, 0.004137411247938871, -0.3772314786911011, -0.2515806555747986, 0.001728344359435141, -2.76839017868042, -3.5438907146453857, 0.008040934801101685, 3.121712633229603, 2.657002932476928, 88.11599119798001, 0, 0, 0, 0, 0, 0, 0, 0, -0.01626008190214634, -0.010426082648336887, 1.0010014772415161, -0.02960636094212532, 0.03333010897040367, 0.0765095055103302
24838, -0.008063648827373981, -0.019098550081253052, 0.010143544524908066, -0.478209912776947, -0.31729191541671753, 0.004155547358095646, -0.37877383828163147, -0.2525571882724762, 0.0018991348333656788, -2.7707135677337646, -3.5446860790252686, 0.012583674862980843, 3.702362263147219, 0.34092770591126964, 87.81197918007568, 0, 0, 0, 0, 0, 0, 0, 0, -0.016243403777480125, -0.00992471631616354, 1.001936674118042, 0.07588546723127365, 0.089603491127491, 0.011662530712783337
24848, -0.008952771313488483, -0.020360184833407402, 0.009627974592149258, -0.4820057153701782, -0.319822758436203, 0.004175195470452309, -0.3803841471672058, -0.25361180305480957, 0.002030728617683053, -2.7707090377807617, -3.5446784496307373, 0.012571752071380615, 3.703588984413383, 0.364850326997356, 87.8179640916803, 0, 0, 0, 0, 0, 0, 0, 0, -0.01640005223453045, -0.011660505086183548, 1.000614881515503, -0.24400807917118073, 0.2822423279285431, 0.0035207367036491632
24858, -0.008636529557406902, -0.020094862207770348, 0.010105944238603115, -0.48581743240356445, -0.3223642110824585, 0.00419639190658927, -0.3819579482078552, -0.25468119978904724, 0.002208748599514365, -2.768383502960205, -3.543858766555786, 0.008085278794169426, 3.1404992488514107, 2.6900122282170287, 88.10153398786427, 0, 0, 0, 0, 0, 0, 0, 0, -0.016789410263299942, -0.01105269230902195, 1.0032799243927002, 0.043028682470321655, -0.0484972782433033, 0.03052888996899128
24868, -0.008914327248930931, -0.02057594619691372, 0.01096471305936575, -0.4896450936794281, -0.32491639256477356, 0.004220000002533197, -0.38357236981391907, -0.2557569444179535, 0.002513081068173051, -2.7707130908966064, -3.5446786880493164, 0.012558460235595703, 3.753398665105213, 0.38089798108379114, 87.83432939935629, 0, 0, 0, 0, 0, 0, 0, 0, -0.016527708619832993, -0.009233538061380386, 1.0020707845687866, -0.07796503603458405, -0.005617906339466572, 0.1660357117652893
24878, -0.008857895620167255, -0.020927779376506805, 0.012206610292196274, -0.4934884011745453, -0.32747769355773926, 0.004245862364768982, -0.3850882947444916, -0.25650152564048767, 0.0026595676317811012, -2.770726442337036, -3.544696569442749, 0.012519888579845428, 3.6878159875213172, 0.35870344251642905, 87.8127625877319, 0, 0, 0, 0, 0, 0, 0, 0, -0.015107893384993076, -0.006955040153115988, 1.0026897192001343, 0.0067012193612754345, -0.025812538340687752, 0.12278785556554794
24888, -0.009715905413031578, -0.019602252170443535, 0.010860277339816093, -0.4973466396331787, -0.330046683549881, 0.004273619502782822, -0.3865591585636139, -0.25729647278785706, 0.0028920983895659447, -2.7683629989624023, -3.5439040660858154, 0.008092975243926048, 3.216323551775435, 2.747963668747502, 88.11831655968274, 0, 0, 0, 0, 0, 0, 0, 0, -0.01626560464501381, -0.009627094492316246, 1.0010026693344116, -0.07505855709314346, -0.3050358295440674, -0.31219738721847534
24918, -0.009242015890777111, -0.02047140523791313, 0.01215817779302597, -0.5090121030807495, -0.33780884742736816, 0.004361716099083424, -0.3911420702934265, -0.26022663712501526, 0.0030962410382926464, -2.7707149982452393, -3.544667959213257, 0.012544598430395126, 3.72770535096614, 0.34266792344823216, 87.83142801819588, 0, 0, 0, 0, 0, 0, 0, 0, -0.017450693994760513, -0.01139355544000864, 0.9997434616088867, -0.07505855709314346, -0.3050358295440674, -0.31219738721847534
24928, -0.009369928389787674, -0.020357651636004448, 0.013038082979619503, -0.5129315257072449, -0.3404169976711273, 0.004392296075820923, -0.39274314045906067, -0.26140350103378296, 0.0030199929606169462, -2.7707090377807617, -3.544665813446045, 0.012549460865557194, 3.75457805347235, 0.3755811029827498, 87.8345791106779, 0, 0, 0, 0, 0, 0, 0, 0, -0.014673280529677868, -0.012226234190165997, 0.9995229840278625, -0.07505855709314346, -0.3050358295440674, -0.31219738721847534
24938, -0.008374947123229504, -0.02086811512708664, 0.01384015567600727, -0.5172604918479919, -0.3432992696762085, 0.004425848834216595, -0.3943464457988739, -0.2626449167728424, 0.003080737544223666, -2.7707040309906006, -3.5446698665618896, 0.012602230533957481, 3.745255854185974, 0.3702705457608033, 87.8456277676933, 0, 0, 0, 0, 0, 0, 0, 0, -0.01601247675716877, -0.011972076259553432, 1.0009286403656006, -0.07505855709314346, -0.3050358295440674, -0.31219738721847534
24948, -0.008639940060675144, -0.02168278768658638, 0.013984889723360538, -0.5212119817733765, -0.34593167901039124, 0.004456827417016029, -0.3959480822086334, -0.2638382613658905, 0.0031152439769357443, -2.7683608531951904, -3.5438930988311768, 0.008039518259465694, 3.0967541710787305, 2.724893668454513, 88.11218624790358, 0, 0, 0, 0, 0, 0, 0, 0, -0.01667608879506588, -0.012315348722040653, 1.0000592470169067, -0.07505855709314346, -0.3050358295440674, -0.31219738721847534
24958, -0.008699160069227219, -0.020968854427337646, 0.013800151646137238, -0.5251790881156921, -0.34857532382011414, 0.004488008562475443, -0.3974692225456238, -0.2648905813694, 0.003121201880276203, -2.7707369327545166, -3.5446746349334717, 0.012600241228938103, 3.8050252910799025, 0.34177716748666853, 87.82932441612955, 0, 0, 0, 0, 0, 0, 0, 0, -0.015362909063696861, -0.009645473212003708, 1.000044822692871, 0.14820758998394012, -0.15801455080509186, 0.055368904024362564
24968, -0.007875514216721058, -0.02133200503885746, 0.014838638715445995, -0.5251790881156921, -0.34857532382011414, 0.004488008562475443, -0.3974692225456238, -0.2648905813694, 0.003121201880276203, -2.7707276344299316, -3.5447051525115967, 0.012604189105331898, 3.7532643849113434, 0.38191471993053483, 87.81980489110205, 0, 0, 0, 0, 0, 0, 0, 0, -0.016798006370663643, -0.011338178999722004, 0.9991145730018616, 0.01843213476240635, 0.08065915107727051, 0.26261961460113525
24978, -0.007947188802063465, -0.021192124113440514, 0.013243398629128933, -0.5291613340377808, -0.35122913122177124, 0.004518919158726931, -0.39898160099983215, -0.265872985124588, 0.003061090363189578, -2.770728826522827, -3.5446877479553223, 0.012561623007059097, 3.816967423360477, 0.44618797533254906, 87.83437627773333, 0, 0, 0, 0, 0, 0, 0, 0, -0.01787640154361725, -0.010510438121855259, 1.000765085220337, -0.13496439158916473, -0.06013159826397896, -0.2578129470348358
24988, -0.007713183294981718, -0.021012188866734505, 0.012753772549331188, -0.5291613340377808, -0.35122913122177124, 0.004518919158726931, -0.39898160099983215, -0.265872985124588, 0.003061090363189578, -2.7713801860809326, -3.5447239875793457, 0.014910840429365635, 3.090683526120346, -2.1149710941886894, 87.5817256522718, 0, 0, 0, 0, 0, 0, 0, 0, -0.016511952504515648, -0.008868884295225143, 0.9987948536872864, -0.058282747864723206, 0.011551895178854465, -0.0955343022942543
25028, -0.007409987971186638, -0.021749677136540413, 0.013757795095443726, -0.5493175387382507, -0.36464422941207886, 0.004667679779231548, -0.4071488380432129, -0.27075859904289246, 0.002927519613876939, -2.770719289779663, -3.5446937084198, 0.012540058232843876, 3.8593264248888173, 0.39200734664566994, 87.80765131468185, 0, 0, 0, 0, 0, 0, 0, 0, -0.013689190149307251, -0.01306091994047165, 1.0020952224731445, -0.00822054035961628, 0.1710347682237625, -0.30831167101860046
25048, -0.007179374806582928, -0.020009372383356094, 0.013664627447724342, -0.5574890375137329, -0.370083749294281, 0.004728846717625856, -0.40997880697250366, -0.27317002415657043, 0.003225696971639991, -2.7707278728485107, -3.5446863174438477, 0.012652194127440453, 3.729218974889502, 0.2622321180829772, 87.80462240146719, 0, 0, 0, 0, 0, 0, 0, 0, -0.018005989491939545, -0.01116227637976408, 0.9983144402503967, 0.026605917140841484, -0.17605789005756378, 0.07096385955810547
25058, -0.006103216670453548, -0.01987685263156891, 0.013590393587946892, -0.5615969300270081, -0.3728208839893341, 0.0047604842111468315, -0.41159430146217346, -0.27425864338874817, 0.003102014074102044, -2.770723819732666, -3.5446932315826416, 0.012535560876131058, 3.782940849693569, 0.40128626978633974, 87.8270049615798, 0, 0, 0, 0, 0, 0, 0, 0, -0.018074505031108856, -0.012452291324734688, 0.9985107779502869, 0.026605917140841484, -0.17605789005756378, 0.07096385955810547
25068, -0.00676736980676651, -0.01892085373401642, 0.013196084648370743, -0.5615969300270081, -0.3728208839893341, 0.0047604842111468315, -0.41159430146217346, -0.27425864338874817, 0.003102014074102044, -2.7707207202911377, -3.5446863174438477, 0.012631404213607311, 3.7651838190562583, 0.34983824010447506, 87.83849924862632, 0, 0, 0, 0, 0, 0, 0, 0, -0.01637495495378971, -0.00916311889886856, 0.9999078512191772, 0.026605917140841484, -0.17605789005756378, 0.07096385955810547
25078, -0.006916052661836147, -0.017992457374930382, 0.013690732419490814, -0.5615969300270081, -0.3728208839893341, 0.0047604842111468315, -0.41159430146217346, -0.27425864338874817, 0.003102014074102044, -2.7685883045196533, -3.5434699058532715, 0.011990229599177837, -1.8661334630900066, -2.153865390820613, 87.9130264480333, 0, 0, 0, 0, 0, 0, 0, 0, -0.016713380813598633, -0.010576109401881695, 0.9993254542350769, 0.026605917140841484, -0.17605789005756378, 0.07096385955810547
25118, -0.006972698029130697, -0.020808009430766106, 0.014889217913150787, -0.5823854207992554, -0.38666731119155884, 0.004900720436125994, -0.4197334349155426, -0.2794620394706726, 0.0024252997245639563, -2.7707207202911377, -3.5446932315826416, 0.01254013366997242, 3.7059177300053943, 0.35015932338203015, 87.83677500345638, 0, 0, 0, 0, 0, 0, 0, 0, -0.014165877364575863, -0.009381345473229885, 0.9991539120674133, 0.026605917140841484, -0.17605789005756378, 0.07096385955810547
25128, -0.0057274834252893925, -0.020087793469429016, 0.014282271265983582, -0.5908118486404419, -0.3922756314277649, 0.004948281683027744, -0.42276012897491455, -0.28137052059173584, 0.0023249981459230185, -2.7707316875457764, -3.544685125350952, 0.01255022268742323, 3.8030923744898155, 0.4134341301736697, 87.81732039864896, 0, 0, 0, 0, 0, 0, 0, 0, -0.015542940236628056, -0.011400855146348476, 0.9993391633033752, 0.026605917140841484, -0.17605789005756378, 0.07096385955810547
25138, -0.006680232007056475, -0.019911080598831177, 0.0147707499563694, -0.5908118486404419, -0.3922756314277649, 0.004948281683027744, -0.42276012897491455, -0.28137052059173584, 0.0023249981459230185, -2.7707316875457764, -3.544685125350952, 0.01255022268742323, 3.8030923744898155, 0.4134341301736697, 87.81732039864896, 0, 0, 0, 0, 0, 0, 0, 0, -0.015542940236628056, -0.011400855146348476, 0.9993391633033752, 0.026605917140841484, -0.17605789005756378, 0.07096385955810547
25168, -0.006139267701655626, -0.02181318774819374, 0.015950286760926247, -0.6078377366065979, -0.4036146104335785, 0.00503968121483922, -0.42842090129852295, -0.2854976952075958, 0.002480115042999387, -2.770735025405884, -3.5446901321411133, 0.012540814466774464, 3.7649581928368123, 0.4190306513783355, 87.828221525589, 0, 0, 0, 0, 0, 0, 0, 0, -0.014287818223237991, -0.00911474134773016, 0.9999927282333374, 0.1460210084915161, -0.07721535861492157, -0.14442811906337738
25178, -0.005588270258158445, -0.020636962726712227, 0.015541615895926952, -0.6121280193328857, -0.4064739942550659, 0.005064859054982662, -0.4296393394470215, -0.28637784719467163, 0.0025555978063493967, -2.7707159519195557, -3.544699192047119, 0.012522176839411259, 3.749137441775665, 0.3520982356226625, 87.81696842675156, 0, 0, 0, 0, 0, 0, 0, 0, -0.016030732542276382, -0.010675055906176567, 0.9979016184806824, 0.1460210084915161, -0.07721535861492157, -0.14442811906337738
25188, -0.005807720124721527, -0.02251579612493515, 0.015695547685027122, -0.6164318323135376, -0.4093424081802368, 0.005090013612061739, -0.43112534284591675, -0.2873044013977051, 0.002475511748343706, -2.771355390548706, -3.544705390930176, 0.01491088792681694, 3.102113000666991, -2.1811218872201152, 87.59826041685403, 0, 0, 0, 0, 0, 0, 0, 0, -0.017233630642294884, -0.010947834700345993, 0.9998363852500916, -0.004554626997560263, 0.15808983147144318, 0.03630642220377922
25208, -0.006452810484915972, -0.023846788331866264, 0.01723952777683735, -0.625086784362793, -0.41510912775993347, 0.005137995351105928, -0.43432900309562683, -0.2892678380012512, 0.002490760525688529, -2.7707295417785645, -3.5446696281433105, 0.012623867951333523, 3.7487407365210887, 0.4015231431752966, 87.82956292435323, 0, 0, 0, 0, 0, 0, 0, 0, -0.016044650226831436, -0.007989137433469296, 0.9996920824050903, 0.0603395439684391, -0.13915608823299408, 0.12562555074691772
25228, -0.006791896186769009, -0.02459738776087761, 0.019970688968896866, -0.6294376850128174, -0.41800570487976074, 0.005163418594747782, -0.43584954738616943, -0.2900468409061432, 0.002594087738543749, -2.7707102298736572, -3.5446712970733643, 0.012537045404314995, 3.737787765184992, 0.4190432008183791, 87.82300171998416, 0, 0, 0, 0, 0, 0, 0, 0, -0.015245458111166954, -0.011591858230531216, 0.998473048210144, -0.08331284672021866, 0.13757768273353577, 0.007310342043638229
25248, -0.006410723552107811, -0.025019090622663498, 0.02028336562216282, -0.642579197883606, -0.42675116658210754, 0.005235661286860704, -0.4402579069137573, -0.2930249571800232, 0.0023015551269054413, -2.770707368850708, -3.5446879863739014, 0.012564683333039284, 3.8206342685425585, 0.40100139879720587, 87.83459523888538, 0, 0, 0, 0, 0, 0, 0, 0, -0.01477076392620802, -0.009772665798664093, 0.9999332427978516, -0.08331284672021866, 0.13757768273353577, 0.007310342043638229
25288, -0.008280782029032707, -0.027118705213069916, 0.01843147724866867, -0.6514133214950562, -0.4326305389404297, 0.0052830311469733715, -0.44311559200286865, -0.2949504852294922, 0.0023377130273729563, -2.7683637142181396, -3.543888807296753, 0.007998342625796795, 3.1306281434371956, 2.6972116765818157, 88.1166440960342, 0, 0, 0, 0, 0, 0, 0, 0, -0.01654658652842045, -0.010289485566318035, 1.003240704536438, -0.08331284672021866, 0.13757768273353577, 0.007310342043638229
25328, -0.10114777088165283, -0.16961921751499176, 0.019881198182702065, -0.6514133214950562, -0.4326305389404297, 0.0052830311469733715, -0.44311559200286865, -0.2949504852294922, 0.0023377130273729563, -2.7707180976867676, -3.54469633102417, 0.012532422319054604, 3.7852257690825284, 0.41261139644853984, 87.83612815084845, 0, 0, 0, 0, 0, 0, 0, 0, -0.01603420451283455, -0.009581397287547588, 1.00352942943573, -0.08331284672021866, 0.13757768273353577, 0.007310342043638229
