timeTick, roll, pitch, yaw, stateX, stateY, stateZ, stateVX, stateVY, stateVZ, otX0, otY0, otZ0, otRoll0, otPitch0, otYaw0, cmdThrust, cmdRoll, cmdPitch, cmdYaw, actThrust, rRoll, rPitch, rYaw, accx, accy, accz, gyrox, gyroy, gyroz
99263, -0.0008767993422225118, 0.0008653666009195149, 0.00033127429196611047, 0, 0, 0, 0, 0, 0, -2.9483330249786377, -3.061016082763672, 0.016113711521029472, 2.8495065111583, 2.798025861306826, 2.7679470560457924, 0, 0, 0, 0, 0, 0, 0, 0, 0, 0, 0, 0, 0, 0
99273, 0.0, 0.0, 0.0, 0.0, 0.0, 0.0, 0.0, 0.0, 0.0, -2.9482991695404053, -3.061018943786621, 0.01609579287469387, 2.855179139814115, 2.77933349689215, 2.776102274449446, 0, 0, 0, 0, 0, 0, 0, 0, 0, 0, 0, 0, 0, 0
99283, 0.0012360111577436328, 0.0006975253345444798, 3.1805426260689273e-05, 2.850164946721634e-06, -1.2032564882247243e-05, 1.232256181538105e-07, 0.0005700339679606259, -0.002406512852758169, 2.4975764972623438e-05, -2.947213649749756, -3.0602152347564697, 0.01219747681170702, -2.1761266281869807, 1.3714409574384945, 1.9698172439219919, 0, 0, 0, 0, 0, 0, 0, 0, 0.00580249261111021, -0.023293351754546165, 0.9999150633811951, -0.024780316278338432, -0.044633034616708755, -0.1705106794834137
99293, 0.000404286605771631, 0.0006494682747870684, -0.0005840547382831573, 1.1009844456566498e-05, -4.7477475163759664e-05, 9.360956028103828e-07, 0.0010618778178468347, -0.004682473372668028, 0.00013802752073388547, -2.947213649749756, -3.0602152347564697, 0.01219747681170702, -2.1761266281869807, 1.3714409574384945, 1.9698172439219919, 0, 0, 0, 0, 0, 0, 0, 0, 0.003728466108441353, -0.023738572373986244, 1.0013905763626099, -0.0011451467871665955, -0.21762803196907043, -0.0001069188438123092
99303, 0.000566637609153986, 0.0020779906772077084, -0.0006152207497507334, 2.3815322492737323e-05, -0.00010615708015393466, 3.087567165493965e-06, 0.0014992129290476441, -0.007053447887301445, 0.0002926601155195385, -2.9475173950195312, -3.061617612838745, 0.013587767258286476, 6.944119231672459, -0.5737412762327381, 3.439998097232469, 0, 0, 0, 0, 0, 0, 0, 0, 0.0055764117278158665, -0.02356743812561035, 1.0013859272003174, 0.05184272304177284, 0.03532884642481804, -0.07005130499601364
99313, 0.0008668857626616955, 0.002017372054979205, -0.0008153172675520182, 4.159559466643259e-05, -0.0001882241922430694, 6.301794201135635e-06, 0.0020568333566188812, -0.009359978139400482, 0.000350569054717198, -2.947338819503784, -3.060849189758301, 0.013317182660102844, -0.37942978211238854, 3.024929112087591, 2.0158835241859285, 0, 0, 0, 0, 0, 0, 0, 0, 0.004621847998350859, -0.023493297398090363, 0.9998817443847656, 0.023754488676786423, -0.03169320896267891, 0.010846849530935287
99323, 0.001251712441444397, 0.0012236848706379533, -0.0004858747706748545, 6.447215855587274e-05, -0.0002934894582722336, 9.497685823589563e-06, 0.0025184915866702795, -0.011693070642650127, 0.0002889995521400124, -2.9463751316070557, -3.0601446628570557, 0.009698412381112576, 0.5551276707773828, 21.054975901098885, 2.269096680090267, 0, 0, 0, 0, 0, 0, 0, 0, 0.004901318345218897, -0.02445126697421074, 0.9994937181472778, 0.011804948560893536, -0.05345243960618973, -0.14382703602313995
99333, 0.0013730362989008427, 0.002153965877369046, -0.0010484133381396532, 9.237868653144687e-05, -0.0004226051096338779, 1.2729433365166187e-05, 0.0030627897940576077, -0.014130066148936749, 0.0003577646566554904, -2.948391914367676, -3.06138014793396, 0.016129136085510254, 2.782270060774403, 2.367108900187219, 1.9226227472817778, 0, 0, 0, 0, 0, 0, 0, 0, 0.004793798550963402, -0.024683088064193726, 1.0011239051818848, 0.033773068338632584, 0.02001866325736046, 0.0663045346736908
99343, 0.0015917584532871842, 0.001968743046745658, -0.001608805963769555, 0.00012538008741103113, -0.0005760120111517608, 1.676596002653241e-05, 0.0035374662838876247, -0.016551319509744644, 0.0004499352944549173, -2.9474995136260986, -3.0616440773010254, 0.013576297089457512, 7.024538211584166, -0.4340218646896119, 3.4425580758113266, 0, 0, 0, 0, 0, 0, 0, 0, 0.004840446636080742, -0.024964062497019768, 1.0015298128128052, 0.019875848665833473, 0.16555699706077576, 0.1310357004404068
99353, 0.0017162758158519864, 0.0006809397600591183, -0.0011351892026141286, 0.00016269792104139924, -0.0007537686033174396, 2.1796557120978832e-05, 0.003926125355064869, -0.01900000311434269, 0.0005565609317272902, -2.9483141899108887, -3.0610246658325195, 0.016132812947034836, 2.8853760638357424, 2.8001811694810783, 2.760219105796758, 0, 0, 0, 0, 0, 0, 0, 0, 0.004058151040226221, -0.024562202394008636, 1.0005778074264526, 0.09559869766235352, -0.3162238895893097, -0.022685466334223747
99363, 0.0019961916841566563, 0.0026956878136843443, -0.0001529681758256629, 0.00020398641936481, -0.0009558536112308502, 2.7850153855979443e-05, 0.0043316129595041275, -0.02141699194908142, 0.0006545770447701216, -2.9482760429382324, -3.0607869625091553, 0.016172947362065315, 2.604088572719944, 2.5892756491296325, 2.6133126047101887, 0, 0, 0, 0, 0, 0, 0, 0, 0.003738054307177663, -0.02512972801923752, 1.0006980895996094, -0.044671960175037384, 0.12752144038677216, 0.0258712787181139
99373, 0.0017420704243704677, 0.0015128612285479903, -8.13009828561917e-05, 0.0002492833591531962, -0.0011823715176433325, 3.483268665149808e-05, 0.004727781284600496, -0.02388659305870533, 0.0007423211936838925, -2.9482574462890625, -3.0607824325561523, 0.01621134951710701, 2.5993477954162407, 2.585486652257117, 2.6200883365063485, 0, 0, 0, 0, 0, 0, 0, 0, 0.00443644542247057, -0.025206493213772774, 1.0025830268859863, 0.17678071558475494, -0.12185952067375183, 0.04022542014718056
99383, 0.0022016530856490135, 0.001270794658921659, -0.0002661217004060745, 0.00029864825773984194, -0.0014336726162582636, 4.4067681301385164e-05, 0.0051451935432851315, -0.02637362666428089, 0.0011050563771277666, -2.947511672973633, -3.0616261959075928, 0.013643146492540836, 6.935171162937846, -0.6011712110066583, 3.4270944299305133, 0, 0, 0, 0, 0, 0, 0, 0, 0.0036601093597710133, -0.02485816366970539, 1.0040383338928223, 0.0974654033780098, 0.005827441345900297, -0.029394492506980896
99393, 0.003536414820700884, 0.002446962520480156, -0.0006612446159124374, 0.00035201176069676876, -0.0017097481759265065, 5.6270393542945385e-05, 0.0055274865590035915, -0.02884148806333542, 0.0013358377618715167, -2.9458887577056885, -3.060112953186035, 0.010746474377810955, -0.01680885000897984, -4.020814056000518, 2.314079262088604, 0, 0, 0, 0, 0, 0, 0, 0, 0.004538167268037796, -0.02492181397974491, 1.001602053642273, 0.12521760165691376, -0.0349908247590065, -0.05425771698355675
99403, 0.0046957870945334435, 0.0022510504350066185, -0.000303373031783849, 0.00041004366357810795, -0.0020097969099879265, 7.055047899484634e-05, 0.0060789091512560844, -0.031168263405561447, 0.0015205255476757884, -2.9478187561035156, -3.060964584350586, 0.014666885137557983, 5.441763700026315, -1.8593982098139747, 2.707892509794488, 0, 0, 0, 0, 0, 0, 0, 0, 0.006697800010442734, -0.02403651364147663, 1.0018541812896729, 0.044038284569978714, -0.08307968080043793, -0.08306281268596649
99413, 0.00409729266539216, 0.0006823785952292383, -0.0013617875520139933, 0.0004735305847134441, -0.002333663869649172, 8.60208529047668e-05, 0.006618432700634003, -0.03360511735081673, 0.0015739495866000652, -2.947845458984375, -3.0610032081604004, 0.015146700665354729, -1.2235624069018756, 1.3370411017949095, 2.0674938596450683, 0, 0, 0, 0, 0, 0, 0, 0, 0.004717815667390823, -0.02455700747668743, 0.9998325705528259, 0.02638096921145916, 0.3099910616874695, -0.14385101199150085
99423, 0.0041230665519833565, 0.00041920013609342277, -0.0005071042105555534, 0.0005419019144028425, -0.002681715413928032, 0.00010171328904107213, 0.007055866066366434, -0.0360051728785038, 0.001564930658787489, -2.947812557220459, -3.060969829559326, 0.014655819162726402, 5.407647196052308, -1.8475395882363728, 2.725095511748054, 0, 0, 0, 0, 0, 0, 0, 0, 0.004921064246445894, -0.024708643555641174, 1.0006825923919678, 0.02184639498591423, -0.06029090657830238, 0.16637487709522247
99433, 0.0047805714420974255, 0.0011306364322081208, -0.00043082330375909805, 0.0006156600429676473, -0.0030538111459463835, 0.00011738738976418972, 0.007695765700191259, -0.03841395676136017, 0.0015702707460150123, -2.948841094970703, -3.0612056255340576, 0.019657548516988754, -3.095078601487923, 7.6248025952604905, 1.8017714293405145, 0, 0, 0, 0, 0, 0, 0, 0, 0.006695572752505541, -0.023870626464486122, 0.9990018606185913, 0.013322759419679642, -0.026507776230573654, -0.001859630923718214
99443, 0.004164323676377535, 0.0008939801482483745, -0.00014111034397501498, 0.0006954416749067605, -0.003449318464845419, 0.00013235543156042695, 0.008260567672550678, -0.04068749397993088, 0.0014237432042136788, -2.9463531970977783, -3.0601751804351807, 0.009752477519214153, 0.5816297561673879, 21.09887818392309, 2.2676806575580635, 0, 0, 0, 0, 0, 0, 0, 0, 0.004976484924554825, -0.023534681648015976, 0.9975847005844116, 0.1592894047498703, 0.09269411116838455, -0.24512317776679993
99453, 0.0064298054203391075, 0.0009355941438116133, -0.0013688354520127177, 0.000779671419877559, -0.0038680832367390394, 0.00014600064605474472, 0.008585329167544842, -0.043065473437309265, 0.0013056057505309582, -2.9487740993499756, -3.0615744590759277, 0.015929261222481728, 3.1017453326443696, 2.5956944969530014, 1.9370850952209435, 0, 0, 0, 0, 0, 0, 0, 0, 0.0032374949660152197, -0.023615572601556778, 0.9996911287307739, -0.0738140195608139, -0.0583399273455143, -0.18621423840522766
99463, 0.006147789768874645, 0.0013353240210562944, -0.002206928562372923, 0.0008678951999172568, -0.004310091026127338, 0.00015969137893989682, 0.009059395641088486, -0.045336101204156876, 0.0014329587575048208, -2.947295665740967, -3.060844659805298, 0.013237668201327324, -0.43607327622266856, 3.013790574248077, 1.9894690645896818, 0, 0, 0, 0, 0, 0, 0, 0, 0.005726842675358057, -0.024493850767612457, 1.0022872686386108, 0.008018078282475471, -0.1756359040737152, 0.08086662739515305
99473, 0.0063003478571772575, 0.0020408134441822767, -0.001872814493253827, 0.0009609123226255178, -0.00477620679885149, 0.00017460755771026015, 0.009544041939079762, -0.047887030988931656, 0.001550673390738666, -2.9467813968658447, -3.06037974357605, 0.009875944815576077, 3.598751679355046, 1.9993196433724165, 2.491120820484279, 0, 0, 0, 0, 0, 0, 0, 0, 0.00404655747115612, -0.02565491944551468, 1.0000782012939453, 0.11214601993560791, 0.05861698463559151, -0.0413614846765995
99483, 0.005494080018252134, 0.002128624590113759, -0.0015957996947690845, 0.0010582094546407461, -0.00526727270334959, 0.00019020528998225927, 0.00991540402173996, -0.05032613128423691, 0.0015693173045292497, -2.945748805999756, -3.0587029457092285, 0.010261273942887783, -4.89173690636673, 1.201504894602806, 0.9667273397396323, 0, 0, 0, 0, 0, 0, 0, 0, 0.004628065973520279, -0.024673471227288246, 1.0007030963897705, 0.025492971763014793, -0.1837960034608841, -7.406732765957713e-05
99493, 0.005111297592520714, 0.0030726115219295025, -0.002364350715652108, 0.001159847597591579, -0.00578292878344655, 0.00020647590281441808, 0.010412187315523624, -0.052805095911026, 0.0016852251719683409, -2.9483397006988525, -3.0610203742980957, 0.016165602952241898, 2.810168915658425, 2.732579576811901, 2.764926179661413, 0, 0, 0, 0, 0, 0, 0, 0, 0.0049683647230267525, -0.02573646977543831, 1.0014114379882812, 0.18459686636924744, -0.14016123116016388, -0.13519825041294098
99503, 0.0060288202948868275, 0.0034222069662064314, -0.003134136786684394, 0.001265635248273611, -0.0063234968110919, 0.00022377556888386607, 0.010745304636657238, -0.055308520793914795, 0.0017750735860317945, -2.9477860927581787, -3.0609731674194336, 0.014672761783003807, 5.452644346688301, -1.7903592541860576, 2.7208287474904815, 0, 0, 0, 0, 0, 0, 0, 0, 0.0023333849385380745, -0.02436499483883381, 0.999475359916687, -0.15057548880577087, 0.030101768672466278, -0.08775115013122559
99513, 0.00563468923792243, 0.0027346399147063494, -0.0038136590737849474, 0.001374406972900033, -0.006888403557240963, 0.00024013727670535445, 0.011009003035724163, -0.05767280235886574, 0.001497690100222826, -2.9486007690429688, -3.0609354972839355, 0.01726996898651123, 0.7406435938579308, 0.8680606478762627, 2.4845791342092167, 0, 0, 0, 0, 0, 0, 0, 0, 0.0036081562284380198, -0.024353107437491417, 0.9956873059272766, 0.18743173778057098, 0.025237126275897026, -0.16703888773918152
99523, 0.0062697590328752995, 0.003074538428336382, -0.0037068440578877926, 0.0014867892023175955, -0.0074777789413928986, 0.0002539189299568534, 0.011467465199530125, -0.060202255845069885, 0.0012590166879817843, -2.947288751602173, -3.0608325004577637, 0.013253618031740189, -0.4414181517831711, 3.0226233167383043, 1.9926890935058923, 0, 0, 0, 0, 0, 0, 0, 0, 0.005544512532651424, -0.025641148909926414, 1.0003023147583008, 0.21240513026714325, -0.17267391085624695, 0.15425492823123932
99533, 0.007020439486950636, 0.0036437048111110926, -0.00337722385302186, 0.0016038506291806698, -0.008092162199318409, 0.00026754982536658645, 0.0119448471814394, -0.06267441064119339, 0.0014675228158012033, -2.9474949836730957, -3.0616488456726074, 0.013591456227004528, 7.072535134914715, -0.5336000820111337, 3.4485323276257405, 0, 0, 0, 0, 0, 0, 0, 0, 0.004592149518430233, -0.024275796487927437, 1.0026577711105347, 0.057136520743370056, 0.14913681149482727, 0.14801137149333954
99543, 0.007125264499336481, 0.001260531833395362, -0.0037536027375608683, 0.0017261728644371033, -0.008730425499379635, 0.0002829821314662695, 0.012519590556621552, -0.06497831642627716, 0.0016193093033507466, -2.9482581615448, -3.0608136653900146, 0.01628892309963703, 2.682634970082834, 2.61605650322187, 2.598118135593577, 0, 0, 0, 0, 0, 0, 0, 0, 0.005648688413202763, -0.023082008585333824, 1.000338077545166, 0.029312435537576675, 0.13258793950080872, -0.030993014574050903
99553, 0.007306021638214588, 0.0011286454973742366, -0.00393682112917304, 0.0018537517171353102, -0.009391985833644867, 0.00029930484015494585, 0.012996177189052105, -0.06733377277851105, 0.0016456193989142776, -2.9485855102539062, -3.0609171390533447, 0.01730204187333584, 0.7844194779562554, 0.896658955447549, 2.479742861281676, 0, 0, 0, 0, 0, 0, 0, 0, 0.004234295338392258, -0.023648064583539963, 0.9995483160018921, -0.07889658957719803, 0.017973780632019043, -0.04252397641539574
99563, 0.00651125842705369, 0.0011390522122383118, -0.004071034956723452, 0.001986150396987796, -0.010076395235955715, 0.0003148888936266303, 0.013483548536896706, -0.06954820454120636, 0.00147162820212543, -2.9483485221862793, -3.0610313415527344, 0.016094857826828957, 2.8432026280169347, 2.8058939296606127, 2.7892609912036055, 0, 0, 0, 0, 0, 0, 0, 0, 0.005993738770484924, -0.023091675713658333, 0.9982242584228516, -0.0536569319665432, -0.08462145179510117, -0.11030709743499756
99573, 0.006412177812308073, 0.0011683172779157758, -0.005461069755256176, 0.0021241058129817247, -0.010783351957798004, 0.00032957986695691943, 0.01410749927163124, -0.07184327393770218, 0.0014669798547402024, -2.948601722717285, -3.0609335899353027, 0.017261851578950882, 0.7777386093124764, 0.9589207558352371, 2.454374993487197, 0, 0, 0, 0, 0, 0, 0, 0, 0.005865893792361021, -0.02258966863155365, 1.0006483793258667, -0.14683975279331207, 0.07982660084962845, -0.07338537275791168
99583, 0.006256094202399254, -0.0007699484704062343, -0.004492307547479868, 0.002267691073939204, -0.011512495577335358, 0.0003435387625358999, 0.014609569683670998, -0.07398547977209091, 0.0013251790078356862, -2.9475111961364746, -3.061627149581909, 0.01361538004130125, 6.994720282261415, -0.5385507344812481, 3.4469216263853326, 0, 0, 0, 0, 0, 0, 0, 0, 0.0046546789817512035, -0.02159198187291622, 0.9973350167274475, -0.2385047972202301, 0.296075701713562, 0.05727342143654823
99593, 0.005837464705109596, -0.0021025496535003185, -0.0040718866512179375, 0.0024160523898899555, -0.012264038436114788, 0.00035609188489615917, 0.015062726102769375, -0.07632303237915039, 0.0011858490761369467, -2.9482593536376953, -3.0607709884643555, 0.016245130449533463, 2.636792631853018, 2.66224909987929, 2.6095397767098323, 0, 0, 0, 0, 0, 0, 0, 0, 0.004827136639505625, -0.02576678991317749, 0.9993022680282593, -0.06791721284389496, 0.09377710521221161, -0.007223846856504679
99603, 0.005718050058931112, -0.0012133298441767693, -0.004416503012180328, 0.00256875017657876, -0.013039957731962204, 0.0003673385945148766, 0.015476846136152744, -0.07886088639497757, 0.00106390833389014, -2.9483227729797363, -3.061020851135254, 0.016134273260831833, 2.896052012247009, 2.790499389500809, 2.7736109375818234, 0, 0, 0, 0, 0, 0, 0, 0, 0.003533115377649665, -0.025680989027023315, 0.9988381862640381, 0.051587264984846115, 0.11510641872882843, 0.10217836499214172
99613, 0.006476392969489098, -0.00046317081432789564, -0.004149380140006542, 0.0027255918830633163, -0.01384065393358469, 0.00037781568244099617, 0.015891535207629204, -0.08127841353416443, 0.0010318807326257229, -2.948256492614746, -3.0607857704162598, 0.016281956806778908, 2.6391573960676378, 2.566298264542098, 2.616124917827769, 0, 0, 0, 0, 0, 0, 0, 0, 0.004566103219985962, -0.023868313059210777, 1.0000524520874023, 0.1200442686676979, -0.2263999730348587, -0.06667021661996841
99623, 0.007076052948832512, 0.0011308642569929361, -0.004064308479428291, 0.0028870312962681055, -0.014665452763438225, 0.0003885035985149443, 0.016396349295973778, -0.08368135243654251, 0.0011060856049880385, -2.9477899074554443, -3.060967206954956, 0.014676515012979507, 5.448788417314968, -1.8226647420662516, 2.7236601948398724, 0, 0, 0, 0, 0, 0, 0, 0, 0.005463034380227327, -0.024359196424484253, 1.0019829273223877, -0.1454416662454605, -0.162192240357399, -0.09101884067058563
99633, 0.006683011073619127, 0.001263900543563068, -0.0048333341255784035, 0.0030537780839949846, -0.01551428996026516, 0.0004004822694696486, 0.016952969133853912, -0.08608601987361908, 0.0012900767615064979, -2.9483420848846436, -3.0610170364379883, 0.016132675111293793, 2.7935497844464114, 2.791316547527657, 2.7763368500663543, 0, 0, 0, 0, 0, 0, 0, 0, 0.005923421587795019, -0.024744778871536255, 1.0013188123703003, 0.10120425373315811, -0.040836483240127563, 0.05256608501076698
99643, 0.008411813527345657, 0.0016754567623138428, -0.004220217000693083, 0.003226003609597683, -0.01638767309486866, 0.00041403359500691295, 0.017492147162556648, -0.08859051018953323, 0.0014205233892425895, -2.946728467941284, -3.06099534034729, 0.010991825722157955, 0.9036929580971662, -0.41172313355826873, 1.9834629289287564, 0, 0, 0, 0, 0, 0, 0, 0, 0.005237205885350704, -0.025721170008182526, 1.0017688274383545, -0.027862293645739555, 0.25323978066444397, 0.045362040400505066
99653, 0.009116869419813156, 0.0011321711353957653, -0.004389580339193344, 0.0034036191646009684, -0.017285361886024475, 0.00042916787788271904, 0.01803096942603588, -0.09094718843698502, 0.0016067082760855556, -2.946728467941284, -3.06099534034729, 0.010991825722157955, 0.9036929580971662, -0.41172313355826873, 1.9834629289287564, 0, 0, 0, 0, 0, 0, 0, 0, 0.0057922727428376675, -0.02240690030157566, 1.001961350440979, 0.037307120859622955, -0.1357705444097519, -0.09127190709114075
99663, 0.008590435609221458, 0.0018658505287021399, -0.004591007716953754, 0.003586619859561324, -0.01820625551044941, 0.0004463395453058183, 0.01856914721429348, -0.0932314544916153, 0.0018280710792168975, -2.944646120071411, -3.058572292327881, -0.0004719384014606476, 10.091716260974103, 23.14079951314895, 4.047901725840083, 0, 0, 0, 0, 0, 0, 0, 0, 0.004723645746707916, -0.024075478315353394, 1.001936912536621, -0.057320114225149155, 0.1567150056362152, 0.06766106933355331
99673, 0.008814873173832893, 0.0021595058497041464, -0.005035022273659706, 0.00377454049885273, -0.019151095300912857, 0.00046486634528264403, 0.019014954566955566, -0.09573649615049362, 0.0018776991637423635, -2.9472968578338623, -3.0598742961883545, 0.014878222718834877, -0.5626308191405819, 1.031010542166399, 2.2451956781773044, 0, 0, 0, 0, 0, 0, 0, 0, 0.004401785787194967, -0.02665034495294094, 0.999816358089447, 0.002820937894284725, 0.1219673901796341, 0.15817490220069885
99683, 0.009233660995960236, 0.0026781170163303614, -0.004146686755120754, 0.003967280499637127, -0.02012086845934391, 0.00048356741899624467, 0.019533097743988037, -0.09821806102991104, 0.0018629184924066067, -2.9483463764190674, -3.061021327972412, 0.01613871566951275, 2.8064162957735928, 2.7028708328461732, 2.7834275744093575, 0, 0, 0, 0, 0, 0, 0, 0, 0.005573126953095198, -0.02431982010602951, 1.0002634525299072, 0.07465384900569916, -0.030127564445137978, -0.0495404414832592
99693, 0.011000418104231358, 0.002562516601756215, -0.004072458017617464, 0.00416580680757761, -0.021114660426974297, 0.0005019871168769896, 0.02017221599817276, -0.10054018348455429, 0.0018213611328974366, -2.9482452869415283, -3.060774326324463, 0.016243990510702133, 2.6108329187583452, 2.5876243730254203, 2.6229575143959996, 0, 0, 0, 0, 0, 0, 0, 0, 0.007490600924938917, -0.022632159292697906, 0.9992229342460632, 0.11669957637786865, -0.12888021767139435, 0.08122702687978745
99703, 0.01191998552531004, 0.0033504057209938765, -0.004725787788629532, 0.004371077287942171, -0.022130653262138367, 0.0005199725273996592, 0.020881883800029755, -0.10265828669071198, 0.0017761180642992258, -2.947516918182373, -3.0616023540496826, 0.013557134196162224, 7.0167476595284075, -0.505121120402265, 3.434148624416165, 0, 0, 0, 0, 0, 0, 0, 0, 0.005908752791583538, -0.02166992798447609, 0.9998407959938049, 0.18527530133724213, -0.011918681673705578, -0.2994212210178375
99713, 0.012651842087507248, 0.0031249066814780235, -0.006104977335780859, 0.0045827156864106655, -0.023168258368968964, 0.0005379702197387815, 0.02144576981663704, -0.10486291348934174, 0.0018238010816276073, -2.9464313983917236, -3.0612668991088867, 0.009411629289388657, 5.204679586700273, 2.0977453286399736, 2.9964911753859176, 0, 0, 0, 0, 0, 0, 0, 0, 0.006051361560821533, -0.02297995798289776, 1.0003210306167603, 0.22244329750537872, -0.3000833988189697, -0.20019569993019104
99723, 0.015397150069475174, 0.004178642760962248, -0.006319649983197451, 0.004799860995262861, -0.02422853745520115, 0.0005558230332098901, 0.021983293816447258, -0.10719277709722519, 0.0017470766324549913, -2.9464313983917236, -3.0612668991088867, 0.009411629289388657, 5.204679586700273, 2.0977453286399736, 2.9964911753859176, 0, 0, 0, 0, 0, 0, 0, 0, 0.00504249706864357, -0.023821773007512093, 0.9988345503807068, -0.12117965519428253, 0.2912960648536682, 0.13299837708473206
99733, 0.015006103552877903, 0.0020727349910885096, -0.005740990396589041, 0.005022366531193256, -0.025312388315796852, 0.0005730396369472146, 0.02251785434782505, -0.10957740992307663, 0.0016966686816886067, -2.94742488861084, -3.060086965560913, 0.012286852113902569, -0.12347810384334444, 4.66264301034164, 1.8515218270833158, 0, 0, 0, 0, 0, 0, 0, 0, 0.005405305419117212, -0.024079279974102974, 1.0008044242858887, 0.09071017801761627, 0.10832231491804123, -0.14545249938964844
99743, 0.015685131773352623, 0.002076572272926569, -0.006122049409896135, 0.00524957524612546, -0.026420123875141144, 0.0005906461155973375, 0.022923866286873817, -0.11196983605623245, 0.0018250206485390663, -2.9475111961364746, -3.061630964279175, 0.013624396175146103, 7.0667595966057, -0.45920407343271563, 3.4382162362458857, 0, 0, 0, 0, 0, 0, 0, 0, 0.002841324545443058, -0.024869292974472046, 1.000809669494629, 0.10788362473249435, -0.3093753755092621, -0.10269172489643097
99753, 0.01620040275156498, 0.0035625204909592867, -0.005877943243831396, 0.005480763968080282, -0.027552414685487747, 0.0006096148863434792, 0.023313909769058228, -0.11448843777179718, 0.0019691349007189274, -2.948579788208008, -3.0609278678894043, 0.01731744222342968, 0.7778089417717798, 0.9046051754200164, 2.4716120079604336, 0, 0, 0, 0, 0, 0, 0, 0, 0.005183908622711897, -0.025230685248970985, 1.0017012357711792, 0.1099027544260025, 0.1298743039369583, -0.11372389644384384
99763, 0.016617780551314354, 0.003701364854350686, -0.0057902284897863865, 0.005716967862099409, -0.028709763661026955, 0.0006295264465734363, 0.02392692118883133, -0.1169814020395279, 0.0020135727245360613, -2.9483449459075928, -3.0610201358795166, 0.016134843230247498, 2.8289459169826343, 2.8120153560740846, 2.7884650695854263, 0, 0, 0, 0, 0, 0, 0, 0, 0.00635168980807066, -0.024579012766480446, 0.999931812286377, 0.01928909495472908, 0.16661009192466736, -0.06494726240634918
99773, 0.016728244721889496, 0.0036093932576477528, -0.00587819516658783, 0.005958877969533205, -0.029891641810536385, 0.0006492974353022873, 0.024455102160573006, -0.11939439177513123, 0.00194103445392102, -2.948263168334961, -3.060790777206421, 0.016193080693483353, 2.6415457521274432, 2.5857751054167295, 2.6215288900603144, 0, 0, 0, 0, 0, 0, 0, 0, 0.005065219476819038, -0.02421524189412594, 0.9979614019393921, -0.11218161135911942, 0.2063758224248886, 0.12056872993707657
99783, 0.016801699995994568, 0.003032195847481489, -0.005486088339239359, 0.0062055825255811214, -0.031097419559955597, 0.0006674739997833967, 0.024885794147849083, -0.12176116555929184, 0.0016946967225521803, -2.9477810859680176, -3.0609607696533203, 0.01466011069715023, 5.494947844509264, -1.8492778044545162, 2.7029478372011395, 0, 0, 0, 0, 0, 0, 0, 0, 0.004656168632209301, -0.0231070164591074, 0.9980964660644531, 0.0677441731095314, 0.27380216121673584, -0.001285940408706665
99793, 0.017404377460479736, 0.0022486476227641106, -0.005622571334242821, 0.006456822622567415, -0.032326795160770416, 0.0006845456664450467, 0.02536226622760296, -0.12411409616470337, 0.0017200344009324908, -2.947509288787842, -3.061641216278076, 0.01356444414705038, 7.050684945949874, -0.5172132572080272, 3.439273437815543, 0, 0, 0, 0, 0, 0, 0, 0, 0.0048417882062494755, -0.023931648582220078, 1.0016781091690063, -0.2315937727689743, 0.14513888955116272, -0.014425608329474926
99803, 0.016847815364599228, 0.001511111157014966, -0.006637536454945803, 0.0067124683409929276, -0.03357979282736778, 0.0007022239733487368, 0.025766810402274132, -0.12648563086986542, 0.0018160600448027253, -2.947521686553955, -3.0616564750671387, 0.013533550314605236, 7.036807939921532, -0.5121456904501827, 3.454342368400204, 0, 0, 0, 0, 0, 0, 0, 0, 0.003682813374325633, -0.024730468168854713, 0.9994304180145264, -0.027651451528072357, 0.2371932417154312, -0.05104814097285271
99813, 0.017088737338781357, -0.0008349452400580049, -0.006732411216944456, 0.006972461473196745, -0.03485707566142082, 0.0007199281244538724, 0.026231860741972923, -0.12897108495235443, 0.0017251746030524373, -2.947507381439209, -3.0616466999053955, 0.013588493689894676, 7.031446431260381, -0.5936068756226973, 3.4560080256478827, 0, 0, 0, 0, 0, 0, 0, 0, 0.006005698349326849, -0.024615958333015442, 1.0006568431854248, -0.04379493370652199, 0.18534576892852783, 0.10012001544237137
99823, 0.01776058040559292, -0.0014068263117223978, -0.006980514153838158, 0.0072370246052742004, -0.03615890070796013, 0.0007376261055469513, 0.02668078802525997, -0.13139401376247406, 0.0018148379167541862, -2.9477920532226562, -3.060976982116699, 0.01472504809498787, 5.495488901321351, -1.8086241681897661, 2.697778345621375, 0, 0, 0, 0, 0, 0, 0, 0, 0.0024796538054943085, -0.02488188073039055, 1.0009868144989014, 0.01415481511503458, 0.03389427810907364, -0.14564310014247894
99833, 0.018629534170031548, -0.0006865171017125249, -0.007798699662089348, 0.007505000103265047, -0.037484608590602875, 0.0007562055252492428, 0.02691432647407055, -0.1337476521730423, 0.0019014462595805526, -2.9475293159484863, -3.0616471767425537, 0.013602807186543941, 6.990587434901248, -0.47748633006023056, 3.4547258848009044, 0, 0, 0, 0, 0, 0, 0, 0, 0.004047551658004522, -0.022458720952272415, 1.000702142715454, -0.05632246658205986, 0.17989225685596466, 0.12614722549915314
99843, 0.018319884315133095, -0.001198966521769762, -0.008092721924185753, 0.007776732090860605, -0.03883335739374161, 0.0007753209210932255, 0.027432050555944443, -0.13600242137908936, 0.0019220709800720215, -2.948594570159912, -3.060950994491577, 0.0172442477196455, 0.742813221790515, 0.877064791980672, 2.4628072283514078, 0, 0, 0, 0, 0, 0, 0, 0, 0.007112868595868349, -0.02277343161404133, 1.0002645254135132, -0.10778577625751495, -0.1060701385140419, -0.16748659312725067
99853, 0.01865854673087597, -0.000510577519889921, -0.008854981511831284, 0.008054560981690884, -0.04020441696047783, 0.0007947026751935482, 0.028133809566497803, -0.13820920884609222, 0.001954707084223628, -2.9482762813568115, -3.0607833862304688, 0.01626685820519924, 2.7139859672210602, 2.5409925831814633, 2.6213929082939993, 0, 0, 0, 0, 0, 0, 0, 0, 0.006153074558824301, -0.021916452795267105, 1.0015515089035034, -0.01132113765925169, -0.19831259548664093, -0.028069090098142624
99863, 0.018071649596095085, -0.00043079734314233065, -0.008851277641952038, 0.008338360115885735, -0.041597962379455566, 0.0008147876360453665, 0.028626086190342903, -0.1404995620250702, 0.002062741667032242, -2.9483509063720703, -3.061002492904663, 0.016053667291998863, 2.734887028230973, 2.772714314661471, 2.7780968005300224, 0, 0, 0, 0, 0, 0, 0, 0, 0.004012459889054298, -0.023128634318709373, 0.9996709823608398, -0.1553347110748291, 0.2832528054714203, 0.2076456993818283
99873, 0.018489651381969452, -0.0020945039577782154, -0.008259202353656292, 0.00862693041563034, -0.04301419481635094, 0.0008352300501428545, 0.029088107869029045, -0.14274661242961884, 0.0020261427853256464, -2.9474940299987793, -3.0616238117218018, 0.013483718037605286, 7.014178738924678, -0.5429328886250175, 3.450746764288306, 0, 0, 0, 0, 0, 0, 0, 0, 0.0049499585293233395, -0.022806890308856964, 0.999783456325531, 0.06433799862861633, -0.22864528000354767, -0.028280971571803093
99883, 0.01821301504969597, -0.0013584569096565247, -0.00769738620147109, 0.008920365013182163, -0.044453829526901245, 0.000855557678733021, 0.029598915949463844, -0.14518031477928162, 0.002039827173575759, -2.94669771194458, -3.061022996902466, 0.010946312919259071, 0.7334170275897853, -0.353748395570193, 1.9365719951410671, 0, 0, 0, 0, 0, 0, 0, 0, 0.005775075871497393, -0.02547825686633587, 0.9997358322143555, 0.047526609152555466, 0.117869533598423, -0.03529199957847595
99893, 0.019165264442563057, -0.0022640812676399946, -0.0072124251164495945, 0.009219575673341751, -0.04591825231909752, 0.0008752320427447557, 0.03024323284626007, -0.14770391583442688, 0.0018954275874421, -2.948357105255127, -3.0610275268554688, 0.016155961900949478, 2.80907395539522, 2.7785069912403344, 2.7660302086784503, 0, 0, 0, 0, 0, 0, 0, 0, 0.006566685624420643, -0.024669503793120384, 0.99859219789505, 0.05315712094306946, 0.12252332270145416, 0.011526323854923248
99903, 0.02010175585746765, -0.0028936080634593964, -0.007324941456317902, 0.009525257162749767, -0.04740709811449051, 0.0008939554099924862, 0.030893027782440186, -0.1500648856163025, 0.0018496469128876925, -2.9482905864715576, -3.0611722469329834, 0.01971876248717308, -8.033071090960549, 14.218404236875074, 0.44037469433740345, 0, 0, 0, 0, 0, 0, 0, 0, 0.006531289778649807, -0.02482336014509201, 1.0000258684158325, 0.03395744785666466, -0.13943611085414886, -0.19767186045646667
99913, 0.020930524915456772, -0.0027663372457027435, -0.007545340806245804, 0.009836852550506592, -0.048920340836048126, 0.0009127677767537534, 0.031426120549440384, -0.1525837481021881, 0.0019132269080728292, -2.948239326477051, -3.060772657394409, 0.016252072528004646, 2.6502692466427455, 2.6314979338346802, 2.61081338626812, 0, 0, 0, 0, 0, 0, 0, 0, 0.005379879847168922, -0.02523914910852909, 1.000698447227478, 0.2252662181854248, -0.043542906641960144, 0.03356373310089111
99923, 0.021147754043340683, -0.00479566166177392, -0.007158620748668909, 0.010154022835195065, -0.05045898258686066, 0.0009323398699052632, 0.03200801461935043, -0.15514446794986725, 0.002001621061936021, -2.948319435119629, -3.0610389709472656, 0.016206152737140656, 2.863248815277878, 2.7886698873099647, 2.774828075763077, 0, 0, 0, 0, 0, 0, 0, 0, 0.005977727007120848, -0.025986522436141968, 1.0009301900863647, 0.009369740262627602, 0.2899176776409149, 0.08784753084182739
99933, 0.021611666306853294, -0.0042645493522286415, -0.007178925909101963, 0.010477006435394287, -0.05202304571866989, 0.000953103881329298, 0.032588761299848557, -0.15766838192939758, 0.0021516100969165564, -2.948417901992798, -3.0605220794677734, 0.016594039276242256, 1.993504679402843, 1.990185965247008, 2.379330824455656, 0, 0, 0, 0, 0, 0, 0, 0, 0.005324956029653549, -0.02418651431798935, 1.0016039609909058, 0.1545756757259369, -0.07134298980236053, -0.06660665571689606
99943, 0.022444836795330048, -0.00437928969040513, -0.007481792476028204, 0.010805321857333183, -0.05361155420541763, 0.0009750070166774094, 0.03307441622018814, -0.1600336879491806, 0.0022294502705335617, -2.947793960571289, -3.060972213745117, 0.014667931944131851, 5.501366466070978, -1.8147375729297153, 2.7101698085295274, 0, 0, 0, 0, 0, 0, 0, 0, 0.004479781724512577, -0.023769445717334747, 1.0000450611114502, 0.10571853071451187, -0.1159280464053154, 0.020641613751649857
99953, 0.023131346330046654, -0.0037011823151260614, -0.008116052486002445, 0.011138468980789185, -0.05522347614169121, 0.0009972904808819294, 0.033554986119270325, -0.16235099732875824, 0.002227677730843425, -2.9483344554901123, -3.061004400253296, 0.01614861562848091, 2.81286565770751, 2.774523855816625, 2.784350341134728, 0, 0, 0, 0, 0, 0, 0, 0, 0.005291599780321121, -0.023413093760609627, 1.0001662969589233, -0.012316074222326279, -0.01544974371790886, 0.07245048135519028
99963, 0.02335701882839203, -0.004369862377643585, -0.008197534829378128, 0.011476689018309116, -0.05685942992568016, 0.0010200177785009146, 0.03408895805478096, -0.1648399978876114, 0.002318206476047635, -2.948833703994751, -3.061213970184326, 0.01972085051238537, -3.191350106370058, 7.76366201673477, 1.797235104643941, 0, 0, 0, 0, 0, 0, 0, 0, 0.005246329586952925, -0.025648219510912895, 1.0014777183532715, -0.2174679934978485, 0.13988612592220306, 0.028711462393403053
99973, 0.022685669362545013, -0.004671968519687653, -0.00742520485073328, 0.011820653453469276, -0.0585208386182785, 0.0010434288997203112, 0.03470401093363762, -0.1674415022134781, 0.002364496234804392, -2.947805166244507, -3.0609700679779053, 0.014705703593790531, 5.468165243269953, -1.7828284974280564, 2.7272899758635774, 0, 0, 0, 0, 0, 0, 0, 0, 0.006972228642553091, -0.025960398837924004, 1.0001113414764404, 0.02259448915719986, -0.09643930196762085, -0.012384279631078243
99983, 0.023610053583979607, -0.0037177950143814087, -0.00814289040863514, 0.012171067297458649, -0.06020740047097206, 0.0010675699450075626, 0.03537873178720474, -0.16987071931362152, 0.002464157762005925, -2.9488322734832764, -3.06119441986084, 0.01958255097270012, -3.189293965928907, 7.598662439110996, 1.8330063349029393, 0, 0, 0, 0, 0, 0, 0, 0, 0.0061057014390826225, -0.02278703637421131, 1.0012946128845215, 0.07106804847717285, -0.11557506769895554, -0.009297870099544525
99993, 0.02468227967619896, -0.002667976077646017, -0.0075937299989163876, 0.012527069076895714, -0.06191744655370712, 0.00109301065094769, 0.03582170233130455, -0.17213845252990723, 0.002624418353661895, -2.948333501815796, -3.0610246658325195, 0.016119278967380524, 2.749505515160169, 2.7244355041632673, 2.7908414527446217, 0, 0, 0, 0, 0, 0, 0, 0, 0.003333608852699399, -0.022701092064380646, 1.0015239715576172, 0.03188423439860344, 0.07431907206773758, 0.09786055237054825
100003, 0.02487068809568882, -0.004409339278936386, -0.007220315746963024, 0.012886670418083668, -0.0636502355337143, 0.0011200641747564077, 0.03609853237867355, -0.1744195818901062, 0.0027867411263287067, -2.9485743045806885, -3.0609500408172607, 0.017279930412769318, 0.7657839296443418, 0.9037265951140228, 2.471501822895582, 0, 0, 0, 0, 0, 0, 0, 0, 0.0037384245079010725, -0.023768749088048935, 1.0024375915527344, 0.08699841797351837, 0.02145623043179512, -0.03671497106552124
100013, 0.025214707478880882, -0.004395254421979189, -0.007974798791110516, 0.013250354677438736, -0.06540646404027939, 0.0011488045565783978, 0.03663824498653412, -0.17682629823684692, 0.002961808582767844, -2.9482665061950684, -3.0607869625091553, 0.016246484592556953, 2.6520754947141207, 2.597384702108201, 2.6092073364397192, 0, 0, 0, 0, 0, 0, 0, 0, 0.00597038958221674, -0.023356521502137184, 1.000983476638794, -0.21857063472270966, 0.17579856514930725, 0.12955397367477417
100023, 0.024936730042099953, -0.005387928336858749, -0.007609304040670395, 0.013619366101920605, -0.06718629598617554, 0.0011783207301050425, 0.037164077162742615, -0.1791396588087082, 0.0029419155325740576, -2.9482665061950684, -3.0607869625091553, 0.016246484592556953, 2.6520754947141207, 2.597384702108201, 2.6092073364397192, 0, 0, 0, 0, 0, 0, 0, 0, 0.0049890680238604546, -0.023410867899656296, 0.998826265335083, 0.18267743289470673, -0.23247304558753967, -0.04116896539926529
100033, 0.025152774527668953, -0.004615157842636108, -0.008917839266359806, 0.01399318315088749, -0.06898988038301468, 0.0012073315447196364, 0.03759939968585968, -0.18157733976840973, 0.002860723063349724, -2.9478020668029785, -3.060955047607422, 0.014687644317746162, 5.374614457793868, -1.8359574528513178, 2.708735080244826, 0, 0, 0, 0, 0, 0, 0, 0, 0.00438173022121191, -0.02488807402551174, 0.9999243021011353, -0.15144221484661102, -0.07856201380491257, -0.08056771010160446
100043, 0.025027796626091003, -0.003541874699294567, -0.008697154931724072, 0.014371346682310104, -0.0708179697394371, 0.0012359492247924209, 0.03803339600563049, -0.18404051661491394, 0.0028632909525185823, -2.9475014209747314, -3.0616366863250732, 0.013605288229882717, 7.012498029699741, -0.5011060562235343, 3.4323874553965408, 0, 0, 0, 0, 0, 0, 0, 0, 0.0035630580969154835, -0.02376657910645008, 0.9997210502624512, 0.08542114496231079, -0.29953157901763916, 0.21083515882492065
100053, 0.02568533457815647, -0.0018493144307285547, -0.008772757835686207, 0.014753683470189571, -0.07267002761363983, 0.0012647061375901103, 0.03843395411968231, -0.1863715499639511, 0.002888543764129281, -2.948268413543701, -3.0607755184173584, 0.016238799318671227, 2.5985704278818127, 2.6209394131360284, 2.6191430042037442, 0, 0, 0, 0, 0, 0, 0, 0, 0.004022841341793537, -0.022875238209962845, 1.0005837678909302, -0.033875737339258194, -0.06782129406929016, -0.07460449635982513
100063, 0.024879684671759605, -0.0018722137901932001, -0.009163104929029942, 0.015140291303396225, -0.07454520463943481, 0.001294109970331192, 0.03888765349984169, -0.18866388499736786, 0.00299272988922894, -2.9477736949920654, -3.06097674369812, 0.014635329134762287, 5.469972072483543, -1.818248315602375, 2.7089881794779944, 0, 0, 0, 0, 0, 0, 0, 0, 0.004201826173812151, -0.023728875443339348, 1.0018346309661865, -0.00798476580530405, -0.056666143238544464, -0.12788833677768707
100073, 0.02568594180047512, -0.001381431706249714, -0.008852115832269192, 0.015531192533671856, -0.07644404470920563, 0.0013248783070594072, 0.039292629808187485, -0.1911042034626007, 0.0031613705214112997, -2.947309732437134, -3.060849905014038, 0.013258860446512699, -0.44989337522400275, 3.0579038643388685, 1.9833955024719383, 0, 0, 0, 0, 0, 0, 0, 0, 0.00523004587739706, -0.02469518780708313, 1.0014209747314453, -0.045268330723047256, 0.0035976702347397804, 0.1308121532201767
100083, 0.025503480806946754, -0.0009151946287602186, -0.009289812296628952, 0.015926359221339226, -0.07836697995662689, 0.0013574023032560945, 0.03974055126309395, -0.19348350167274475, 0.003343913471326232, -2.9483160972595215, -3.061033248901367, 0.016176005825400352, 2.8421601954474762, 2.744502772429911, 2.776417432544161, 0, 0, 0, 0, 0, 0, 0, 0, 0.003432253375649452, -0.023302190005779266, 1.0020802021026611, 0.12064521759748459, 0.0015816133236512542, -0.058056481182575226
100093, 0.026633724570274353, -0.001407047500833869, -0.009046264924108982, 0.0163253303617239, -0.08031340688467026, 0.0013917852193117142, 0.040053706616163254, -0.19580143690109253, 0.0035330902319401503, -2.9483542442321777, -3.0610241889953613, 0.016134129837155342, 2.818475883537283, 2.7598338991026594, 2.769004566746845, 0, 0, 0, 0, 0, 0, 0, 0, 0.004090550821274519, -0.023751188069581985, 1.0020302534103394, -0.003677691798657179, 0.06177278980612755, 0.05626804009079933
100103, 0.027220509946346283, -0.00015177125169429928, -0.00894903764128685, 0.016727808862924576, -0.08228356391191483, 0.0014280835166573524, 0.04044221341609955, -0.19823019206523895, 0.00372704048641026, -2.9483444690704346, -3.0610313415527344, 0.01612083613872528, 2.832987839251873, 2.769583334341746, 2.7651659678120644, 0, 0, 0, 0, 0, 0, 0, 0, 0.0037244681734591722, -0.024136893451213837, 1.0016778707504272, 0.0028231272008270025, -0.3151960074901581, -0.31997865438461304
100113, 0.02682608552277088, 0.0005855444469489157, -0.010353708639740944, 0.017134184017777443, -0.0842781513929367, 0.0014655899722129107, 0.04083263874053955, -0.20068807899951935, 0.003774752374738455, -2.94781756401062, -3.0609920024871826, 0.014664565213024616, 5.446949610148067, -1.8122146037433708, 2.7138406007538096, 0, 0, 0, 0, 0, 0, 0, 0, 0.004164506681263447, -0.024514513090252876, 0.9996185302734375, 0.0026559445541352034, 0.06026338040828705, 0.07004056125879288
100123, 0.026496656239032745, 0.0008293332648463547, -0.00942568201571703, 0.017545228824019432, -0.08629721403121948, 0.0015037697739899158, 0.0413762629032135, -0.20312394201755524, 0.003861702047288418, -2.947506904602051, -3.06164813041687, 0.01355187688022852, 6.996777299149667, -0.47832314147271404, 3.44984493889978, 0, 0, 0, 0, 0, 0, 0, 0, 0.006545755080878735, -0.02436310052871704, 1.000983476638794, -0.0268601905554533, 0.05118501931428909, -0.10500933229923248
100133, 0.026702038943767548, 0.0006841546855866909, -0.009863453917205334, 0.01796216145157814, -0.08834055066108704, 0.0015419942792505026, 0.04201038181781769, -0.20554302632808685, 0.003783660475164652, -2.948241949081421, -3.060791015625, 0.016260933130979538, 2.6304085419991816, 2.5410529849244483, 2.602097361292303, 0, 0, 0, 0, 0, 0, 0, 0, 0.005803962703794241, -0.023293569684028625, 0.9994626045227051, 0.04062868654727936, -0.16019389033317566, 0.13743792474269867
100143, 0.027315737679600716, 0.00018523249309509993, -0.009344731457531452, 0.01838480494916439, -0.09040767699480057, 0.0015804050490260124, 0.042518313974142075, -0.20788247883319855, 0.0038989540189504623, -2.9482614994049072, -3.060777425765991, 0.01625446416437626, 2.664694105439687, 2.580735584626865, 2.6204757979142426, 0, 0, 0, 0, 0, 0, 0, 0, 0.005092439241707325, -0.02328101173043251, 1.0014088153839111, 0.057633936405181885, 0.06620801240205765, -0.09111995249986649
100153, 0.027391677722334862, 4.1087634599534795e-05, -0.009866851381957531, 0.018812594935297966, -0.09249811619520187, 0.0016196162905544043, 0.04303961619734764, -0.21020488440990448, 0.003943757154047489, -2.9475080966949463, -3.0616323947906494, 0.013574461452662945, 7.081501404169585, -0.49978891411319637, 3.4380139811554002, 0, 0, 0, 0, 0, 0, 0, 0, 0.004855370614677668, -0.023381806910037994, 1.0000313520431519, -0.12304618209600449, -0.15049855411052704, -0.09198181331157684
100163, 0.027491023764014244, 0.000561717024538666, -0.009592331945896149, 0.01924486830830574, -0.09461255371570587, 0.0016592229949310422, 0.043414998799562454, -0.21268302202224731, 0.0039780703373253345, -2.946913003921509, -3.0614094734191895, 0.011019187048077583, 9.110104018088897, 3.0367977991051873, 3.8031802478446863, 0, 0, 0, 0, 0, 0, 0, 0, 0.003592659952118993, -0.02534283697605133, 0.9997249841690063, 0.1087026447057724, 0.11744969338178635, -0.06857968121767044
100173, 0.02734731137752533, 0.0004972483147867024, -0.010370307601988316, 0.0196808110922575, -0.0967513769865036, 0.001698614563792944, 0.043773580342531204, -0.21508097648620605, 0.0039007237646728754, -2.9473094940185547, -3.060844659805298, 0.013267378322780132, -0.4490256042775637, 2.9991504882711695, 1.98045690138611, 0, 0, 0, 0, 0, 0, 0, 0, 0.0039268312975764275, -0.022379793226718903, 1.000368595123291, 0.16907107830047607, -0.1150791198015213, 0.003045616438612342
100183, 0.028494561091065407, 0.0005319149931892753, -0.009879297576844692, 0.02012072131037712, -0.09891363978385925, 0.001737426151521504, 0.04420855641365051, -0.2173711061477661, 0.0038620398845523596, -2.946375846862793, -3.0601537227630615, 0.009723009541630745, 0.5217928917724414, 21.139391351943573, 2.2492480648955895, 0, 0, 0, 0, 0, 0, 0, 0, 0.004550882615149021, -0.02336217649281025, 0.9986230731010437, 0.08514884114265442, 0.006557956337928772, -0.07628636807203293
100193, 0.029112352058291435, -0.00034414982656016946, -0.01113649271428585, 0.02056487835943699, -0.10109927505254745, 0.0017762967618182302, 0.04462296515703201, -0.2197563201189041, 0.003912531770765781, -2.9487736225128174, -3.0615909099578857, 0.01596902869641781, 3.0181167575552434, 2.6061519098551287, 1.911663834884361, 0, 0, 0, 0, 0, 0, 0, 0, 0.003673556726425886, -0.023802483454346657, 1.0011268854141235, 0.15863554179668427, 0.08194489032030106, -0.027873681858181953
100203, 0.030014364048838615, 0.0008645839989185333, -0.010968844406306744, 0.02101285196840763, -0.1033087745308876, 0.0018156059086322784, 0.044971805065870285, -0.22214405238628387, 0.003949772100895643, -2.9483535289764404, -3.061039447784424, 0.016110269352793694, 2.8626849761013395, 2.7915257165613525, 2.7901134078094008, 0, 0, 0, 0, 0, 0, 0, 0, 0.0039889453910291195, -0.024678166955709457, 1.0001046657562256, 0.05806479603052139, -0.04258504882454872, 0.07676012068986893
100213, 0.02916777692735195, 0.00031814604881219566, -0.01163442526012659, 0.02146506868302822, -0.1055426076054573, 0.0018553801346570253, 0.0454716719686985, -0.22462257742881775, 0.004005586728453636, -2.9485838413238525, -3.06093430519104, 0.017271248623728752, 0.7513323744910205, 0.9175398452740637, 2.467384819481153, 0, 0, 0, 0, 0, 0, 0, 0, 0.005170378368347883, -0.024177342653274536, 1.0011504888534546, 0.03841254487633705, 0.0617782361805439, -0.19836601614952087
100223, 0.030642027035355568, 0.00020591632346622646, -0.011689139530062675, 0.02192179299890995, -0.10780070722103119, 0.0018956410931423306, 0.045873284339904785, -0.2269980013370514, 0.00404704362154007, -2.9482545852661133, -3.060776710510254, 0.016238411888480186, 2.6156518202629284, 2.555021440809554, 2.608918978849815, 0, 0, 0, 0, 0, 0, 0, 0, 0.0035607542376965284, -0.023752393200993538, 0.9998669028282166, 0.02739943563938141, 0.028860755264759064, -0.07001376152038574
100233, 0.03026154823601246, -9.833183139562607e-05, -0.012581880204379559, 0.02238212525844574, -0.11008308082818985, 0.0019363111350685358, 0.0461932010948658, -0.2294764369726181, 0.004087494686245918, -2.9463882446289062, -3.0601511001586914, 0.00973760336637497, 0.5309683678041058, 21.112289810772438, 2.258095813712021, 0, 0, 0, 0, 0, 0, 0, 0, 0.0031965558882802725, -0.025417322292923927, 1.0015034675598145, -0.04487466439604759, 0.11855659633874893, -0.06220841407775879
100243, 0.030670415610074997, -0.00023186847101897, -0.012718701735138893, 0.02284589596092701, -0.11239106208086014, 0.0019780276343226433, 0.046561144292354584, -0.23211954534053802, 0.004256265703588724, -2.947528839111328, -3.0616328716278076, 0.013585878536105156, 7.018800696046376, -0.49609123818126477, 3.430813611994828, 0, 0, 0, 0, 0, 0, 0, 0, 0.004787154961377382, -0.02660408988595009, 1.001300573348999, -0.1578105241060257, 0.1447744220495224, -0.11209309101104736
100253, 0.0295881275087595, -0.0015649946872144938, -0.013025335967540741, 0.023314081132411957, -0.11472482979297638, 0.0020206309854984283, 0.04707592353224754, -0.2346334159374237, 0.004264924209564924, -2.947528839111328, -3.0616328716278076, 0.013585878536105156, 7.018800696046376, -0.49609123818126477, 3.430813611994828, 0, 0, 0, 0, 0, 0, 0, 0, 0.006305473390966654, -0.02456589974462986, 0.9999613165855408, 0.06684204190969467, 0.04130978509783745, -0.004304706584662199
100263, 0.029615571722388268, -0.0019299249397590756, -0.012670830823481083, 0.023788128048181534, -0.11708321422338486, 0.0020638953428715467, 0.0477333702147007, -0.2370435744524002, 0.004388455767184496, -2.947498321533203, -3.061635732650757, 0.013611885719001293, 7.101340755292601, -0.4583385861312763, 3.4496753559781452, 0, 0, 0, 0, 0, 0, 0, 0, 0.005690642166882753, -0.023281030356884003, 1.001428246498108, 0.11666758358478546, -0.09070777893066406, -0.000503622752148658
100273, 0.031046226620674133, 0.0001314897381234914, -0.012211608700454235, 0.024268049746751785, -0.11946572363376617, 0.0021081757731735706, 0.04825097322463989, -0.2394576370716095, 0.004468078259378672, -2.948819398880005, -3.061239004135132, 0.01974470354616642, -3.2192080789565556, 7.859839615973556, 1.7941043255008537, 0, 0, 0, 0, 0, 0, 0, 0, 0.005303352605551481, -0.0251501202583313, 1.0003827810287476, 0.11425799876451492, 0.14419429004192352, 0.078805111348629
100283, 0.031626828014850616, 0.00013801982277072966, -0.012359356507658958, 0.02475331723690033, -0.12187279015779495, 0.0021534173283725977, 0.0488024577498436, -0.24195602536201477, 0.004580699373036623, -2.948322057723999, -3.0610263347625732, 0.016146350651979446, 2.8762891302869975, 2.80803080820246, 2.770369327288465, 0, 0, 0, 0, 0, 0, 0, 0, 0.005503423511981964, -0.024250563234090805, 1.001868486404419, 0.15558284521102905, -0.23490983247756958, -0.25921761989593506
100293, 0.032695624977350235, 0.0014753141440451145, -0.013943403959274292, 0.025243883952498436, -0.1243043839931488, 0.0022002155892550945, 0.049310989677906036, -0.24436338245868683, 0.004779446870088577, -2.9484171867370605, -3.0605359077453613, 0.01660049892961979, 2.0454421712924638, 1.9469498116798718, 2.4080409374422986, 0, 0, 0, 0, 0, 0, 0, 0, 0.005225456319749355, -0.023854581639170647, 1.0020487308502197, -0.03784889355301857, 0.2021317481994629, -0.11764087527990341
100303, 0.03341251611709595, 0.0003367367316968739, -0.013617070391774178, 0.02573922835290432, -0.12676024436950684, 0.0022489929106086493, 0.049757834523916245, -0.24680928885936737, 0.004976501222699881, -2.948326587677002, -3.0610244274139404, 0.016131596639752388, 2.9083314934120548, 2.803606371338475, 2.781631421581493, 0, 0, 0, 0, 0, 0, 0, 0, 0.0035426842514425516, -0.024694740772247314, 1.0015100240707397, -0.13669966161251068, 0.009292282164096832, 0.1292172074317932
100313, 0.032984040677547455, 0.00023044180124998093, -0.012997214682400227, 0.026238981634378433, -0.12924088537693024, 0.002299631480127573, 0.05019282549619675, -0.2493194341659546, 0.005151757504791021, -2.948575019836426, -3.060926675796509, 0.017295261844992638, 0.778035558246168, 0.9005983425316231, 2.4610402672710565, 0, 0, 0, 0, 0, 0, 0, 0, 0.005986705422401428, -0.024422675371170044, 1.0020428895950317, 0.06232539191842079, -0.27268290519714355, 0.10234272480010986
100323, 0.03406472131609917, 0.0016053676372393966, -0.012134027667343616, 0.026743682101368904, -0.13174603879451752, 0.0023518549278378487, 0.05074727162718773, -0.2517123818397522, 0.005293446592986584, -2.948322296142578, -3.0609917640686035, 0.016074413433670998, 2.8357824900739548, 2.8007127650857058, 2.7748717412387314, 0, 0, 0, 0, 0, 0, 0, 0, 0.005572869908064604, -0.02388351410627365, 1.001055359840393, 0.040909215807914734, -0.044153157621622086, -0.09191010147333145
100333, 0.033791180700063705, 0.001693640137091279, -0.012019789777696133, 0.027254123240709305, -0.13427554070949554, 0.0024049796629697084, 0.051341161131858826, -0.25418752431869507, 0.005332064814865589, -2.948267936706543, -3.0607826709747314, 0.016217628493905067, 2.604332771154627, 2.6171880683655218, 2.6219276046448896, 0, 0, 0, 0, 0, 0, 0, 0, 0.006782374810427427, -0.024308279156684875, 0.9999469518661499, 0.12268044054508209, 0.07525935769081116, 0.15096592903137207
100343, 0.0344957634806633, 0.0016043145442381501, -0.011155905202031136, 0.02777083031833172, -0.1368296593427658, 0.0024584350176155567, 0.052000392228364944, -0.25663667917251587, 0.005359516479074955, -2.9466910362243652, -3.0609970092773438, 0.010930104181170464, 0.7668793449228604, -0.3663816841435903, 1.9464257317523863, 0, 0, 0, 0, 0, 0, 0, 0, 0.006779720541089773, -0.023799972608685493, 1.0007259845733643, -0.1338285505771637, -0.21270215511322021, 0.13545449078083038
100353, 0.034853581339120865, 0.002686344087123871, -0.010672390460968018, 0.02829384058713913, -0.13940751552581787, 0.0025126540567725897, 0.05260175094008446, -0.25893303751945496, 0.005484845954924822, -2.9468307495117188, -3.060405731201172, 0.009962265379726887, 3.6377589409511613, 1.9282627483294164, 2.512428322633238, 0, 0, 0, 0, 0, 0, 0, 0, 0.005557505413889885, -0.022501902654767036, 1.000688910484314, -0.016317473724484444, -0.13955654203891754, -0.1766280233860016
100363, 0.03501725196838379, 0.0033712813165038824, -0.01071362104266882, 0.028821853920817375, -0.14200854301452637, 0.0025674179196357727, 0.053001027554273605, -0.2612727880477905, 0.005468511953949928, -2.9478137493133545, -3.060962438583374, 0.014739497564733028, 5.48132446341733, -1.8233164934190995, 2.6846785791597947, 0, 0, 0, 0, 0, 0, 0, 0, 0.003112711012363434, -0.02382020652294159, 1.0006023645401, 0.05871608108282089, 0.11519967764616013, 0.06864657998085022
100373, 0.035289570689201355, 0.002396427793428302, -0.011075091548264027, 0.029353074729442596, -0.1446336954832077, 0.0026225424371659756, 0.053243089467287064, -0.2637578845024109, 0.005556946154683828, -2.946713447570801, -3.0610039234161377, 0.010955535806715488, 0.7785429218189603, -0.3188590431536511, 1.9365078949406505, 0, 0, 0, 0, 0, 0, 0, 0, 0.0023962294217199087, -0.02505619078874588, 1.0008409023284912, -0.08289511501789093, 0.09372187405824661, -0.1966201514005661
100383, 0.03559907153248787, 0.0003600670024752617, -0.012188322842121124, 0.029887421056628227, -0.14728331565856934, 0.002678310265764594, 0.05362626165151596, -0.26616528630256653, 0.0055971890687942505, -2.946385145187378, -3.0601301193237305, 0.009805708192288876, 0.4774740934572779, 21.135579569227104, 2.2089631520862114, 0, 0, 0, 0, 0, 0, 0, 0, 0.0047435881569981575, -0.022848645225167274, 1.0009316205978394, 0.006871516350656748, 0.047351304441690445, -0.17214103043079376
100393, 0.03573983162641525, 0.00038430828135460615, -0.013804030604660511, 0.030426358804106712, -0.14995642006397247, 0.0027350347954779863, 0.054161351174116135, -0.26845425367355347, 0.005748278461396694, -2.9478800296783447, -3.06148099899292, 0.01308254525065422, 0.9108927829664896, 3.4286908505814324, 1.4698859400475242, 0, 0, 0, 0, 0, 0, 0, 0, 0.006588122807443142, -0.023007994517683983, 1.0007736682891846, 0.052485059946775436, 0.11000083386898041, 0.15702494978904724
100403, 0.036044489592313766, -0.0001489069254603237, -0.013329904526472092, 0.030971091240644455, -0.15265269577503204, 0.002792202867567539, 0.05478513985872269, -0.27080005407333374, 0.005685877520591021, -2.9482414722442627, -3.0607857704162598, 0.01620384119451046, 2.582482230409374, 2.597412451058972, 2.6002325965433015, 0, 0, 0, 0, 0, 0, 0, 0, 0.00559246027842164, -0.02377006784081459, 0.9986092448234558, 0.011510124430060387, -0.09520218521356583, -0.036073535680770874
100413, 0.03664403408765793, 0.00045909840264357626, -0.012989237904548645, 0.03152139484882355, -0.15537285804748535, 0.0028486845549196005, 0.05527597293257713, -0.27323269844055176, 0.005611009430140257, -2.9467148780822754, -3.060990333557129, 0.01097689475864172, 0.8873949321748433, -0.3943085911066646, 1.9534334176338584, 0, 0, 0, 0, 0, 0, 0, 0, 0.0049815974198281765, -0.024901799857616425, 1.0005168914794922, -0.053731273859739304, 0.09570423513650894, -0.10002193599939346
100423, 0.035847075283527374, 9.643412340665236e-05, -0.013566000387072563, 0.032076578587293625, -0.1581176370382309, 0.002905519213527441, 0.05576062947511673, -0.2757234573364258, 0.0057565090246498585, -2.9474077224731445, -3.060079336166382, 0.012276897206902504, -0.1543862980990115, 4.5883047453054076, 1.8645446135708932, 0, 0, 0, 0, 0, 0, 0, 0, 0.005482613109052181, -0.024281155318021774, 1.0020734071731567, 0.02606588415801525, 0.05286252498626709, -0.0996306911110878
100433, 0.03520825132727623, -0.001052165636792779, -0.01368912123143673, 0.03263707086443901, -0.16088701784610748, 0.0029638847336173058, 0.056338053196668625, -0.27815189957618713, 0.0059171621687710285, -2.9474923610687256, -3.061062812805176, 0.013791571371257305, 1.2468904297618613, 3.320425940568299, 2.444002811839038, 0, 0, 0, 0, 0, 0, 0, 0, 0.00572125893086195, -0.023626666516065598, 1.0009517669677734, 0.0010986182605847716, 0.3080233335494995, -0.022213030606508255
100443, 0.035531312227249146, -0.00196508364751935, -0.01378817018121481, 0.03320302069187164, -0.16368016600608826, 0.0030224695801734924, 0.0568518340587616, -0.2804776132106781, 0.005800361279398203, -2.9475319385528564, -3.0616509914398193, 0.01358894631266594, 6.974055885797275, -0.5498825319695015, 3.4465059667999665, 0, 0, 0, 0, 0, 0, 0, 0, 0.004902852699160576, -0.02337367832660675, 0.9978324174880981, 0.006322845816612244, 0.26235073804855347, 0.08172155916690826
100453, 0.0354497916996479, -0.002768344944342971, -0.012973295524716377, 0.03377397730946541, -0.16649706661701202, 0.003079743590205908, 0.05733983963727951, -0.2829020321369171, 0.005655018612742424, -2.946720600128174, -3.0609912872314453, 0.010933189652860165, 0.8134288491408219, -0.410239929562465, 1.9444021264763123, 0, 0, 0, 0, 0, 0, 0, 0, 0.004693000577390194, -0.023921631276607513, 0.9998404383659363, 0.04130801185965538, 0.19365669786930084, 0.07153534144163132
100463, 0.034622181206941605, -0.004429046530276537, -0.012722725048661232, 0.034350018948316574, -0.16933795809745789, 0.003136137966066599, 0.05786856263875961, -0.285276859998703, 0.005624458193778992, -2.9473788738250732, -3.060067892074585, 0.012270974926650524, -0.22735126941686945, 4.548010155714223, 1.8523355129568164, 0, 0, 0, 0, 0, 0, 0, 0, 0.005488068331032991, -0.023569367825984955, 0.9997115731239319, 0.039274781942367554, -0.09973262995481491, -0.044307537376880646
100473, 0.03467725217342377, -0.00309969624504447, -0.013490012846887112, 0.03493117913603783, -0.1722026765346527, 0.003192579373717308, 0.0583636574447155, -0.2876671552658081, 0.00566440774127841, -2.9473788738250732, -3.060067892074585, 0.012270974926650524, -0.22735126941686945, 4.548010155714223, 1.8523355129568164, 0, 0, 0, 0, 0, 0, 0, 0, 0.00430325185880065, -0.023716097697615623, 1.0010347366333008, -0.060136713087558746, -0.06846903264522552, -0.13763853907585144
100483, 0.035009272396564484, -0.0029005524702370167, -0.013990022242069244, 0.03551669418811798, -0.17509081959724426, 0.003249863861128688, 0.058739352971315384, -0.28996163606643677, 0.005793075542896986, -2.9483261108398438, -3.0610222816467285, 0.016140803694725037, 2.8385883589381034, 2.7594261343670325, 2.7845971382479124, 0, 0, 0, 0, 0, 0, 0, 0, 0.003396370215341449, -0.022290324792265892, 1.0005608797073364, 0.1302710771560669, 0.11263483762741089, 0.029824748635292053
100493, 0.034938227385282516, -0.003876565722748637, -0.013410896062850952, 0.03610619157552719, -0.17800168693065643, 0.0033077215775847435, 0.059159908443689346, -0.2922104001045227, 0.005779067520052195, -2.9486024379730225, -3.06091570854187, 0.017257465049624443, 0.7443604985389768, 0.8555660942141117, 2.4800116467483755, 0, 0, 0, 0, 0, 0, 0, 0, 0.005246647633612156, -0.021620823070406914, 0.9997072219848633, -0.19549070298671722, 0.025838488712906837, -0.016460828483104706
