timeTick, roll, pitch, yaw, stateX, stateY, stateZ, stateVX, stateVY, stateVZ, otX0, otY0, otZ0, otRoll0, otPitch0, otYaw0, cmdThrust, cmdRoll, cmdPitch, cmdYaw, actThrust, rRoll, rPitch, rYaw, accx, accy, accz, gyrox, gyroy, gyroz
21196, 0.0, 0.0, 0.0, 0, 0, 0, 0, 0, 0, -2.7247824668884277, -3.781080722808838, 0.003511680057272315, 1.0119541051034726, 4.979428789192582, 90.6478872425233, 0, 0, 0, 0, 0, 0, 0, 0, 0, 0, 0, 0, 0, 0
21206, -0.0003807730390690267, -0.0010481541976332664, -0.0008285266812890768, 0.0, 0.0, 0.0, 0.0, 0.0, 0.0, -2.724773645401001, -3.781076431274414, 0.0034901925828307867, 0.9525867124875763, 4.9932484629125895, 90.65035731603986, 0, 0, 0, 0, 0, 0, 0, 0, -0.008810584433376789, -0.014661329798400402, 0.9996924996376038, 0, 0, 0
21216, 0.0007300440338440239, -0.00023626955226063728, -0.001631053164601326, -4.299561169318622e-06, -7.1721251515555196e-06, -2.6979250833392143e-07, -0.0008599338470958173, -0.0014344127848744392, -5.356521069188602e-05, -2.724762439727783, -3.7809627056121826, 0.0022411500103771687, 0.2163250014845032, 3.239118812901154, 90.56983733446978, 0, 0, 0, 0, 0, 0, 0, 0, -0.008081922307610512, -0.01690182089805603, 0.9997956156730652, 0, 0, 0
21226, 0.0008601390873081982, 0.001159084029495716, -0.00041895548929460347, -1.6806887288112193e-05, -2.9264210752444342e-05, -8.097267709672451e-07, -0.0016415530117228627, -0.0029839929193258286, -5.406188211054541e-05, -2.7247531414031982, -3.780961036682129, 0.0022461693733930588, 0.15466676690356745, 3.234006830678112, 90.5741254239168, 0, 0, 0, 0, 0, 0, 0, 0, -0.00913840439170599, -0.017477435991168022, 0.9980387091636658, 0.015703188255429268, -0.1862061619758606, 0.1885000318288803
21236, -0.0004034360754303634, 0.0013655367074534297, 0.0007293290691450238, -3.7370744394138455e-05, -6.778565148124471e-05, -1.9568251445889473e-06, -0.002471178537234664, -0.0047203111462295055, -0.00017498322995379567, -2.724745035171509, -3.7809667587280273, 0.0022214294876903296, 0.06703872056896083, 3.317844233092842, 90.5840912887982, 0, 0, 0, 0, 0, 0, 0, 0, -0.010496466420590878, -0.016964353621006012, 0.999237596988678, -0.23623259365558624, 0.10568754374980927, 0.1675703376531601
21246, -1.6354601029888727e-05, 0.0004964682157151401, 0.0012683391105383635, -6.701460370095447e-05, -0.00012325571151450276, -4.356348654255271e-06, -0.0034575604368001223, -0.0063737235032022, -0.00030449588666670024, -2.7248167991638184, -3.7810657024383545, 0.0035546235740184784, 0.9983651909535797, 4.917467018473843, 90.65074841573406, 0, 0, 0, 0, 0, 0, 0, 0, -0.009306583553552628, -0.0165889672935009, 0.9992192983627319, -0.023055922240018845, 0.15580850839614868, 0.06102196127176285
21256, -0.00040463617187924683, -0.00010482041398063302, 0.0012719857040792704, -0.00010640076652634889, -0.0001952593302121386, -7.517257472500205e-06, -0.004419656004756689, -0.008027009665966034, -0.00032727906364016235, -2.724792003631592, -3.7810819149017334, 0.0034914184361696243, 0.9707461920020644, 4.94405389933479, 90.65971796124687, 0, 0, 0, 0, 0, 0, 0, 0, -0.009284336119890213, -0.017225654795765877, 0.9999195337295532, -0.08255518227815628, 0.12018140405416489, -0.15187589824199677
21266, -6.37877601548098e-05, 0.00029881062800996006, 0.0020272480323910713, -0.0001552006579004228, -0.00028391287196427584, -1.111245364882052e-05, -0.00534032192081213, -0.009703701362013817, -0.0003913483815267682, -2.7248079776763916, -3.7810709476470947, 0.0035172761417925358, 0.9439524761552833, 4.919521401826728, 90.64821896096224, 0, 0, 0, 0, 0, 0, 0, 0, -0.010368304327130318, -0.01638873666524887, 1.000986099243164, -0.08190599828958511, -0.18486899137496948, 0.0028461720794439316
21276, 0.0008493572240695357, 0.00012292878818698227, 0.001982513116672635, -0.0002134373498847708, -0.0003892398381140083, -1.4807825209572911e-05, -0.006306994240731001, -0.01136170607060194, -0.00034735057852230966, -2.724821090698242, -3.781071662902832, 0.0035529581364244223, 0.9194014447623182, 4.957145734713947, 90.64792864324507, 0, 0, 0, 0, 0, 0, 0, 0, -0.00885168369859457, -0.0194260161370039, 1.0001088380813599, 0.019312355667352676, -0.017769059166312218, -0.015259611420333385
21286, 0.0010501680662855506, -0.001123341266065836, 0.002543953713029623, -0.00028134870808571577, -0.0005114756640978158, -1.7822312656790018e-05, -0.007275279611349106, -0.013085459358990192, -0.00025517825270071626, -2.7247540950775146, -3.7809605598449707, 0.002185413148254156, 0.13321074304130578, 3.2692597749633876, 90.58197759780053, 0, 0, 0, 0, 0, 0, 0, 0, -0.010105445981025696, -0.017475932836532593, 1.000293493270874, -0.014302666299045086, 0.21646648645401, 0.06878331303596497
21296, 0.0013081164797767997, -0.0014587027253583074, 0.0026992582716047764, -0.0003586838429328054, -0.0006517097936011851, -2.0369363483041525e-05, -0.008191730827093124, -0.014961378648877144, -0.0002538248954806477, -2.72479510307312, -3.7810723781585693, 0.0035146374721080065, 0.986430103005223, 4.982112245726256, 90.6458427287059, 0, 0, 0, 0, 0, 0, 0, 0, -0.010454359464347363, -0.015760814771056175, 0.9990794062614441, -0.01043966505676508, 0.032344818115234375, 0.030286137014627457
21306, 0.0010898456675931811, -0.0013550580479204655, 0.0025469865649938583, -0.0004455477755982429, -0.0008093435317277908, -2.3304775822907686e-05, -0.009181051515042782, -0.01656537503004074, -0.00033285937388427556, -2.7248239517211914, -3.7810051441192627, 0.0021444379817694426, 0.004199646183125827, 3.8222223566459093, 90.5810117469174, 0, 0, 0, 0, 0, 0, 0, 0, -0.008605223149061203, -0.015833064913749695, 1.0023550987243652, 0.0588567778468132, -0.02422645501792431, 0.010887617245316505
21316, 0.0008183796308003366, -0.0006252995226532221, 0.0034604379907250404, -0.0005420956877060235, -0.0009828938636928797, -2.6382156647741795e-05, -0.010128534398972988, -0.018144682049751282, -0.0002822201349772513, -2.7247560024261475, -3.780963897705078, 0.002228995319455862, 0.16262638682133557, 3.2377463645222235, 90.58043428644771, 0, 0, 0, 0, 0, 0, 0, 0, -0.008754584938287735, -0.01749351993203163, 1.0005571842193604, -0.04978836700320244, -0.03762678802013397, -0.14071683585643768
21326, 0.00035149301402270794, -0.0018737782957032323, 0.0031649384181946516, -0.0006478257128037512, -0.001172387506812811, -2.8068432584404945e-05, -0.01101745292544365, -0.01975405402481556, -5.4636329878121614e-05, -2.724774122238159, -3.780961513519287, 0.0022478499449789524, 0.15605209159165417, 3.295400925731002, 90.58082809183146, 0, 0, 0, 0, 0, 0, 0, 0, -0.009232889860868454, -0.01709083467721939, 1.0009992122650146, -0.09396238625049591, 0.21015039086341858, -0.04332630708813667
21336, 0.0017179008573293686, -0.003964122384786606, 0.0036512669175863266, -0.000762429554015398, -0.0013783962931483984, -2.831645542755723e-05, -0.011903326958417892, -0.02144770696759224, 5.462664830702124e-06, -2.724774122238159, -3.780961513519287, 0.0022478499449789524, 0.15605209159165417, 3.295400925731002, 90.58082809183146, 0, 0, 0, 0, 0, 0, 0, 0, -0.008361413143575191, -0.01827569305896759, 0.9980207681655884, 0.27609947323799133, 0.3499022126197815, 0.1124906912446022
21346, 0.0018581541953608394, -0.0031019076704978943, 0.004451807122677565, -0.0008857861976139247, -0.0016015227884054184, -2.851017052307725e-05, -0.012767991051077843, -0.023177608847618103, -4.381747203296982e-05, -2.7247509956359863, -3.78108286857605, 0.0035013151355087757, 1.0929483993387274, 5.0372720410908585, 90.64848383300767, 0, 0, 0, 0, 0, 0, 0, 0, -0.009296556934714317, -0.017686501145362854, 0.9990153312683105, -0.04956435039639473, -0.10218941420316696, 0.19623665511608124
21356, 0.0022269331384450197, -0.0038265332113951445, 0.004338680300861597, -0.0010176871437579393, -0.0018421867862343788, -2.9793649446219206e-05, -0.01361218374222517, -0.024955209344625473, -0.00021249830024316907, -2.7247960567474365, -3.7810773849487305, 0.0035545104183256626, 0.9745756890182677, 5.026476695768338, 90.63867073175311, 0, 0, 0, 0, 0, 0, 0, 0, -0.009072919376194477, -0.015758531168103218, 1.0002907514572144, 0.22831904888153076, 0.007653693202883005, 0.04845595359802246
21366, 0.0022907364182174206, -0.004663867875933647, 0.004432670306414366, -0.0011583194136619568, -0.0021000460255891085, -3.212588489986956e-05, -0.014514276757836342, -0.026616649702191353, -0.00025354811805300415, -2.7249703407287598, -3.7812907695770264, 0.0034315292723476887, 0.9536763780054067, 5.205067116453932, 90.80861153350378, 0, 0, 0, 0, 0, 0, 0, 0, -0.009202620945870876, -0.016129618510603905, 1.0009840726852417, 0.02138487994670868, 0.16476410627365112, 0.019731666892766953
21376, 0.0035404914524406195, -0.0023903106339275837, 0.003984726499766111, -0.001308100181631744, -0.0023741773329675198, -3.418649430386722e-05, -0.015441878698766232, -0.028209606185555458, -0.0001581691758474335, -2.7247979640960693, -3.7810750007629395, 0.0035237278789281845, 0.9538698895609107, 4.909590813888684, 90.64732760388564, 0, 0, 0, 0, 0, 0, 0, 0, -0.009933385998010635, -0.017675334587693214, 0.9998323917388916, 0.2427230328321457, -0.4321114420890808, -0.13342131674289703
21386, 0.0031969277188181877, -0.0010041752830147743, 0.004638840444386005, -0.0014671141980215907, -0.00266447220928967, -3.563336213119328e-05, -0.016360945999622345, -0.029849378392100334, -0.00013087067054584622, -2.7247822284698486, -3.781067371368408, 0.003538801334798336, 1.0717217901725615, 5.000228704394829, 90.65184903118751, 0, 0, 0, 0, 0, 0, 0, 0, -0.011633872985839844, -0.015742652118206024, 1.0013126134872437, -0.10045209527015686, -0.07314714044332504, 0.033699337393045425
21396, 0.003121532965451479, -0.000647971814032644, 0.0029367113020271063, -0.0016359617002308369, -0.002971222624182701, -3.6640994949266315e-05, -0.017408542335033417, -0.031500689685344696, -7.028033724054694e-05, -2.7248194217681885, -3.781057596206665, 0.003525311825796962, 0.9580143785191062, 4.962428765607626, 90.65555982491908, 0, 0, 0, 0, 0, 0, 0, 0, -0.007952709682285786, -0.016904862597584724, 1.0000396966934204, 0.042943816632032394, -0.04761990159749985, -0.2777858376502991
21406, 0.002440817654132843, -0.0004758053692057729, 0.0030400939285755157, -0.001815066789276898, -0.0032943759579211473, -3.702132380567491e-05, -0.01841251738369465, -0.03312992677092552, -5.385585609474219e-06, -2.7247674465179443, -3.7809717655181885, 0.0022215289063751698, 0.10683313580546833, 3.2215818668810527, 90.57640460423991, 0, 0, 0, 0, 0, 0, 0, 0, -0.009140916168689728, -0.016913600265979767, 0.9990970492362976, -0.017815424129366875, 0.05077895149588585, 0.09800134599208832
21416, 0.0023098199162632227, -0.0007073541637510061, 0.0032008213456720114, -0.0020031577441841364, -0.003633837914094329, -3.7383142625913024e-05, -0.01920567825436592, -0.03476247191429138, -6.656639016000554e-05, -2.7247533798217773, -3.7809672355651855, 0.0021878026891499758, 0.11762243812311743, 3.215837678976129, 90.56985005128108, 0, 0, 0, 0, 0, 0, 0, 0, -0.010938509367406368, -0.01816476508975029, 0.9999760985374451, -0.018005171790719032, 0.0271284282207489, -0.07660230249166489
21426, 0.003195422003045678, 0.001542194397188723, 0.002831488847732544, -0.002199973678216338, -0.003989808727055788, -3.831772482953966e-05, -0.020157519727945328, -0.036431651562452316, -0.00011994823580607772, -2.7248032093048096, -3.78108549118042, 0.0035295761190354824, 0.9693153939523826, 5.003137477599694, 90.66473449714412, 0, 0, 0, 0, 0, 0, 0, 0, -0.010782040655612946, -0.01647353358566761, 0.9998303651809692, 0.0347374826669693, -0.2506643235683441, -0.07794256508350372
21436, 0.0026849214918911457, 0.0011194120161235332, 0.0025737211108207703, -0.002406880259513855, -0.004362772684544325, -3.95808310713619e-05, -0.02122380957007408, -0.03816116601228714, -0.00013235854567028582, -2.7247636318206787, -3.780967950820923, 0.0022240113466978073, 0.14193390437904882, 3.313604627907438, 90.58075633778722, 0, 0, 0, 0, 0, 0, 0, 0, -0.009721205569803715, -0.014947890304028988, 0.9972100853919983, -0.10404615104198456, 0.10425406694412231, -0.1058197021484375
21446, 0.003271321300417185, -0.0003052570973522961, 0.0026447593700140715, -0.0026241345331072807, -0.004751912318170071, -4.1538994992151856e-05, -0.022227048873901367, -0.03966677561402321, -0.000258849177043885, -2.7248013019561768, -3.781069040298462, 0.0035755406133830547, 1.0057485949036447, 5.034059852996165, 90.65429354173001, 0, 0, 0, 0, 0, 0, 0, 0, -0.009714462794363499, -0.01618233136832714, 0.9977761507034302, 0.17054080963134766, 0.127764031291008, -0.06393406540155411
21456, 0.0035684581380337477, -0.0005076893721707165, 0.0029867561534047127, -0.00285095302388072, -0.005156197119504213, -4.542083479464054e-05, -0.023136645555496216, -0.04119019955396652, -0.0005171168013475835, -2.7247517108917236, -3.780961751937866, 0.0022448566742241383, 0.09827201907603648, 3.2577612231496005, 90.581220104305, 0, 0, 0, 0, 0, 0, 0, 0, -0.009067918173968792, -0.018428128212690353, 1.0001368522644043, 0.07277072221040726, -0.026398276910185814, 0.2517305910587311
21466, 0.003341179806739092, -0.0005664633354172111, 0.00491109024733305, -0.0030870523769408464, -0.005576605908572674, -5.118630360811949e-05, -0.024083232507109642, -0.04289155825972557, -0.000635584001429379, -2.7247605323791504, -3.7809762954711914, 0.002263906178995967, 0.13130619480695258, 3.356201187602295, 90.57855671806642, 0, 0, 0, 0, 0, 0, 0, 0, -0.010125106200575829, -0.018293539062142372, 0.9997163414955139, -0.00441896915435791, -0.08824463188648224, 0.15259267389774323
21476, 0.0033208930399268866, -0.0003827021282631904, 0.004219381138682365, -0.0033323660027235746, -0.006014678161591291, -5.75902231503278e-05, -0.024979444220662117, -0.044722944498062134, -0.0006448058411478996, -2.724769353866577, -3.780980110168457, 0.0022627762518823147, 0.194146167009482, 3.2637123418553813, 90.56924065930242, 0, 0, 0, 0, 0, 0, 0, 0, -0.01039761584252119, -0.015836792066693306, 0.998236358165741, 0.07626824826002121, -0.07937417924404144, -0.1906595081090927
21486, 0.002811350394040346, -0.0014837501803413033, 0.004273047670722008, -0.0035873930901288986, -0.006470414809882641, -6.438203854486346e-05, -0.026025991886854172, -0.046424370259046555, -0.0007131603779271245, -2.7247748374938965, -3.781055212020874, 0.0035191462375223637, 0.9348912046463678, 4.940100964101362, 90.64122923234619, 0, 0, 0, 0, 0, 0, 0, 0, -0.009264761582016945, -0.015414081513881683, 0.9995035529136658, -0.10332077741622925, 0.14531069993972778, -0.06426665186882019
21496, 0.0018715031910687685, -0.003921496216207743, 0.004922754131257534, -0.0038522311951965094, -0.006942419335246086, -7.229720358736813e-05, -0.026941653341054916, -0.047976501286029816, -0.0008694473654031754, -2.724799156188965, -3.781074047088623, 0.0035202670842409134, 0.9312027812088037, 4.943910127109859, 90.64407012479423, 0, 0, 0, 0, 0, 0, 0, 0, -0.008339591324329376, -0.015933256596326828, 1.002644658088684, -0.033226728439331055, 0.16418105363845825, 0.0708201676607132
21506, 0.0030062191653996706, -0.0028565835673362017, 0.0040175518952310085, -0.004126282408833504, -0.007429867051541805, -8.03880684543401e-05, -0.027868546545505524, -0.0495130680501461, -0.0007482644869014621, -2.724766492843628, -3.7809557914733887, 0.002245229436084628, 0.16314652654333575, 3.159972503471039, 90.56843677115187, 0, 0, 0, 0, 0, 0, 0, 0, -0.007774625439196825, -0.01558359619230032, 1.0010986328125, 0.1265319585800171, -0.03500361368060112, -0.0929277241230011
21516, 0.0027373661287128925, -0.002908624242991209, 0.003608462866395712, -0.004408847074955702, -0.0079326331615448, -8.663046173751354e-05, -0.028644448146224022, -0.051040168851614, -0.0004998676013201475, -2.724754571914673, -3.7809667587280273, 0.00223979027941823, 0.1402849069480454, 3.1853827781046107, 90.56817398808082, 0, 0, 0, 0, 0, 0, 0, 0, -0.009144842624664307, -0.016518086194992065, 0.9997918009757996, -0.09091495722532272, 0.07283374667167664, -0.020714856684207916
21526, 0.0026563522405922413, -0.002772135427221656, 0.0028363822493702173, -0.004699253011494875, -0.008451098576188087, -9.153896826319396e-05, -0.029436763375997543, -0.05265294387936592, -0.00048142531886696815, -2.724778175354004, -3.781081438064575, 0.0035266410559415817, 1.0334167513272372, 5.006505256278075, 90.6377209122684, 0, 0, 0, 0, 0, 0, 0, 0, -0.008976669050753117, -0.017356164753437042, 0.999679446220398, 0.052927166223526, -0.033663615584373474, -0.04441029578447342
21536, 0.0033696938771754503, -0.0031940292101353407, 0.0022387481294572353, -0.004998072981834412, -0.00898603443056345, -9.629095438867807e-05, -0.03032722882926464, -0.05433423072099686, -0.00046857327106408775, -2.724818706512451, -3.7810792922973633, 0.003553729970008135, 0.9854486599360511, 4.905710601797296, 90.6578677046058, 0, 0, 0, 0, 0, 0, 0, 0, -0.009441431611776352, -0.014896368607878685, 1.0009618997573853, 0.07421279698610306, 0.06822443008422852, -0.06258584558963776
21546, 0.0033890283666551113, -0.003844456747174263, 0.0034638356883078814, -0.005305737257003784, -0.00953728798776865, -0.00010098773054778576, -0.031205615028738976, -0.0559164434671402, -0.0004703975864686072, -2.724807024002075, -3.781087875366211, 0.0035033337771892548, 0.9861895134582744, 4.963251828771348, 90.65303301665189, 0, 0, 0, 0, 0, 0, 0, 0, -0.009859544225037098, -0.017580069601535797, 1.001874566078186, 0.011976620182394981, 0.08423251658678055, 0.24421802163124084
21556, 0.003714260645210743, -0.003016438102349639, 0.003954049665480852, -0.005622696131467819, -0.010104303248226643, -0.00010481709614396095, -0.032186128199100494, -0.057486604899168015, -0.00029506313148885965, -2.7248177528381348, -3.781083822250366, 0.003517692908644676, 0.9685164830309193, 4.97051970700079, 90.64936592019079, 0, 0, 0, 0, 0, 0, 0, 0, -0.008661058731377125, -0.018159661442041397, 1.0000452995300293, 0.05566897988319397, -0.23699355125427246, -0.024498626589775085
21566, 0.003773260861635208, -0.004687049426138401, 0.004255259875208139, -0.0059486450627446175, -0.0106880571693182, -0.00010732113150879741, -0.03300362080335617, -0.05926411226391792, -0.00020535796647891402, -2.7247474193573, -3.7809643745422363, 0.002241063630208373, 0.14446769796986667, 3.2672802504716287, 90.56375206198068, 0, 0, 0, 0, 0, 0, 0, 0, -0.011072703637182713, -0.01732543297111988, 0.9981100559234619, 0.13184890151023865, 0.23566007614135742, 0.0961039587855339
21576, 0.003546945285052061, -0.004974206909537315, 0.004650545306503773, -0.006283716298639774, -0.011289339512586594, -0.00010989487054757774, -0.03401058539748192, -0.06099232658743858, -0.0003089546808041632, -2.72473406791687, -3.7809553146362305, 0.0021912865340709686, 0.18055162290050414, 3.174515737746475, 90.56626034101045, 0, 0, 0, 0, 0, 0, 0, 0, -0.011029309593141079, -0.01645389199256897, 0.9986950159072876, -0.020710736513137817, 0.09821870177984238, 0.05389603599905968
21586, 0.0032534184865653515, -0.0064825997687876225, 0.004118632059544325, -0.006629214156419039, -0.011907707899808884, -0.0001136445498559624, -0.03508899733424187, -0.06268128007650375, -0.00044057247578166425, -2.7247490882873535, -3.7809700965881348, 0.00223428918980062, 0.17060901119010455, 3.220813914558647, 90.5775690483201, 0, 0, 0, 0, 0, 0, 0, 0, -0.009240955114364624, -0.016733670607209206, 0.9989385604858398, 0.028763635084033012, 0.18870604038238525, 0.032612450420856476
21596, 0.0037191954907029867, -0.004892932251095772, 0.004557556938380003, -0.0069851987063884735, -0.012542837299406528, -0.00011862034443765879, -0.03610789403319359, -0.06434451043605804, -0.0005541493883356452, -2.7247726917266846, -3.780991315841675, 0.0022578134667128325, 0.10553017104635008, 3.273913104118435, 90.56809855274865, 0, 0, 0, 0, 0, 0, 0, 0, -0.010454447939991951, -0.013880424201488495, 1.0016592741012573, 0.07668810337781906, -0.28016942739486694, 0.04592268541455269
21606, 0.004077954217791557, -0.004256479442119598, 0.004306046292185783, -0.0073509057983756065, -0.013193970546126366, -0.00012445091851986945, -0.03703349083662033, -0.06588220596313477, -0.0006116103613749146, -2.724813222885132, -3.781083822250366, 0.003527307417243719, 0.9320392906203627, 4.9414238942258635, 90.65110015880637, 0, 0, 0, 0, 0, 0, 0, 0, -0.009356161579489708, -0.01686052978038788, 0.9991722702980042, 0.07102745771408081, -0.004873950965702534, -0.15717819333076477
21616, 0.004154064226895571, -0.003980956971645355, 0.004879900254309177, -0.00772604625672102, -0.0138600068166852, -0.00013008379028178751, -0.03799458220601082, -0.06732498109340668, -0.0005145820905454457, -2.724790573120117, -3.7810745239257812, 0.003557670395821333, 0.9969228505733391, 5.005992309528693, 90.64226378368788, 0, 0, 0, 0, 0, 0, 0, 0, -0.010584401898086071, -0.017563339322805405, 0.998910665512085, 0.057458240538835526, -0.0776933878660202, 0.110850028693676
21626, 0.004774267785251141, -0.0034055791329592466, 0.0031441159080713987, -0.008110757917165756, -0.014541946351528168, -0.00013572574243880808, -0.03894776105880737, -0.06906291097402573, -0.0006134107243269682, -2.7247607707977295, -3.7809627056121826, 0.002280919114127755, 0.17461158856922146, 3.2578240866884016, 90.56279401745708, 0, 0, 0, 0, 0, 0, 0, 0, -0.010364743880927563, -0.017483269795775414, 0.9997556209564209, 0.1877128928899765, -0.18337522447109222, -0.1796690821647644
21636, 0.004769220948219299, -0.0031448788940906525, 0.0049118236638605595, -0.008505268953740597, -0.015241199173033237, -0.00014249800005927682, -0.0399545356631279, -0.07078767567873001, -0.0007406723452731967, -2.724761486053467, -3.7809500694274902, 0.002259309869259596, 0.18092924764145724, 3.2520129918083285, 90.57174776606838, 0, 0, 0, 0, 0, 0, 0, 0, -0.009732565842568874, -0.017322402447462082, 0.9998892545700073, -0.014762109145522118, -0.0875786542892456, 0.182784765958786
21646, 0.005357321351766586, -0.005500136874616146, 0.005633420776575804, -0.008909971453249454, -0.015957657247781754, -0.0001499861537013203, -0.04098588600754738, -0.07250402122735977, -0.0007565565756522119, -2.724783420562744, -3.7810654640197754, 0.003488834947347641, 0.9237239287518045, 4.931911807533197, 90.63940271605662, 0, 0, 0, 0, 0, 0, 0, 0, -0.008037138730287552, -0.015084713697433472, 0.9980650544166565, 0.10617204010486603, 0.14885765314102173, 0.06397253274917603
21656, 0.00520876282826066, -0.005866960622370243, 0.0052179922349750996, -0.009324047714471817, -0.016690649092197418, -0.00015802678535692394, -0.04182936251163483, -0.07409441471099854, -0.0008511472842656076, -2.7249670028686523, -3.781312942504883, 0.003352288855239749, 0.8645498004298509, 5.150268395777829, 90.81989564244743, 0, 0, 0, 0, 0, 0, 0, 0, -0.009569011628627777, -0.01673237979412079, 0.9984869956970215, -0.0760091096162796, -0.0037208397407084703, -0.08028235286474228
21666, 0.003981422632932663, -0.005933826323598623, 0.005437603686004877, -0.009746396914124489, -0.017439207062125206, -0.00016746966866776347, -0.04264054819941521, -0.07561714947223663, -0.0010370250092819333, -2.724762439727783, -3.780972719192505, 0.002260499633848667, 0.14214448873503926, 3.2924232283081096, 90.57780987222284, 0, 0, 0, 0, 0, 0, 0, 0, -0.008280390873551369, -0.01676822640001774, 1.000234603881836, -0.2223937064409256, -0.16805227100849152, 0.004475205671042204
21676, 0.004349792841821909, -0.006282510235905647, 0.0059873322024941444, -0.010177312418818474, -0.018203772604465485, -0.00017819608910940588, -0.043542537838220596, -0.07729584723711014, -0.0011078211246058345, -2.728100299835205, -3.781748056411743, 0.010652379132807255, 0.9395787337733899, -0.3773258100382293, 90.12371895592926, 0, 0, 0, 0, 0, 0, 0, 0, -0.009475573897361755, -0.01690792106091976, 1.0011796951293945, -0.05202732980251312, 0.03754671290516853, 0.03235328570008278
21686, 0.004367495886981487, -0.0074158101342618465, 0.006997334770858288, -0.010616863146424294, -0.01898495852947235, -0.00018902349984273314, -0.044367652386426926, -0.07894128561019897, -0.0010572676546871662, -2.7247908115386963, -3.781090259552002, 0.003508627414703369, 0.960261720359442, 4.952390622876237, 90.64496883276153, 0, 0, 0, 0, 0, 0, 0, 0, -0.01074546854943037, -0.01967456564307213, 1.001240611076355, -0.07641014456748962, 0.2602273225784302, 0.25530606508255005
21696, 0.005027677398175001, -0.007216072175651789, 0.006822717841714621, -0.011065567843616009, -0.01978345401585102, -0.00019904490909539163, -0.04537331685423851, -0.08075772970914841, -0.0009465988259762526, -2.7247774600982666, -3.7810914516448975, 0.0035061542876064777, 1.0431547398064345, 5.0074026899049215, 90.6593888926439, 0, 0, 0, 0, 0, 0, 0, 0, -0.007964582182466984, -0.015816517174243927, 1.0009102821350098, 0.035448480397462845, -0.12366726994514465, 0.14584028720855713
21706, 0.003744164016097784, -0.006578835193067789, 0.007805003318935633, -0.011523849330842495, -0.02059992589056492, -0.00020769188995473087, -0.046283021569252014, -0.08253657072782516, -0.0007824209751561284, -2.7247536182403564, -3.7809677124023438, 0.0022024691570550203, 0.12997538841633313, 3.2321471811266917, 90.56794193782737, 0, 0, 0, 0, 0, 0, 0, 0, -0.010578247718513012, -0.015332556329667568, 1.0010768175125122, -0.20917795598506927, -0.039505839347839355, 0.12276054918766022
21716, 0.002551556099206209, -0.008377254009246826, 0.007717316970229149, -0.01199074275791645, -0.02143276482820511, -0.00021498164278455079, -0.04709559679031372, -0.08403141796588898, -0.0006751109613105655, -2.724762201309204, -3.7809810638427734, 0.0022405260242521763, 0.14982828134924048, 3.3610144557550825, 90.5815562204306, 0, 0, 0, 0, 0, 0, 0, 0, -0.011532788164913654, -0.01641419716179371, 0.9991942644119263, -0.21333320438861847, 0.30301183462142944, -0.07525859028100967
21726, 0.0018527735956013203, -0.008495294488966465, 0.00832495279610157, -0.012467204593122005, -0.022280888631939888, -0.00022166044800542295, -0.04819672182202339, -0.08559338003396988, -0.0006601872155442834, -2.72477388381958, -3.780975580215454, 0.0022963308729231358, 0.12915866393897574, 3.2769941603376935, 90.57348877952398, 0, 0, 0, 0, 0, 0, 0, 0, -0.008916735649108887, -0.013802777975797653, 0.9976217150688171, -0.02949005551636219, 0.06684800982475281, 0.16552208364009857
21736, 0.0020639256108552217, -0.008768209256231785, 0.008168989792466164, -0.012954345904290676, -0.02314436063170433, -0.0002289632975589484, -0.04923161491751671, -0.08710113167762756, -0.0007999697118066251, -2.7247583866119385, -3.7809665203094482, 0.002241658279672265, 0.15677231202932843, 3.1910733405143787, 90.58371570275744, 0, 0, 0, 0, 0, 0, 0, 0, -0.008597115986049175, -0.015891794115304947, 0.999205470085144, 0.09000618755817413, -0.06043267622590065, -0.05568885803222656
21746, 0.002337256446480751, -0.008470467291772366, 0.00832906924188137, -0.013450621627271175, -0.02402239292860031, -0.00023770204279571772, -0.050023630261421204, -0.088505320250988, -0.0009473865502513945, -2.7248098850250244, -3.781081199645996, 0.003553920891135931, 0.978666075074575, 4.996321063461352, 90.65517758980388, 0, 0, 0, 0, 0, 0, 0, 0, -0.010718184523284435, -0.016375195235013962, 0.9991759061813354, 0.02259819582104683, -0.018494844436645508, 0.042373962700366974
21756, 0.0015563005581498146, -0.008388369344174862, 0.00810100045055151, -0.013955488801002502, -0.024915436282753944, -0.0002476647205185145, -0.050949785858392715, -0.09010322391986847, -0.001044767559505999, -2.724757671356201, -3.7809643745422363, 0.0022243272978812456, 0.15237392880808986, 3.210326860919338, 90.5684791490367, 0, 0, 0, 0, 0, 0, 0, 0, -0.010518006980419159, -0.014833714812994003, 1.0011762380599976, -0.08832161873579025, -0.12110982835292816, -0.10798537731170654
21766, 0.0024722011294215918, -0.009144030511379242, 0.008741488680243492, -0.014469939284026623, -0.02582405135035515, -0.0002578400308266282, -0.051940299570560455, -0.09161961823701859, -0.0009898850694298744, -2.724802255630493, -3.78108549118042, 0.00350024551153183, 0.9510286854073036, 4.944832044753895, 90.66373097219416, 0, 0, 0, 0, 0, 0, 0, 0, -0.008617781102657318, -0.016000978648662567, 1.0011836290359497, 0.1476888358592987, 0.05047103762626648, 0.1414758414030075
21776, 0.002103212056681514, -0.010284610092639923, 0.008409250527620316, -0.014993976801633835, -0.026747724041342735, -0.00026725526549853384, -0.05286725237965584, -0.09311488270759583, -0.0008927926537580788, -2.724780559539795, -3.7809743881225586, 0.0022568521089851856, 0.12472039784868523, 3.2585999233878624, 90.58847195483226, 0, 0, 0, 0, 0, 0, 0, 0, -0.009147264063358307, -0.019457416608929634, 0.9993831515312195, -0.0011877119541168213, 0.06349294632673264, 0.03958752751350403
21786, 0.0018032202497124672, -0.010732598602771759, 0.00868433527648449, -0.015526610426604748, -0.027687331661581993, -0.00027582113398239017, -0.053659453988075256, -0.0948064848780632, -0.0008199750445783138, -2.7247979640960693, -3.781080961227417, 0.0035366923548281193, 0.9904942954983783, 4.926442294420042, 90.6397236757387, 0, 0, 0, 0, 0, 0, 0, 0, -0.009214314632117748, -0.018217019736766815, 0.9997334480285645, 0.012562618590891361, -0.018423328176140785, 0.05600034445524216
21796, 0.0009621002827771008, -0.011563356965780258, 0.009878906421363354, -0.016067830845713615, -0.02864481694996357, -0.0002844173868652433, -0.054584477096796036, -0.0966905727982521, -0.0008988640620373189, -2.724801540374756, -3.781069040298462, 0.0035452162846922874, 0.938265893156179, 4.963598814974347, 90.64655248793765, 0, 0, 0, 0, 0, 0, 0, 0, -0.008463949896395206, -0.015923259779810905, 1.0011645555496216, -0.08336341381072998, 0.04659974202513695, 0.044613342732191086
21806, 0.0004272469086572528, -0.010720859281718731, 0.010099267587065697, -0.016617856919765472, -0.029620300978422165, -0.00029328183154575527, -0.055420853197574615, -0.09840638935565948, -0.0008735973387956619, -2.724804162979126, -3.7810819149017334, 0.0035295835696160793, 0.9863141756147404, 4.927172644227625, 90.6583317474693, 0, 0, 0, 0, 0, 0, 0, 0, -0.009858679957687855, -0.016372932121157646, 1.001564621925354, -0.0945507138967514, -0.12975269556045532, -0.06910515576601028
21816, -0.00027711273287422955, -0.010944059118628502, 0.010003252886235714, -0.017176378518342972, -0.03061211295425892, -0.00030116704874671996, -0.0562833696603775, -0.09995591640472412, -0.0007030577398836613, -2.7247936725616455, -3.7810699939727783, 0.00355296372435987, 1.014924177644859, 4.924937769920717, 90.64417036139125, 0, 0, 0, 0, 0, 0, 0, 0, -0.009245939552783966, -0.01716597191989422, 1.0009645223617554, 0.029119964689016342, -0.09036651253700256, -0.06459424644708633
21826, -0.0012752050533890724, -0.011403409764170647, 0.009861432015895844, -0.01774376444518566, -0.031620003283023834, -0.0003075213171541691, -0.05719373747706413, -0.10162190347909927, -0.0005673905834555626, -2.7248106002807617, -3.7810847759246826, 0.0035321025643497705, 0.9954274177647526, 4.974098884862599, 90.64908786731355, 0, 0, 0, 0, 0, 0, 0, 0, -0.010215450078248978, -0.016208548098802567, 1.0023571252822876, -0.02964009903371334, -0.03442864120006561, -0.07399318367242813
21836, -0.0013056593015789986, -0.012372319586575031, 0.010750604793429375, -0.018320444971323013, -0.032644424587488174, -0.00031260933610610664, -0.058142468333244324, -0.10326248407363892, -0.0004497915506362915, -2.724776268005371, -3.781064748764038, 0.0035634455271065235, 1.0298616202166788, 5.024281577382538, 90.64383067272675, 0, 0, 0, 0, 0, 0, 0, 0, -0.009533855132758617, -0.01727893203496933, 1.0009347200393677, 0.06059844419360161, 0.08888022601604462, 0.06755684316158295
21846, -0.001129350857809186, -0.013434983789920807, 0.010065888985991478, -0.01890655606985092, -0.03368501365184784, -0.00031637868960388005, -0.059079609811306, -0.10485554486513138, -0.0003036812995560467, -2.7248027324676514, -3.7810890674591064, 0.003503378015011549, 1.0250654901815215, 4.9945448092690015, 90.66318272742068, 0, 0, 0, 0, 0, 0, 0, 0, -0.009537136182188988, -0.017879441380500793, 0.9998753070831299, 0.05479343235492706, 0.07815327495336533, -0.06180468574166298
21856, -0.0011710305698215961, -0.013821698725223541, 0.010139747522771358, -0.019501693546772003, -0.034742482006549835, -0.0003189653216395527, -0.05994810536503792, -0.10663817077875137, -0.00021325437410268933, -2.7247872352600098, -3.781080961227417, 0.0035167280584573746, 1.0052006822435933, 5.027132140319708, 90.649353036041, 0, 0, 0, 0, 0, 0, 0, 0, -0.010089852847158909, -0.0162203349173069, 0.9983825087547302, -0.07576261460781097, -0.0008080420084297657, 0.13511179387569427
21866, -0.0008459918317385018, -0.01325194537639618, 0.01084980834275484, -0.02010614611208439, -0.03581714257597923, -0.0003216633340343833, -0.06094249337911606, -0.1082942932844162, -0.00032596764503978193, -2.7248048782348633, -3.781078815460205, 0.0035506845451891422, 1.0029730686627754, 4.933618001935031, 90.64288788125863, 0, 0, 0, 0, 0, 0, 0, 0, -0.009400648064911366, -0.016638537868857384, 1.000618577003479, 0.09854146838188171, -0.1857762187719345, 0.2883812487125397
21876, -4.956094562658109e-05, -0.012740164995193481, 0.011643125675618649, -0.020720100030303, -0.0369081050157547, -0.0003251251473557204, -0.06184834986925125, -0.1098983958363533, -0.0003660375368781388, -2.724797487258911, -3.781097650527954, 0.0035571372136473656, 1.0491779102687777, 4.972262589800096, 90.64721641284127, 0, 0, 0, 0, 0, 0, 0, 0, -0.010004054754972458, -0.016866572201251984, 1.0015790462493896, 0.09830533713102341, 0.005702762398868799, 0.2501961886882782
21886, -0.0003778678656090051, -0.012254204601049423, 0.01320585422217846, -0.021343346685171127, -0.03801533579826355, -0.00032822141656652093, -0.06280096620321274, -0.11154767125844955, -0.0002528639161027968, -2.7247660160064697, -3.780963659286499, 0.00225653825327754, 0.11640466271439126, 3.2554152411705104, 90.57165903541937, 0, 0, 0, 0, 0, 0, 0, 0, -0.00930826086550951, -0.01529719214886427, 1.0004503726959229, -0.018100189045071602, 0.04055427014827728, 0.2058279663324356
21896, 0.0001240675337612629, -0.013330155052244663, 0.01317770965397358, -0.021976104006171227, -0.0391388013958931, -0.0003301598480902612, -0.06375065445899963, -0.11314529180526733, -0.0001344419433735311, -2.7247517108917236, -3.780968427658081, 0.0021907745394855738, 0.16961176542173356, 3.2988589608895893, 90.58076968017275, 0, 0, 0, 0, 0, 0, 0, 0, -0.00936767179518938, -0.01720988191664219, 0.998373806476593, -0.0007535620825365186, 0.20344789326190948, -0.06413043290376663
21906, -0.0015543560730293393, -0.013031765818595886, 0.012970595620572567, -0.022617807611823082, -0.040278200060129166, -0.0003319537499919534, -0.064590223133564, -0.1147347018122673, -0.00022394755796995014, -2.7247745990753174, -3.781090497970581, 0.0035209008492529392, 1.0212761139374544, 5.025722132318947, 90.66264065326675, 0, 0, 0, 0, 0, 0, 0, 0, -0.009389406070113182, -0.01844927854835987, 1.0003223419189453, -0.3094334304332733, -0.20237824320793152, -0.07680095732212067
21916, -0.0005353569285944104, -0.01271611824631691, 0.013887223787605762, -0.023268230259418488, -0.041434165090322495, -0.0003345280128996819, -0.06549451500177383, -0.11645837128162384, -0.0002904908615164459, -2.724743366241455, -3.780968427658081, 0.002227998338639736, 0.11410295551812977, 3.2023413922693464, 90.5700692935997, 0, 0, 0, 0, 0, 0, 0, 0, -0.011194913648068905, -0.017881887033581734, 1.001439094543457, 0.04455903545022011, -0.06284106522798538, 0.07752435654401779
21926, -0.0007858073804527521, -0.012842717580497265, 0.01459223311394453, -0.023928092792630196, -0.04260799288749695, -0.000336971104843542, -0.06647792458534241, -0.11830689758062363, -0.00019779778085649014, -2.724766969680786, -3.7809767723083496, 0.002224139403551817, 0.19876271640066653, 3.2509402915999033, 90.57533472668801, 0, 0, 0, 0, 0, 0, 0, 0, -0.009990616701543331, -0.016753848642110825, 1.001652717590332, -0.09331943839788437, 0.045353397727012634, 0.036349594593048096
21936, 0.00046211513108573854, -0.012294240295886993, 0.013600342907011509, -0.0245980154722929, -0.04379941523075104, -0.0003380140697117895, -0.06750645488500595, -0.1199779063463211, -1.0409798960608896e-05, -2.724747657775879, -3.780979871749878, 0.0021636728197336197, 0.18743334941875486, 3.3020482410730665, 90.57825436561177, 0, 0, 0, 0, 0, 0, 0, 0, -0.0086062578484416, -0.016780419275164604, 0.9998215436935425, 0.18848180770874023, -0.07746665924787521, -0.12952286005020142
21946, 0.00011371046275598928, -0.011888834647834301, 0.01338371355086565, -0.02527768164873123, -0.04500735178589821, -0.00033788333530537784, -0.06842678785324097, -0.12160952389240265, 3.689589721034281e-05, -2.7248189449310303, -3.7810795307159424, 0.003573082620278001, 0.9761921714934154, 4.953882702502966, 90.6503416267212, 0, 0, 0, 0, 0, 0, 0, 0, -0.009521560743451118, -0.017742715775966644, 1.001488447189331, -0.11873248219490051, -0.10839486122131348, -0.008706311695277691
21956, 0.0003742992121260613, -0.01167137548327446, 0.012633446604013443, -0.025966079905629158, -0.04623182862997055, -0.00033717669430188835, -0.06925283372402191, -0.12328549474477768, 0.00010481844219611958, -2.724796772003174, -3.781088352203369, 0.003567890264093876, 1.01141615878584, 4.916015765380166, 90.65344764759888, 0, 0, 0, 0, 0, 0, 0, 0, -0.009200741536915302, -0.019306523725390434, 0.999464750289917, 0.1429787427186966, -0.1600349396467209, -0.2094530612230301
21966, -0.00010542316158534959, -0.012677332386374474, 0.011954911053180695, -0.02666335366666317, -0.04747384786605835, -0.00033611906110309064, -0.07020179182291031, -0.1251184493303299, 0.00010707362525863573, -2.7247989177703857, -3.781092405319214, 0.003532301401719451, 1.0172089746929003, 4.983280487478282, 90.64801095409179, 0, 0, 0, 0, 0, 0, 0, 0, -0.006646547466516495, -0.018763139843940735, 0.9997640252113342, -0.04355897009372711, 0.14183242619037628, 0.08759095519781113
21976, -0.000822818314190954, -0.015076659619808197, 0.012590134516358376, -0.027368886396288872, -0.048734281212091446, -0.0003353123611304909, -0.0709046795964241, -0.1269681453704834, 5.466563379741274e-05, -2.7247867584228516, -3.7810781002044678, 0.0035809786058962345, 1.0854486996291062, 4.968656165896931, 90.63246102712857, 0, 0, 0, 0, 0, 0, 0, 0, -0.012119018472731113, -0.017586933448910713, 1.0013333559036255, -0.026481011882424355, 0.2957046926021576, 0.19205959141254425
21986, -0.0011535600060597062, -0.014441806823015213, 0.013511784374713898, -0.028082329779863358, -0.050013069063425064, -0.00033458767575211823, -0.07178416848182678, -0.12878914177417755, 9.070535452337936e-05, -2.724759817123413, -3.780961751937866, 0.002280646236613393, 0.15928976672368955, 3.300396839390288, 90.5816295147552, 0, 0, 0, 0, 0, 0, 0, 0, -0.011704306118190289, -0.015493250451982021, 1.0035511255264282, -0.0696258693933487, 0.018952026963233948, 0.07722950726747513
21996, -0.0002364071406191215, -0.01444235909730196, 0.012965042144060135, -0.02880590409040451, -0.05130920931696892, -0.00033267211983911693, -0.07293086498975754, -0.13043901324272156, 0.000292771466774866, -2.7247562408447266, -3.780974864959717, 0.002225615084171295, 0.1452735060194548, 3.2316358732586252, 90.56668671638413, 0, 0, 0, 0, 0, 0, 0, 0, -0.010732486844062805, -0.01638360507786274, 1.0026330947875977, 0.10142091661691666, -0.010410042479634285, -0.10594821721315384
22006, 0.0003171898133587092, -0.01399956550449133, 0.012822424061596394, -0.029540512710809708, -0.05262129008769989, -0.0003282522957306355, -0.07399100065231323, -0.13197743892669678, 0.0005915443762205541, -2.72480845451355, -3.7810773849487305, 0.003578491508960724, 1.0601682585175434, 5.000456595618459, 90.65343464614078, 0, 0, 0, 0, 0, 0, 0, 0, -0.009932960383594036, -0.016889663413167, 1.00104558467865, 0.045080605894327164, 0.027533963322639465, 0.10316095501184464
22016, 0.0002124023885698989, -0.013757226057350636, 0.013297188095748425, -0.03028530813753605, -0.05394945666193962, -0.00032116510556079447, -0.07496798038482666, -0.13365548849105835, 0.0008262452902272344, -2.7248311042785645, -3.78100848197937, 0.0021981450263410807, 0.00041569306379096683, 3.6944114545389937, 90.56683088660537, 0, 0, 0, 0, 0, 0, 0, 0, -0.00725064892321825, -0.014190235175192356, 0.9990462064743042, -0.0006361473351716995, -0.05012400075793266, 0.0860048308968544
22026, 0.0006630932912230492, -0.012514831498265266, 0.01388741284608841, -0.031039157882332802, -0.05529332906007767, -0.00031300136470235884, -0.07580191642045975, -0.13511936366558075, 0.0008068731403909624, -2.7247748374938965, -3.7810754776000977, 0.0034737060777843, 0.9869018608369436, 5.01268553418123, 90.65925503294844, 0, 0, 0, 0, 0, 0, 0, 0, -0.008846371434628963, -0.017455382272601128, 0.9991000294685364, -0.05471230298280716, -0.2041148543357849, 0.003470789175480604
22036, 0.0014947153395041823, -0.011400561779737473, 0.015311598777770996, -0.03180084750056267, -0.05665207281708717, -0.0003054851258639246, -0.07653596252202988, -0.13662955164909363, 0.0006967335939407349, -2.724764108657837, -3.7809841632843018, 0.0022248525638133287, 0.0933215959848054, 3.2366447703686845, 90.5664915863498, 0, 0, 0, 0, 0, 0, 0, 0, -0.011000038124620914, -0.017431389540433884, 0.9995739459991455, 0.0893595814704895, -0.09398269653320312, 0.18304458260536194
22046, 0.0023952461779117584, -0.010875673033297062, 0.013275711797177792, -0.03257095441222191, -0.05802714079618454, -0.0002986811741720885, -0.07748540490865707, -0.1383843719959259, 0.0006644029635936022, -2.724764108657837, -3.7809841632843018, 0.0022248525638133287, 0.0933215959848054, 3.2366447703686845, 90.5664915863498, 0, 0, 0, 0, 0, 0, 0, 0, -0.010447576642036438, -0.01589682511985302, 1.0014028549194336, 0.09486730396747589, 0.09011684358119965, -0.3718700110912323
22056, 0.0024389249738305807, -0.011474743485450745, 0.013007835485041142, -0.03335104510188103, -0.059419162571430206, -0.0002919257676694542, -0.07853256165981293, -0.14001993834972382, 0.0006870328215882182, -2.7247650623321533, -3.780967950820923, 0.002201562747359276, 0.14052735305382547, 3.2941153714942573, 90.58860809463143, 0, 0, 0, 0, 0, 0, 0, 0, -0.008177279494702816, -0.014951959252357483, 1.0020500421524048, -0.031285542994737625, 0.09490446001291275, 0.059196263551712036
22066, 0.002641585422679782, -0.012471508234739304, 0.013212382793426514, -0.03414090350270271, -0.060826756060123444, -0.0002839539956767112, -0.07943902909755707, -0.14149898290634155, 0.0009077146532945335, -2.7247819900512695, -3.7810611724853516, 0.003565586172044277, 1.0808514413686436, 4.998668835504901, 90.64482652072503, 0, 0, 0, 0, 0, 0, 0, 0, -0.00925486534833908, -0.01750131882727146, 1.0013543367385864, 0.11070755869150162, 0.03560725226998329, -0.0654066801071167
22076, 0.002389070810750127, -0.011552602052688599, 0.013612378388643265, -0.034939512610435486, -0.06224976107478142, -0.00027416294324211776, -0.0802827998995781, -0.14310222864151, 0.0010508883278816938, -2.724776268005371, -3.781069040298462, 0.0035373037680983543, 1.0323414159468312, 4.982432823496936, 90.65493270633962, 0, 0, 0, 0, 0, 0, 0, 0, -0.011549334973096848, -0.017338119447231293, 1.0002257823944092, -0.1074613481760025, -0.13194076716899872, 0.03912452980875969
22086, 0.0017417166382074356, -0.01241980493068695, 0.0128615852445364, -0.035747330635786057, -0.0636894553899765, -0.00026338911266066134, -0.08128101378679276, -0.14483676850795746, 0.0011042506666854024, -2.7247631549835205, -3.7809648513793945, 0.0022152585443109274, 0.1289908946060893, 3.214620134626557, 90.56409917679802, 0, 0, 0, 0, 0, 0, 0, 0, -0.010254527442157269, -0.014989780262112617, 1.0016412734985352, -0.13647547364234924, 0.16587600111961365, -0.1383996605873108
22096, 0.0015320663806051016, -0.012459415011107922, 0.013385187834501266, -0.03656553477048874, -0.06514567881822586, -0.0002519307017792016, -0.08236009627580643, -0.1464076191186905, 0.0011878490913659334, -2.72479510307312, -3.780984401702881, 0.00231173075735569, 0.13080367606031415, 3.3018261435097145, 90.58210059584562, 0, 0, 0, 0, 0, 0, 0, 0, -0.00776628078892827, -0.014802994206547737, 1.000234842300415, -0.08174853026866913, -0.07354611158370972, 0.0041648345068097115
22106, 0.0006643946981057525, -0.013702062889933586, 0.013074629008769989, -0.03739352524280548, -0.06661710143089294, -0.00023958741803653538, -0.08323837071657181, -0.14787673950195312, 0.001281194039620459, -2.7248013019561768, -3.78106689453125, 0.0035440148785710335, 1.0261131067743614, 4.948428259859099, 90.64022224997981, 0, 0, 0, 0, 0, 0, 0, 0, -0.008623989298939705, -0.014898823574185371, 1.0009056329727173, -0.11732004582881927, 0.21609778702259064, -0.08268701285123825
22116, 0.0006799778784625232, -0.015075081959366798, 0.01332835666835308, -0.03822978958487511, -0.06810301542282104, -0.00022653499036096036, -0.08401478826999664, -0.14930550754070282, 0.0013297047698870301, -2.724806547164917, -3.7810659408569336, 0.0035142931155860424, 0.9387893535286127, 4.931620046732064, 90.66084719917203, 0, 0, 0, 0, 0, 0, 0, 0, -0.010617882944643497, -0.018682902678847313, 0.9977538585662842, -0.03723371401429176, 0.0943606048822403, 0.09091519564390182
22126, 0.0010149681475013494, -0.01417489256709814, 0.013157010078430176, -0.039074454456567764, -0.06960426270961761, -0.00021320689120329916, -0.08491792529821396, -0.15094412863254547, 0.0013363012112677097, -2.7247650623321533, -3.780968189239502, 0.00222733523696661, 0.13775494228267463, 3.1628148929437714, 90.57309821061807, 0, 0, 0, 0, 0, 0, 0, 0, -0.009575661271810532, -0.016670240089297295, 1.0005097389221191, 0.004368537105619907, -0.16982588171958923, 0.14517872035503387
22136, 0.0008660572348162532, -0.014624499715864658, 0.013708135113120079, -0.03992843255400658, -0.0711226686835289, -0.000200504349777475, -0.08587811142206192, -0.15273743867874146, 0.001204560394398868, -2.7247626781463623, -3.780968427658081, 0.002232578583061695, 0.12801467771650193, 3.2977055243193263, 90.57704797270871, 0, 0, 0, 0, 0, 0, 0, 0, -0.010558579117059708, -0.014545424841344357, 0.9992304444313049, -0.04000089690089226, 0.14336566627025604, 0.12242942303419113
22146, 0.00013230055628810078, -0.016044756397604942, 0.013435177505016327, -0.04079187661409378, -0.0726577416062355, -0.0001881712523754686, -0.08681104332208633, -0.15427778661251068, 0.0012624458177015185, -2.724796772003174, -3.781092643737793, 0.0035127662122249603, 1.0320153373529692, 4.9635442619018875, 90.65066337456912, 0, 0, 0, 0, 0, 0, 0, 0, -0.01244901679456234, -0.01691201515495777, 0.9988746047019958, -0.09782619029283524, 0.12029675394296646, 0.021886924281716347
22156, 0.0004058150516357273, -0.016171341761946678, 0.014764043502509594, -0.04175325855612755, -0.07436417788267136, -0.00017542191199027002, -0.08798564225435257, -0.15598320960998535, 0.0010560719529166818, -2.724764823913574, -3.7809877395629883, 0.002210220554843545, 0.16398342591965262, 3.295233586850827, 90.57875615470583, 0, 0, 0, 0, 0, 0, 0, 0, -0.0120325218886137, -0.015146206133067608, 1.001792550086975, 0.10778947919607162, 0.0736461877822876, 0.1549895703792572
22166, 0.0004058150516357273, -0.016171341761946678, 0.014764043502509594, -0.04272826015949249, -0.07608962804079056, -0.0001634715881664306, -0.08928735554218292, -0.15773510932922363, 0.0011171088553965092, -2.7247655391693115, -3.7809665203094482, 0.002275535836815834, 0.1475084023218495, 3.2563921897577472, 90.57878702036083, 0, 0, 0, 0, 0, 0, 0, 0, -0.012303397059440613, -0.016267484053969383, 1.0005054473876953, 0.04133589193224907, -0.25609517097473145, 0.16861242055892944
22176, 0.00042484753066673875, -0.015697883442044258, 0.015611567534506321, -0.043627046048641205, -0.07767476886510849, -0.0001516908232588321, -0.09047005325555801, -0.15929292142391205, 0.0012394058285281062, -2.724806785583496, -3.7810637950897217, 0.00352347269654274, 0.9960648952798364, 4.938695021905147, 90.65107131685464, 0, 0, 0, 0, 0, 0, 0, 0, -0.008448546752333641, -0.018344776704907417, 0.9994622468948364, 0.042782220989465714, -0.07723218202590942, 0.0813470110297203
22186, 0.001514039351604879, -0.014776496216654778, 0.015149187296628952, -0.04453650861978531, -0.07927635312080383, -0.00013947943807579577, -0.09142228960990906, -0.1610233187675476, 0.0012031916994601488, -2.7247703075408936, -3.781085968017578, 0.003466916736215353, 1.0130524586566638, 4.969820338364315, 90.65195223949546, 0, 0, 0, 0, 0, 0, 0, 0, -0.010287131182849407, -0.014767039567232132, 1.0008785724639893, 0.10570478439331055, 0.15249820053577423, 0.05703771859407425
22196, 0.001912980806082487, -0.015202907845377922, 0.01593972183763981, -0.04545515403151512, -0.08089461922645569, -0.00012735588825307786, -0.09230681508779526, -0.16263063251972198, 0.0012218718184158206, -2.724743604660034, -3.780970573425293, 0.002189446007832885, 0.12130473579941346, 3.211675116648962, 90.5740215191773, 0, 0, 0, 0, 0, 0, 0, 0, -0.012509522959589958, -0.015619494020938873, 1.0012906789779663, 0.07321219891309738, -0.27371370792388916, 0.023212585598230362
22206, 0.002532751066610217, -0.012941903434693813, 0.015868492424488068, -0.0463838167488575, -0.08252821117639542, -0.00011436795466579497, -0.09342590719461441, -0.16408832371234894, 0.0013760235160589218, -2.72479248046875, -3.7810583114624023, 0.0035987780429422855, 1.0727058372900766, 4.9571631580527935, 90.63973534130936, 0, 0, 0, 0, 0, 0, 0, 0, -0.011486595496535301, -0.017733698710799217, 1.0001782178878784, -0.002425494836643338, -0.08894719183444977, -0.12983308732509613
22216, 0.0023258605506271124, -0.013334673829376698, 0.01476843561977148, -0.047323986887931824, -0.08417747169733047, -0.00010041080531664193, -0.09460821747779846, -0.16576440632343292, 0.001415808917954564, -2.7249927520751953, -3.781291961669922, 0.0034232730977237225, 0.9488839289345461, 5.158161984703781, 90.81715205155932, 0, 0, 0, 0, 0, 0, 0, 0, -0.0085802236571908, -0.016785696148872375, 0.9996666312217712, 0.135055810213089, -0.20989663898944855, -0.052361879497766495
22226, 0.0037519147153943777, -0.011928750202059746, 0.013160011731088161, -0.048274725675582886, -0.08584389090538025, -8.630621596239507e-05, -0.09553930908441544, -0.16751988232135773, 0.0014054225757718086, -2.7247636318206787, -3.7809817790985107, 0.002217471832409501, 0.13085316989737078, 3.201205658550464, 90.57401975141856, 0, 0, 0, 0, 0, 0, 0, 0, -0.009888183325529099, -0.015069564804434776, 0.99857097864151, -0.14502958953380585, 0.1780286282300949, -0.13652127981185913
22236, 0.004055239260196686, -0.013503341935575008, 0.012154699303209782, -0.04923466965556145, -0.08752661943435669, -7.277572876773775e-05, -0.09644989669322968, -0.1690261960029602, 0.0013010672992095351, -2.7247602939605713, -3.780978202819824, 0.0022417556028813124, 0.14102565346281293, 3.2421990065321893, 90.58111015600544, 0, 0, 0, 0, 0, 0, 0, 0, -0.009869704954326153, -0.018113061785697937, 0.9998689889907837, 0.12724001705646515, 0.10748449712991714, 0.01827950030565262
22246, 0.004509580321609974, -0.013332598842680454, 0.01234110165387392, -0.05020398274064064, -0.08922526240348816, -6.017004488967359e-05, -0.0974126011133194, -0.1707024723291397, 0.0012204424710944295, -2.7247631549835205, -3.7809712886810303, 0.0022588453721255064, 0.14801967487455156, 3.2982788416061055, 90.58010826891402, 0, 0, 0, 0, 0, 0, 0, 0, -0.010281984694302082, -0.015461298637092113, 0.9982130527496338, -0.0950189158320427, -0.022342976182699203, 0.06708544492721558
22256, 0.0046607013791799545, -0.013332066126167774, 0.013088008388876915, -0.051182594150304794, -0.0909406989812851, -4.8390444135293365e-05, -0.09830998629331589, -0.17238426208496094, 0.001135862898081541, -2.7247836589813232, -3.781046152114868, 0.003594484180212021, 1.0204573616122377, 4.964264689475158, 90.62677934224848, 0, 0, 0, 0, 0, 0, 0, 0, -0.011144421063363552, -0.013847675174474716, 1.0000120401382446, 0.04038970544934273, -0.1113075464963913, -0.05692315846681595
22266, 0.004351683892309666, -0.012516723945736885, 0.012367647141218185, -0.052170976996421814, -0.09267152100801468, -3.759897663258016e-05, -0.09936629235744476, -0.17378073930740356, 0.0010228202445432544, -2.7247769832611084, -3.781079053878784, 0.003462201450020075, 1.0482546389990215, 5.029846338028676, 90.65196206411554, 0, 0, 0, 0, 0, 0, 0, 0, -0.010237641632556915, -0.015693722292780876, 1.0007870197296143, 0.05628972873091698, -0.3029291033744812, 0.17078103125095367
22276, 0.004669918678700924, -0.010913667269051075, 0.012405503541231155, -0.053169600665569305, -0.09441676735877991, -2.677229349501431e-05, -0.10035860538482666, -0.1752685159444809, 0.0011428792495280504, -2.7248048782348633, -3.78109073638916, 0.00350088719278574, 0.9156516731353311, 4.94910681428496, 90.64801902267462, 0, 0, 0, 0, 0, 0, 0, 0, -0.010536735877394676, -0.01542713027447462, 1.0008914470672607, 0.050788380205631256, -0.1108035296201706, -0.1592085361480713
22286, 0.004701334983110428, -0.009693981148302555, 0.011635757982730865, -0.05417798459529877, -0.0961773693561554, -1.5004101442173123e-05, -0.1013186052441597, -0.17685151100158691, 0.0012111339019611478, -2.724792957305908, -3.7810630798339844, 0.003567734267562628, 1.0487849872006643, 4.949161484245906, 90.64246688610815, 0, 0, 0, 0, 0, 0, 0, 0, -0.01063383650034666, -0.016048496589064598, 1.0008571147918701, 0.02781306393444538, -0.07370906323194504, 0.3404686152935028
22296, 0.0035084551200270653, -0.010381132364273071, 0.012688039802014828, -0.05519639328122139, -0.09795364737510681, -2.596963895484805e-06, -0.10236281901597977, -0.1784042865037918, 0.0012707412242889404, -2.724796772003174, -3.781083583831787, 0.0035211509093642235, 0.9427977251627242, 4.9331436457628115, 90.63650327093696, 0, 0, 0, 0, 0, 0, 0, 0, -0.009566358290612698, -0.018245447427034378, 0.9983057379722595, -0.12815378606319427, 0.05304594710469246, -0.108566515147686
22306, 0.002380844671279192, -0.01061564777046442, 0.011528031900525093, -0.056224673986434937, -0.09974632412195206, 9.772978955879807e-06, -0.1032930240035057, -0.18013118207454681, 0.001203673193231225, -2.724794387817383, -3.7810821533203125, 0.0035026969853788614, 0.9691634786626416, 4.990109021212476, 90.66231796172008, 0, 0, 0, 0, 0, 0, 0, 0, -0.01052270270884037, -0.01780221238732338, 0.9993979334831238, -0.06418599933385849, 0.006797789596021175, -0.09210865199565887
22316, 0.002793872496113181, -0.009990483522415161, 0.010831505060195923, -0.05726265907287598, -0.10155656188726425, 2.13700404856354e-05, -0.10430415719747543, -0.18191637098789215, 0.0011160860303789377, -2.724818706512451, -3.7810652256011963, 0.00358336279168725, 0.9931975001949858, 4.87315747901647, 90.63802645304109, 0, 0, 0, 0, 0, 0, 0, 0, -0.009673848748207092, -0.015791773796081543, 0.9997700452804565, -0.2040354460477829, -0.14115267992019653, 0.012125356122851372
22326, 0.0020002503879368305, -0.009541209787130356, 0.010748338885605335, -0.058310750871896744, -0.10338402539491653, 3.2320705940946937e-05, -0.10531438142061234, -0.18357563018798828, 0.0010744374012574553, -2.7247912883758545, -3.7810873985290527, 0.0035376264713704586, 1.0241846464002575, 4.98107529409819, 90.66257569317644, 0, 0, 0, 0, 0, 0, 0, 0, -0.007311612367630005, -0.014464009553194046, 0.9993737936019897, -0.060848772525787354, -0.06862656772136688, 0.05550521984696388
22336, 0.0013668799074366689, -0.008887654170393944, 0.011657127179205418, -0.059367768466472626, -0.1052267849445343, 4.2754196329042315e-05, -0.10608882457017899, -0.18497589230537415, 0.0010126465931534767, -2.7247862815856934, -3.7810745239257812, 0.00354347238317132, 1.0010844896696542, 4.988188601855313, 90.62895244468915, 0, 0, 0, 0, 0, 0, 0, 0, -0.007960183545947075, -0.016676144674420357, 0.9997638463973999, -0.19831804931163788, 0.09724597632884979, 0.09328600019216537
22346, 0.0007682732539251447, -0.009200177155435085, 0.01151715312153101, -0.06043215095996857, -0.10708450525999069, 5.2797055104747415e-05, -0.10678806900978088, -0.18656820058822632, 0.0009963264456018806, -2.724780797958374, -3.781080722808838, 0.0035170940682291985, 1.046083501811844, 4.979540311995976, 90.63869945075317, 0, 0, 0, 0, 0, 0, 0, 0, -0.008415323682129383, -0.018204694613814354, 0.9996653199195862, -0.03192871809005737, 0.026362964883446693, 0.1401118040084839
22356, 0.00039491013740189373, -0.010164307430386543, 0.01215674914419651, -0.06150390952825546, -0.10895878821611404, 6.256825872696936e-05, -0.10756339877843857, -0.18828828632831573, 0.0009583132923580706, -2.7247540950775146, -3.780959129333496, 0.0021874697413295507, 0.1759531913814675, 3.274902529187898, 90.58584044174505, 0, 0, 0, 0, 0, 0, 0, 0, -0.009477547369897366, -0.017530474811792374, 1.0008678436279297, -0.14566510915756226, 0.20542708039283752, -0.11150290817022324
22366, -0.0008066269801929593, -0.011107509955763817, 0.01260980125516653, -0.06258377432823181, -0.11085060983896255, 7.233288488350809e-05, -0.10840930044651031, -0.19007544219493866, 0.000995034002698958, -2.7247636318206787, -3.7810821533203125, 0.003520849160850048, 0.96370845158315, 4.987951587254969, 90.6465087270363, 0, 0, 0, 0, 0, 0, 0, 0, -0.01061359141021967, -0.017243698239326477, 1.0015013217926025, -0.24847188591957092, 0.30359771847724915, 0.11792454123497009
22376, -0.0024014676455408335, -0.012921661138534546, 0.012191098183393478, -0.06367295980453491, -0.11275983601808548, 8.286544471047819e-05, -0.10942783951759338, -0.19177016615867615, 0.001111907884478569, -2.7247636318206787, -3.7810821533203125, 0.003520849160850048, 0.96370845158315, 4.987951587254969, 90.6465087270363, 0, 0, 0, 0, 0, 0, 0, 0, -0.00935570802539587, -0.018500659614801407, 1.0011622905731201, -0.07279429584741592, -0.03681613877415657, 0.12949736416339874
22386, -0.003626445773988962, -0.013336398638784885, 0.012473312206566334, -0.06477178633213043, -0.11468644440174103, 9.461227455176413e-05, -0.11033755540847778, -0.19355110824108124, 0.0012378579704090953, -2.7247695922851562, -3.781090497970581, 0.00352561566978693, 1.0601793950972536, 5.027500980022438, 90.6489397243029, 0, 0, 0, 0, 0, 0, 0, 0, -0.009263952262699604, -0.01750384084880352, 0.9979332089424133, 0.02288901060819626, -0.08263783156871796, -0.16925641894340515
22396, -0.0032966455910354853, -0.01353341992944479, 0.01235354132950306, -0.06587955355644226, -0.11663056910037994, 0.00010660153930075467, -0.11121554672718048, -0.19527342915534973, 0.0011603528400883079, -2.7247605323791504, -3.780975580215454, 0.0022598595824092627, 0.18606481300632768, 3.245245636827093, 90.5788440856856, 0, 0, 0, 0, 0, 0, 0, 0, -0.00764799676835537, -0.016015473753213882, 0.9985116720199585, 0.03318411484360695, -0.13144521415233612, 0.13246412575244904
22406, -0.0029686610214412212, -0.012469606474041939, 0.013127238489687443, -0.06699571013450623, -0.11859140545129776, 0.00011722740600816905, -0.11201632022857666, -0.19689364731311798, 0.000965147337410599, -2.724764585494995, -3.7809739112854004, 0.0022648314479738474, 0.09547041063946819, 3.312351538313038, 90.57076204660704, 0, 0, 0, 0, 0, 0, 0, 0, -0.009659684263169765, -0.01669987291097641, 0.9989755749702454, 0.10154968500137329, 0.019280243664979935, -0.13617177307605743
22416, -0.0031661682296544313, -0.013364442624151707, 0.01283116452395916, -0.06812005490064621, -0.12056856602430344, 0.00012624324881471694, -0.11285315454006195, -0.19853898882865906, 0.0008384091779589653, -2.724764585494995, -3.7809739112854004, 0.0022648314479738474, 0.09547041063946819, 3.312351538313038, 90.57076204660704, 0, 0, 0, 0, 0, 0, 0, 0, -0.010663971304893494, -0.016316814348101616, 0.9988100528717041, -0.06281222403049469, 0.224994495511055, 0.1415717750787735
