otX0,otY0,otZ0,vx0,vy0,vz0,otRoll0,otPitch0,otYaw0,p0,q0,r0,T0,time
-1.5767290592193604,-1.4540985822677612,-1.0924828052520752,0.295543909072876,-0.18978536128997803,-0.3190056085586548,0.1125887781381607,-0.08116436004638672,-1.3136342763900757,0.06544648855924606,0.07542579621076584,0.09266653656959534,0.08526190370321274,0.0
-1.5737736225128174,-1.4559963941574097,-1.095672845840454,0.3065858483314514,-0.19385772943496704,-0.3135533034801483,0.11316145211458206,-0.08051899075508118,-1.3126254081726074,0.10066420584917068,0.10025055706501007,0.09025263041257858,0.24702629446983337,1.0
-1.5707077980041504,-1.4579349756240845,-1.0988084077835083,0.31790924072265625,-0.19794076681137085,-0.3103068768978119,0.11408659815788269,-0.07962480932474136,-1.3116121292114258,0.12666411697864532,0.12074283510446548,0.08892074972391129,0.3801838755607605,2.0
-1.5675287246704102,-1.4599143266677856,-1.1019114255905151,0.3294920027256012,-0.20197933912277222,-0.30887526273727417,0.11527177691459656,-0.07852645963430405,-1.310588002204895,0.14585888385772705,0.14228489995002747,0.08795801550149918,0.44854536652565,3.0
-1.5642337799072266,-1.4619340896606445,-1.1050001382827759,0.3412395715713501,-0.20590192079544067,-0.3083755671977997,0.11664873361587524,-0.07721421867609024,-1.3095474243164062,0.15943896770477295,0.1579718440771103,0.09049440920352936,0.5460658669471741,4.0
-1.5608214139938354,-1.4639930725097656,-1.1080838441848755,0.3532191514968872,-0.20969776809215546,-0.30920344591140747,0.11815936118364334,-0.07575055956840515,-1.3084615468978882,0.1700553148984909,0.15223193168640137,0.08996224403381348,0.6263406276702881,5.0
-1.5572892427444458,-1.4660900831222534,-1.1111758947372437,0.3654106855392456,-0.2133336067199707,-0.31112349033355713,0.11977849155664444,-0.07434490323066711,-1.3073856830596924,0.17789296805858612,0.16139107942581177,0.08851532638072968,0.6924194097518921,6.0
-1.5536351203918457,-1.4682234525680542,-1.1142871379852295,0.37780195474624634,-0.21680067479610443,-0.31394049525260925,0.12147760391235352,-0.07284832745790482,-1.306311011314392,0.18367920815944672,0.1647425889968872,0.09311768412590027,0.7468127012252808,7.0
-1.5498571395874023,-1.4703915119171143,-1.1174265146255493,0.3903781771659851,-0.22007857263088226,-0.3174947202205658,0.12323237210512161,-0.07132588326931,-1.3051841259002686,0.1879509687423706,0.15314452350139618,0.09719032049179077,0.7915869355201721,8.0
-1.545953392982483,-1.4725923538208008,-1.1206014156341553,0.40312740206718445,-0.22315509617328644,-0.3216543197631836,0.125029519200325,-0.06992551684379578,-1.3040283918380737,0.19110465049743652,0.12571114301681519,0.09231594204902649,0.828443169593811,9.0
-1.5419220924377441,-1.4748239517211914,-1.1238179206848145,0.41604313254356384,-0.22603507339954376,-0.32630980014801025,0.1268654316663742,-0.06879334151744843,-1.3029530048370361,0.19343289732933044,0.09097284078598022,0.0860864594578743,0.8587816953659058,10.0
-1.5377616882324219,-1.4770842790603638,-1.127081036567688,0.4291244447231293,-0.22874104976654053,-0.33136993646621704,0.12873299419879913,-0.06799984723329544,-1.3019816875457764,0.19515176117420197,0.08097589015960693,0.08638579398393631,0.883755087852478,11.0
-1.5334703922271729,-1.4793716669082642,-1.130394697189331,0.44237369298934937,-0.23130443692207336,-0.33675888180732727,0.130619078874588,-0.06730768829584122,-1.3010188341140747,0.19642072916030884,0.050335370004177094,0.08570302277803421,0.8425893783569336,12.0
-1.529046654701233,-1.481684684753418,-1.133762240409851,0.4556657671928406,-0.2337074726819992,-0.34157684445381165,0.1325215846300125,-0.06692025065422058,-1.3001015186309814,0.19735755026340485,0.046891823410987854,0.08331917226314545,0.8536944389343262,13.0
-1.5244899988174438,-1.484021782875061,-1.1371780633926392,0.46911221742630005,-0.2360028773546219,-0.34653183817863464,0.13443565368652344,-0.06656553596258163,-1.2992116212844849,0.1980491727590561,0.012250367552042007,0.08039339631795883,0.8795674443244934,14.0
-1.5197988748550415,-1.4863817691802979,-1.1406433582305908,0.4827446937561035,-0.2381993681192398,-0.3518238663673401,0.13636194169521332,-0.06655188649892807,-1.2983967065811157,0.19654609262943268,0.000852661207318306,0.08226844668388367,0.9008650183677673,15.0
-1.514971375465393,-1.4887638092041016,-1.144161581993103,0.4965651035308838,-0.24032986164093018,-0.35738828778266907,0.13827300071716309,-0.06665527820587158,-1.2975786924362183,0.19745011627674103,-0.016801852732896805,0.07617805898189545,0.8711540102958679,16.0
-1.5100057125091553,-1.4911670684814453,-1.1477354764938354,0.5104702711105347,-0.24238772690296173,-0.36253198981285095,0.14019867777824402,-0.06692668795585632,-1.2968456745147705,0.19811750948429108,-0.032542094588279724,0.07770590484142303,0.8939394354820251,17.0
-1.5049010515213013,-1.4935909509658813,-1.1513607501983643,0.5245739817619324,-0.24440975487232208,-0.3679662346839905,0.14213132858276367,-0.06735750287771225,-1.296120047569275,0.19861023128032684,-0.027758406475186348,0.08240552246570587,0.9126954078674316,18.0
-1.4996553659439087,-1.496035099029541,-1.1550403833389282,0.538873553276062,-0.24641017615795135,-0.3736349940299988,0.14406505227088928,-0.0677490159869194,-1.2953418493270874,0.19897398352622986,-0.01126299798488617,0.07730960100889206,0.928134560585022,19.0
-1.4942666292190552,-1.4984991550445557,-1.1587767601013184,0.5533614158630371,-0.24838262796401978,-0.37949326634407043,0.14600397646427155,-0.06797146797180176,-1.2945911884307861,0.19924253225326538,0.003939186222851276,0.0760963037610054,0.940843403339386,20.0
-1.4887330532073975,-1.5009829998016357,-1.162571668624878,0.5680274367332458,-0.2503089904785156,-0.38550469279289246,0.14794476330280304,-0.06804320216178894,-1.2938308715820312,0.19944079220294952,-0.027105536311864853,0.0727146565914154,0.9387298226356506,21.0
-1.4830527305603027,-1.5034860372543335,-1.166426658630371,0.5828349590301514,-0.2521684765815735,-0.3914690315723419,0.1498928815126419,-0.0684184804558754,-1.2931500673294067,0.1995871514081955,-0.03268082067370415,0.06795480847358704,0.9495649933815002,22.0
-1.477224349975586,-1.5060076713562012,-1.1703413724899292,0.5978214740753174,-0.25399723649024963,-0.3975597023963928,0.1518460512161255,-0.06884310394525528,-1.2925255298614502,0.19969521462917328,-0.04232154041528702,0.06456009298563004,0.9584840536117554,23.0
-1.4712461233139038,-1.5085476636886597,-1.1743170022964478,0.6129844188690186,-0.25580018758773804,-0.4037501811981201,0.15380340814590454,-0.06935910880565643,-1.291949987411499,0.19977499544620514,-0.026968348771333694,0.06344611197710037,0.9658257961273193,24.0
-1.465116262435913,-1.5111056566238403,-1.1783545017242432,0.6283231377601624,-0.25758662819862366,-0.41001829504966736,0.15576046705245972,-0.06972280889749527,-1.2913628816604614,0.17813365161418915,-0.015224061906337738,0.06384459137916565,0.9270184636116028,25.0
-1.4588329792022705,-1.5136815309524536,-1.1824547052383423,0.6437264084815979,-0.2593258321285248,-0.41574016213417053,0.15749940276145935,-0.06997224688529968,-1.2907543182373047,0.1820068657398224,0.005061326548457146,0.06527498364448547,0.9399247169494629,26.0
-1.4523956775665283,-1.5162748098373413,-1.1866121292114258,0.6592868566513062,-0.26102906465530396,-0.4216196537017822,0.15927372872829437,-0.07002464681863785,-1.29010009765625,0.16113822162151337,-0.013944661244750023,0.06594846397638321,0.9505485892295837,27.0
-1.4458028078079224,-1.5188851356506348,-1.1908283233642578,0.6749972105026245,-0.2626734673976898,-0.4276264011859894,0.1608409881591797,-0.07026692479848862,-1.2894694805145264,0.16463075578212738,-0.02391321398317814,0.06712502241134644,0.9592936635017395,28.0
-1.4390528202056885,-1.5215119123458862,-1.1951045989990234,0.6908373832702637,-0.2642843723297119,-0.43373680114746094,0.1624433547258377,-0.07061047106981277,-1.2888436317443848,0.14734786748886108,-0.038527145981788635,0.06112220883369446,0.966492235660553,29.0
-1.4321444034576416,-1.524154782295227,-1.199441909790039,0.7068102359771729,-0.26587042212486267,-0.43992868065834045,0.16387857496738434,-0.07108952105045319,-1.2883014678955078,0.15728873014450073,-0.06810586154460907,0.06110005080699921,0.9724178314208984,30.0
-1.4250762462615967,-1.5268135070800781,-1.203841209411621,0.7228992581367493,-0.26745155453681946,-0.44618651270866394,0.16541644930839539,-0.0718611404299736,-1.2878085374832153,0.16846787929534912,-0.07036317139863968,0.06048446148633957,0.9772955179214478,31.0
-1.4178472757339478,-1.52948796749115,-1.2083030939102173,0.7391210198402405,-0.2690548300743103,-0.4524926543235779,0.1670665293931961,-0.07265476137399673,-1.2873265743255615,0.15064078569412231,-0.08942104876041412,0.059533484280109406,0.9813106656074524,32.0
-1.4104560613632202,-1.532178521156311,-1.2128280401229858,0.7554853558540344,-0.27067872881889343,-0.4588335156440735,0.16854102909564972,-0.0736355185508728,-1.2868870496749878,0.15494391322135925,-0.11076999455690384,0.06104864552617073,0.9846157431602478,33.0
-1.4029011726379395,-1.534885287284851,-1.2174164056777954,0.7719778418540955,-0.2723481059074402,-0.46520093083381653,0.17005978524684906,-0.07482992857694626,-1.2864699363708496,0.13706372678279877,-0.11731813848018646,0.056261979043483734,0.9873363375663757,34.0
-1.39518141746521,-1.5376087427139282,-1.222068428993225,0.7886077165603638,-0.27408334612846375,-0.47158488631248474,0.17140373587608337,-0.07608140259981155,-1.2861130237579346,0.15353651344776154,-0.11922754347324371,0.05681440979242325,0.9895758032798767,35.0
-1.3872953653335571,-1.5403496026992798,-1.2267842292785645,0.8053571581840515,-0.2758964002132416,-0.4779811501502991,0.17291192710399628,-0.0773531123995781,-1.2857555150985718,0.16569775342941284,-0.0689045637845993,0.06170201301574707,0.9206716418266296,36.0
-1.3792418241500854,-1.543108582496643,-1.2315640449523926,0.8220611810684204,-0.27775973081588745,-0.4834272265434265,0.1745309829711914,-0.07813803851604462,-1.2852647304534912,0.17467594146728516,-0.045039236545562744,0.06233380362391472,0.9347002506256104,37.0
-1.3710212707519531,-1.5458861589431763,-1.2363983392715454,0.8389277458190918,-0.2796452045440674,-0.4890434145927429,0.17623579502105713,-0.0786898285150528,-1.2847274541854858,0.18064098060131073,-0.0701664462685585,0.05716196075081825,0.9462479948997498,38.0
-1.3626320362091064,-1.5486825704574585,-1.2412887811660767,0.8559525012969971,-0.28152456879615784,-0.4947962760925293,0.17800752818584442,-0.079480841755867,-1.284286379814148,0.1857079714536667,-0.0630311593413353,0.0618356429040432,0.9557536244392395,39.0
-1.3540725708007812,-1.5514978170394897,-1.246236801147461,0.8731440305709839,-0.28342103958129883,-0.5006554126739502,0.17982502281665802,-0.08021068572998047,-1.2837878465652466,0.18944872915744781,-0.09001526981592178,0.05588042363524437,0.9635782837867737,40.0
-1.3453410863876343,-1.5543320178985596,-1.2512433528900146,0.8905009031295776,-0.28532499074935913,-0.5065976977348328,0.18168826401233673,-0.08119627088308334,-1.2833977937698364,0.192210391163826,-0.10954631119966507,0.05541153997182846,0.9700191617012024,41.0
-1.3364360332489014,-1.5571852922439575,-1.2563092708587646,0.9080314636230469,-0.287262499332428,-0.5126017332077026,0.1835821270942688,-0.08237382769584656,-1.2830495834350586,0.194249227643013,-0.09974240511655807,0.06031176447868347,0.9753210544586182,42.0
-1.3273557424545288,-1.5600578784942627,-1.2614352703094482,0.9257413744926453,-0.28925228118896484,-0.5186501741409302,0.1854906976222992,-0.0834645926952362,-1.2826372385025024,0.1887311041355133,-0.09109513461589813,0.05842050537467003,0.9796853065490723,43.0
-1.3180983066558838,-1.5629503726959229,-1.2666218280792236,0.9436269402503967,-0.29128313064575195,-0.5247305631637573,0.187344029545784,-0.08446766436100006,-1.2822296619415283,0.15918780863285065,-0.09923867136240005,0.05249601602554321,0.9832777976989746,44.0
-1.3086620569229126,-1.5658632516860962,-1.27186918258667,0.9616774320602417,-0.29334738850593567,-0.530833899974823,0.18890789151191711,-0.08554045855998993,-1.2818975448608398,0.16986989974975586,-0.09830380231142044,0.054447829723358154,0.9862349629402161,45.0
-1.2990453243255615,-1.5687967538833618,-1.2771775722503662,0.9798629879951477,-0.29546254873275757,-0.5369560122489929,0.19057656824588776,-0.08660825341939926,-1.2815461158752441,0.15609216690063477,-0.09905565530061722,0.05259134992957115,0.988669216632843,46.0
-1.289246678352356,-1.571751356124878,-1.282547116279602,0.9981926679611206,-0.297623872756958,-0.5430880188941956,0.19210894405841827,-0.08768049627542496,-1.2812161445617676,0.16189594566822052,-0.0975968986749649,0.05259908735752106,0.9906730055809021,47.0
-1.2792648077011108,-1.5747275352478027,-1.2879780530929565,1.0166510343551636,-0.2998362183570862,-0.5492264032363892,0.19369889795780182,-0.08873894065618515,-1.280884861946106,0.16129198670387268,-0.0760534331202507,0.052485812455415726,0.9923223853111267,48.0
-1.2690982818603516,-1.577725887298584,-1.2934702634811401,1.0352423191070557,-0.302095890045166,-0.5553653836250305,0.19527901709079742,-0.0895862802863121,-1.2805147171020508,0.17142333090305328,-0.019061606377363205,0.04778522998094559,0.9936801195144653,49.0
-1.2587459087371826,-1.5807468891143799,-1.2990238666534424,1.0539580583572388,-0.30438047647476196,-0.5615027546882629,0.19695445895195007,-0.08986599743366241,-1.2800811529159546,0.15833552181720734,-0.014413448981940746,0.045651912689208984,0.9947977662086487,50.0
-1.248206377029419,-1.58379065990448,-1.3046388626098633,1.0727897882461548,-0.30662739276885986,-0.5676380395889282,0.19850000739097595,-0.09009668231010437,-1.2796599864959717,0.1592731773853302,-0.011137435212731361,0.048767540603876114,0.9957177639007568,51.0
-1.237478494644165,-1.5868569612503052,-1.3103152513504028,1.0917216539382935,-0.30883604288101196,-0.5737712979316711,0.20005153119564056,-0.09030203521251678,-1.2792019844055176,0.12496837973594666,-4.110857844352722e-05,0.047196947038173676,0.9964750409126282,52.0
-1.2265613079071045,-1.5899453163146973,-1.3160529136657715,1.1107529401779175,-0.3110027313232422,-0.5799003839492798,0.20125934481620789,-0.0903962254524231,-1.2787376642227173,0.13858290016651154,0.007055849302560091,0.047365542501211166,0.9970983862876892,53.0
-1.2154537439346313,-1.5930553674697876,-1.3218519687652588,1.1298441886901855,-0.3131271302700043,-0.5860306620597839,0.2026018351316452,-0.09042177349328995,-1.2782574892044067,0.11153916269540787,-0.0022084233351051807,0.04154052585363388,0.9976115226745605,54.0
-1.2041553258895874,-1.596186637878418,-1.3277122974395752,1.149006724357605,-0.3151974678039551,-0.5921587347984314,0.20368073880672455,-0.0905269905924797,-1.2778533697128296,0.11150740087032318,-0.015228517353534698,0.039028462022542953,0.9605870246887207,55.0
-1.1926652193069458,-1.5993386507034302,-1.3336338996887207,1.1681023836135864,-0.31721872091293335,-0.5977860689163208,0.20476391911506653,-0.09075507521629333,-1.2775005102157593,0.11212028563022614,-0.0022183051332831383,0.033278465270996094,0.967556893825531,56.0
-1.1809841394424438,-1.6025108098983765,-1.3396117687225342,1.1872671842575073,-0.3192204535007477,-0.6035010814666748,0.20585587620735168,-0.09084445983171463,-1.2771778106689453,0.11387695372104645,-0.008715011179447174,0.029460478574037552,0.973294198513031,57.0
-1.1691114902496338,-1.6057029962539673,-1.3456467390060425,1.206493854522705,-0.3211885094642639,-0.609288215637207,0.2069699913263321,-0.09098999202251434,-1.276906132698059,0.09668208658695221,-0.0033275349996984005,0.023796573281288147,0.9780169129371643,58.0
-1.1570465564727783,-1.608914852142334,-1.3517396450042725,1.2257832288742065,-0.32312873005867004,-0.6151330471038818,0.20791618525981903,-0.09107145667076111,-1.2766791582107544,0.05474706366658211,-0.008680952712893486,0.022829389199614525,0.9442219138145447,59.0
-1.1447887420654297,-1.6121461391448975,-1.3578909635543823,1.2449978590011597,-0.3250277638435364,-0.6205237507820129,0.20844489336013794,-0.09120351821184158,-1.276472806930542,0.046747904270887375,0.029946064576506615,0.017311030998826027,0.9540858268737793,60.0
-1.1323387622833252,-1.6153963804244995,-1.3640961647033691,1.2642300128936768,-0.3269202411174774,-0.6260520815849304,0.20889121294021606,-0.09094636142253876,-1.2762404680252075,0.03694498538970947,0.051440559327602386,0.012204127386212349,0.9622054100036621,61.0
-1.1196964979171753,-1.6186655759811401,-1.3703566789627075,1.2834539413452148,-0.32876822352409363,-0.6316992044448853,0.20924004912376404,-0.09046844393014908,-1.2760134935379028,0.04173685982823372,0.0833013579249382,0.011064115911722183,0.968889057636261,62.0
-1.10686194896698,-1.6219532489776611,-1.376673698425293,1.3026485443115234,-0.33055219054222107,-0.637449324131012,0.20963190495967865,-0.08967658132314682,-1.275731086730957,0.033565718680620193,0.10588039457798004,0.007507016882300377,0.9743908047676086,63.0
-1.093835473060608,-1.6252588033676147,-1.383048176765442,1.3218051195144653,-0.33223721385002136,-0.6432881951332092,0.20994114875793457,-0.08865658193826675,-1.2754361629486084,0.013895748183131218,0.07440675050020218,0.0020406492985785007,0.9789195656776428,64.0
-1.0806174278259277,-1.628581166267395,-1.3894810676574707,1.3409051895141602,-0.33380237221717834,-0.6492058038711548,0.21006454527378082,-0.08793310821056366,-1.2752604484558105,0.03441927209496498,0.09684096276760101,-0.003376531880348921,0.9826474785804749,65.0
-1.0672084093093872,-1.6319191455841064,-1.3959730863571167,1.3599363565444946,-0.3352867662906647,-0.6551926136016846,0.21039384603500366,-0.08697894215583801,-1.2750909328460693,0.006666269153356552,0.09540535509586334,-0.0031157389748841524,0.8889609575271606,66.0
-1.053609013557434,-1.6352720260620117,-1.4025250673294067,1.3786123991012573,-0.3366330862045288,-0.6599428653717041,0.21044579148292542,-0.08603941649198532,-1.2749215364456177,0.011335860937833786,0.07275338470935822,-0.002534832339733839,0.7236147522926331,67.0
-1.0398229360580444,-1.6386383771896362,-1.409124493598938,1.3966851234436035,-0.33783552050590515,-0.6625023484230042,0.21054817736148834,-0.08532264083623886,-1.2747938632965088,0.017290761694312096,0.1062932014465332,-0.007910843938589096,0.7724913358688354,68.0
-1.0258561372756958,-1.6420167684555054,-1.4157495498657227,1.4148269891738892,-0.33897456526756287,-0.6657349467277527,0.21070870757102966,-0.08426664769649506,-1.2746485471725464,0.028554439544677734,0.10961511731147766,-0.012808989733457565,0.7054415345191956,69.0
-1.0117079019546509,-1.6454064846038818,-1.4224069118499756,1.432676911354065,-0.3399851620197296,-0.6680903434753418,0.210985466837883,-0.08316794782876968,-1.2745441198349,-0.020240020006895065,0.09461677074432373,-0.016860218718647957,0.5198442935943604,70.0
-0.9973811507225037,-1.6488063335418701,-1.42908775806427,1.4498807191848755,-0.3408357501029968,-0.6679800152778625,0.2107802927494049,-0.08220744878053665,-1.2745107412338257,-0.005552753806114197,0.09741050750017166,-0.022107329219579697,0.3701161742210388,71.0
-0.9828823208808899,-1.6522146463394165,-1.4357675313949585,1.4665071964263916,-0.34156930446624756,-0.6658908128738403,0.2107257843017578,-0.08120864629745483,-1.274523138999939,-0.03988959267735481,0.1252942979335785,-0.02730722539126873,0.2754383981227875,72.0
-0.9682172536849976,-1.655630350112915,-1.4424264430999756,1.4827402830123901,-0.3421936333179474,-0.6625566482543945,0.21032729744911194,-0.07992629706859589,-1.2745281457901,-0.04090869054198265,0.14559927582740784,-0.03246033191680908,0.13850031793117523,73.0
-0.9533898234367371,-1.6590522527694702,-1.4490519762039185,1.498412013053894,-0.3426875174045563,-0.6574182510375977,0.2099192887544632,-0.07843461632728577,-1.2745416164398193,-0.03255964815616608,0.1603853702545166,-0.03756707161664963,0.11676935106515884,74.0
-0.9384056925773621,-1.6624791622161865,-1.455626130104065,1.5138697624206543,-0.3430567681789398,-0.6520184874534607,0.20959630608558655,-0.07678768783807755,-1.274574875831604,-0.06631036102771759,0.17115260660648346,-0.04257991164922714,-0.07749705761671066,75.0
-0.9232670068740845,-1.665909767150879,-1.462146282196045,1.5285943746566772,-0.3432602286338806,-0.6440452933311462,0.2089378535747528,-0.07502502202987671,-1.2746354341506958,-0.08357949554920197,0.1761610209941864,-0.04759559407830238,-0.22312834858894348,76.0
-0.9079810380935669,-1.6693423986434937,-1.4685866832733154,1.5427049398422241,-0.3433122932910919,-0.6341540813446045,0.20810958743095398,-0.07320299744606018,-1.274735927581787,-0.09426409751176834,0.18152301013469696,-0.05256614834070206,-0.23199014365673065,77.0
-0.892553985118866,-1.6727755069732666,-1.4749282598495483,1.55660080909729,-0.3432348072528839,-0.6241786479949951,0.20717716217041016,-0.07131832838058472,-1.274875521659851,-0.10455262660980225,0.18654504418373108,-0.05728711187839508,-0.32598862051963806,78.0
-0.8769879937171936,-1.6762079000473022,-1.4811700582504272,1.5700184106826782,-0.34301885962486267,-0.6129785776138306,0.2061442732810974,-0.0693749338388443,-1.2750529050827026,-0.11109492182731628,0.19020208716392517,-0.06217046082019806,-0.2884059250354767,79.0
-0.8612878322601318,-1.679638147354126,-1.4872997999191284,1.5833414793014526,-0.3426765501499176,-0.6023184657096863,0.2050485610961914,-0.06738592684268951,-1.2752726078033447,-0.12367139756679535,0.19170665740966797,-0.06700986623764038,-0.3094325661659241,80.0
-0.8454543948173523,-1.6830649375915527,-1.4933229684829712,1.5963903665542603,-0.3422022759914398,-0.5914125442504883,0.2038297802209854,-0.06537257879972458,-1.2755389213562012,-0.1287548542022705,0.1939607858657837,-0.07180573046207428,-0.281838595867157,81.0
-0.8294904828071594,-1.6864869594573975,-1.499237060546875,1.6092973947525024,-0.3416008949279785,-0.5809140205383301,0.20256257057189941,-0.06332777440547943,-1.2758501768112183,-0.14740239083766937,0.19560223817825317,-0.0765584409236908,-0.20763924717903137,82.0
-0.8133975267410278,-1.6899030208587646,-1.5050462484359741,1.6221917867660522,-0.34087157249450684,-0.5714487433433533,0.20111115276813507,-0.06125772371888161,-1.2762073278427124,-0.1611691564321518,0.19679754972457886,-0.08126838505268097,-0.3464003801345825,83.0
-0.7971755862236023,-1.6933116912841797,-1.51076078414917,1.634443759918213,-0.34001708030700684,-0.5601585507392883,0.1995241940021515,-0.05916707217693329,-1.276611328125,-0.167334645986557,0.19766797125339508,-0.08593595027923584,-0.46198445558547974,84.0
-0.7808311581611633,-1.6967118978500366,-1.5163624286651611,1.6461155414581299,-0.33904510736465454,-0.5473540425300598,0.19787754118442535,-0.05705928057432175,-1.2770626544952393,-0.1639963537454605,0.19830182194709778,-0.09056151658296585,-0.36397916078567505,85.0
-0.7643700242042542,-1.7001023292541504,-1.5218359231948853,1.6578090190887451,-0.33795130252838135,-0.5359049439430237,0.1962660253047943,-0.05493692681193352,-1.2775615453720093,-0.17341986298561096,0.1987633854150772,-0.09514546394348145,-0.4522269666194916,86.0
-0.7477919459342957,-1.7034817934036255,-1.5271949768066406,1.6690049171447754,-0.33674296736717224,-0.5233058333396912,0.19456182420253754,-0.052801910787820816,-1.27810800075531,-0.18037688732147217,0.19909949600696564,-0.09968815743923187,-0.5401164889335632,87.0
-0.7311018705368042,-1.706849217414856,-1.5324280261993408,1.6797024011611938,-0.3354257643222809,-0.5095605254173279,0.19278940558433533,-0.05065574869513512,-1.2787020206451416,-0.1855129897594452,0.19934424757957458,-0.10418997704982758,-0.5365282297134399,88.0
-0.7143048644065857,-1.7102035284042358,-1.537523627281189,1.6901506185531616,-0.3339952528476715,-0.4958990514278412,0.19096675515174866,-0.048499614000320435,-1.2793434858322144,-0.18517088890075684,0.1995224803686142,-0.1086512953042984,-0.5440303087234497,89.0
-0.6974033713340759,-1.7135435342788696,-1.542482614517212,1.7003164291381836,-0.3324539363384247,-0.48217150568962097,0.1891484409570694,-0.04633443057537079,-1.2800323963165283,-0.18905222415924072,0.1996522694826126,-0.113072469830513,-0.5526107549667358,90.0
-0.6804001927375793,-1.7168680429458618,-1.5473042726516724,1.710198998451233,-0.33080220222473145,-0.468362033367157,0.18729200959205627,-0.04416091367602348,-1.2807683944702148,-0.19191767275333405,0.19974678754806519,-0.11745385825634003,-0.6317281126976013,91.0
-0.6632981896400452,-1.720176100730896,-1.551987886428833,1.7196120023727417,-0.32905271649360657,-0.45351892709732056,0.1854073852300644,-0.041979677975177765,-1.2815512418746948,-0.19403311610221863,0.19981561601161957,-0.12179582566022873,-0.6797510981559753,92.0
-0.6461020708084106,-1.7234666347503662,-1.556523084640503,1.728639841079712,-0.3272036612033844,-0.4380596876144409,0.18350186944007874,-0.03979124128818512,-1.2823807001113892,-0.188163161277771,0.19986572861671448,-0.12609872221946716,-0.7037494778633118,93.0
-0.6288156509399414,-1.726738691329956,-1.5609036684036255,1.7373466491699219,-0.3252527117729187,-0.42230692505836487,0.18165507912635803,-0.037596043199300766,-1.2832565307617188,-0.17571255564689636,0.1999022215604782,-0.13036289811134338,-0.5962546467781067,94.0
-0.6114422082901001,-1.7299911975860596,-1.5651267766952515,1.7460719347000122,-0.32317090034484863,-0.4080335795879364,0.1799325942993164,-0.03539440408349037,-1.2841782569885254,-0.16808158159255981,0.19992879033088684,-0.13458870351314545,-0.4841129183769226,95.0
-0.5939815044403076,-1.7332229614257812,-1.5692070722579956,1.754832148551941,-0.3209500312805176,-0.39530134201049805,0.17828600108623505,-0.03318652883172035,-1.2851451635360718,-0.17643582820892334,0.19994814693927765,-0.138776496052742,-0.5322892665863037,96.0
-0.5764331817626953,-1.736432433128357,-1.5731600522994995,1.7632333040237427,-0.31862491369247437,-0.38194388151168823,0.17655521631240845,-0.03097262978553772,-1.2861568927764893,-0.16590110957622528,0.19996224343776703,-0.14292660355567932,-0.615000307559967,97.0
-0.5588008761405945,-1.7396186590194702,-1.5769795179367065,1.7711886167526245,-0.31620916724205017,-0.36749371886253357,0.1749289184808731,-0.02875305712223053,-1.2872132062911987,-0.170270174741745,0.1999725103378296,-0.14703936874866486,-0.6262838244438171,98.0
-0.5410889983177185,-1.7427808046340942,-1.580654501914978,1.7788846492767334,-0.31368252635002136,-0.3529137074947357,0.17325785756111145,-0.026527944952249527,-1.288313627243042,-0.17704316973686218,0.1999799758195877,-0.15111511945724487,-0.5424640774726868,99.0
-0.5233001708984375,-1.7459176778793335,-1.584183692932129,1.7865453958511353,-0.31101667881011963,-0.33948925137519836,0.1715177744626999,-0.024297574535012245,-1.2894577980041504,-0.18305183947086334,0.19998541474342346,-0.15515419840812683,-0.37638044357299805,100.0
-0.5054346919059753,-1.7490278482437134,-1.587578535079956,1.7943542003631592,-0.3081825077533722,-0.32833364605903625,0.16971611976623535,-0.02206224948167801,-1.2906455993652344,-0.18023380637168884,0.19998937845230103,-0.159156933426857,-0.48666277527809143,101.0
-0.4874911606311798,-1.7521096467971802,-1.5908619165420532,1.8016579151153564,-0.3052730858325958,-0.31570786237716675,0.16794094443321228,-0.019822267815470695,-1.2918767929077148,-0.17495182156562805,0.19999226927757263,-0.16312365233898163,-0.3944621980190277,102.0
-0.46947458386421204,-1.7551623582839966,-1.5940189361572266,1.8089289665222168,-0.30221638083457947,-0.30435073375701904,0.1662166863679886,-0.017577815800905228,-1.2931510210037231,-0.18067921698093414,0.19360537827014923,-0.167054682970047,-0.3380779027938843,103.0
-0.4513852894306183,-1.758184552192688,-1.5970624685287476,1.8160868883132935,-0.2990216314792633,-0.29377663135528564,0.16443322598934174,-0.015392049215734005,-1.294478416442871,-0.18476884067058563,0.19534343481063843,-0.17095033824443817,-0.1866486668586731,104.0
-0.4332244098186493,-1.7611747980117798,-1.600000262260437,1.8233370780944824,-0.29565441608428955,-0.2852731943130493,0.16260658204555511,-0.013185130432248116,-1.2958452701568604,-0.18875540792942047,0.19660909473896027,-0.17481094598770142,-0.16441398859024048,105.0
-0.4149910509586334,-1.7641313076019287,-1.6028529405593872,1.8303847312927246,-0.29216429591178894,-0.27709028124809265,0.16073757410049438,-0.010961972177028656,-1.2972521781921387,-0.18071161210536957,0.19753074645996094,-0.1786368042230606,-0.08708951622247696,106.0
-0.39668720960617065,-1.7670530080795288,-1.6056238412857056,1.8373445272445679,-0.2885254919528961,-0.2699741721153259,0.15894632041454315,-0.008726226165890694,-1.2986994981765747,-0.18576011061668396,0.19820189476013184,-0.182428240776062,-0.24853071570396423,107.0
-0.3783137798309326,-1.7699382305145264,-1.608323574066162,1.8437124490737915,-0.28484442830085754,-0.26068609952926636,0.15710170567035675,-0.006480447947978973,-1.300187110900879,-0.18749819695949554,0.19869062304496765,-0.1861855685710907,-0.10327385365962982,108.0
-0.3598766624927521,-1.7727866172790527,-1.6109304428100586,1.8501375913619995,-0.28097787499427795,-0.2533842921257019,0.1552366316318512,-0.004226711578667164,-1.3017152547836304,-0.19077038764953613,0.19904650747776031,-0.18990908563137054,-0.017706438899040222,109.0
-0.34137529134750366,-1.7755963802337646,-1.6134642362594604,1.8564871549606323,-0.27695053815841675,-0.24725914001464844,0.1533355563879013,-0.0019665558356791735,-1.3032838106155396,-0.19318611919879913,0.1993056684732437,-0.19359908998012543,-0.1708434373140335,110.0
-0.32281041145324707,-1.7783658504486084,-1.6159368753433228,1.862269401550293,-0.2728857696056366,-0.23907066881656647,0.15140685439109802,0.00029881088994443417,-1.304892659187317,-0.17432251572608948,0.1994943916797638,-0.19725589454174042,-0.21217115223407745,111.0
-0.30418771505355835,-1.7810946702957153,-1.6183276176452637,1.8677167892456055,-0.2687285840511322,-0.23033475875854492,0.14966313540935516,0.0025684514548629522,-1.3065418004989624,-0.15477018058300018,0.19963181018829346,-0.2008797973394394,-0.24899564683437347,112.0
-0.2855105400085449,-1.7837820053100586,-1.6206309795379639,1.8728586435317993,-0.2644733488559723,-0.22111006081104279,0.14811109006404877,0.004841974936425686,-1.3082305192947388,-0.166608527302742,0.19973188638687134,-0.20447109639644623,-0.059611931443214417,113.0
-0.2667819559574127,-1.7864267826080322,-1.6228420734405518,1.8781543970108032,-0.25998353958129883,-0.21446684002876282,0.1464366465806961,0.007119164802134037,-1.3099581003189087,-0.17534832656383514,0.19980476796627045,-0.2080300748348236,0.11537808179855347,114.0
-0.24800041317939758,-1.7890266180038452,-1.6249867677688599,1.8835564851760864,-0.2552628219127655,-0.2102106511592865,0.14467059075832367,0.009399373084306717,-1.3117246627807617,-0.16971635818481445,0.19985783100128174,-0.2115570306777954,-0.052970290184020996,115.0
-0.22916485369205475,-1.791579246520996,-1.6270889043807983,1.888401746749878,-0.2505226135253906,-0.20367635786533356,0.1429564505815506,0.011682067066431046,-1.3135300874710083,-0.17764273285865784,0.19989646971225739,-0.21505224704742432,0.13323940336704254,116.0
-0.21028083562850952,-1.7940844297409058,-1.629125714302063,1.893363118171692,-0.24553747475147247,-0.1996811330318451,0.14115847647190094,0.013967026025056839,-1.3153740167617798,-0.14901234209537506,0.19992460310459137,-0.2185160219669342,0.25807511806488037,117.0
-0.19134721159934998,-1.7965397834777832,-1.6311224699020386,1.8983116149902344,-0.24034282565116882,-0.19739127159118652,0.13964205980300903,0.016253817826509476,-1.3172563314437866,-0.14232011139392853,0.1999450922012329,-0.22194862365722656,0.2607020139694214,118.0
-0.17236410081386566,-1.7989431619644165,-1.6330963373184204,1.9030492305755615,-0.23501107096672058,-0.19514289498329163,0.13818766176700592,0.018542733043432236,-1.319176197052002,-0.1354389786720276,0.19996002316474915,-0.22535033524036407,0.3357239365577698,119.0
-0.1533336043357849,-1.8012932538986206,-1.6350477933883667,1.907711386680603,-0.22948868572711945,-0.19391943514347076,0.1367969810962677,0.020833687856793404,-1.3211331367492676,-0.11966545134782791,0.19997088611125946,-0.22872143983840942,0.3659687340259552,120.0
-0.1342564970254898,-1.8035881519317627,-1.6369869709014893,1.9122240543365479,-0.22380372881889343,-0.19311094284057617,0.13555879890918732,0.023126624524593353,-1.3231266736984253,-0.12995456159114838,0.1999787986278534,-0.2320622205734253,0.4722052216529846,121.0
-0.11513425409793854,-1.805826187133789,-1.6389180421829224,1.916732907295227,-0.21789327263832092,-0.19374965131282806,0.13421231508255005,0.025421684607863426,-1.325156331062317,-0.14614281058311462,0.1999845653772354,-0.23537293076515198,0.43037328124046326,122.0
-0.09596692770719528,-1.8080050945281982,-1.6408555507659912,1.9209725856781006,-0.211870938539505,-0.1938212513923645,0.13269838690757751,0.027718497440218925,-1.3272219896316528,-0.1204090565443039,0.19998876750469208,-0.23865385353565216,0.4964403510093689,123.0
-0.07675720006227493,-1.8101238012313843,-1.6427937746047974,1.9251110553741455,-0.20565569400787354,-0.19479408860206604,0.1314360499382019,0.030016563832759857,-1.3293237686157227,-0.14124099910259247,0.19999182224273682,-0.24190525710582733,0.532429039478302,124.0
-0.05750609189271927,-1.8121803998947144,-1.6447417736053467,1.929121971130371,-0.19926325976848602,-0.19625680148601532,0.12995950877666473,0.03231626749038696,-1.3314608335494995,-0.15662044286727905,0.1999940425157547,-0.24512740969657898,0.6151153445243835,125.0
-0.038214873522520065,-1.8141729831695557,-1.6467043161392212,1.9330600500106812,-0.19265735149383545,-0.19884556531906128,0.12832310795783997,0.03461701422929764,-1.3336334228515625,-0.1660313606262207,0.19999566674232483,-0.2483205646276474,0.6253450512886047,126.0
-0.01888427324593067,-1.8160995244979858,-1.6486927270889282,1.936790943145752,-0.18590109050273895,-0.201574444770813,0.12658636271953583,0.03691830486059189,-1.3358416557312012,-0.17303402721881866,0.19999684393405914,-0.2514849901199341,0.5271710157394409,127.0
0.000483635812997818,-1.8179585933685303,-1.6507084369659424,1.9401359558105469,-0.17909295856952667,-0.20296724140644073,0.12477320432662964,0.03921976685523987,-1.338085412979126,-0.16461756825447083,0.1999977082014084,-0.2546209394931793,0.46064671874046326,128.0
0.019884994253516197,-1.8197494745254517,-1.652738094329834,1.9431438446044922,-0.1722097247838974,-0.20345404744148254,0.1230376586318016,0.04152107238769531,-1.340364694595337,-0.1515640765428543,0.19999833405017853,-0.2577286660671234,0.34793007373809814,129.0
0.03931643068790436,-1.8214715719223022,-1.6547726392745972,1.9457581043243408,-0.16529545187950134,-0.20240430533885956,0.12142594903707504,0.043822240084409714,-1.3426790237426758,-0.1435180902481079,0.19999878108501434,-0.26080843806266785,0.46324360370635986,130.0
0.058774009346961975,-1.8231245279312134,-1.6567966938018799,1.9483375549316406,-0.15813365578651428,-0.20292209088802338,0.11988786607980728,0.04612341150641441,-1.3450279235839844,-0.15830153226852417,0.1999991089105606,-0.2638604938983917,0.5183887481689453,131.0
0.07825738191604614,-1.8247058391571045,-1.6588258743286133,1.950797438621521,-0.15077629685401917,-0.20418702065944672,0.11819497495889664,0.048424627631902695,-1.3474109172821045,-0.11843736469745636,0.1999993473291397,-0.26688510179519653,0.46596986055374146,132.0
0.09776535630226135,-1.8262135982513428,-1.660867691040039,1.9529675245285034,-0.14333200454711914,-0.20473389327526093,0.11689359694719315,0.05072537809610367,-1.3498281240463257,-0.10858628153800964,0.19999952614307404,-0.269882470369339,0.4858998656272888,133.0
0.1172950267791748,-1.8276469707489014,-1.6629149913787842,1.9549927711486816,-0.1357201337814331,-0.20554593205451965,0.11568349599838257,0.053026482462882996,-1.352278470993042,-0.09781825542449951,0.19999966025352478,-0.2728528678417206,0.4114879369735718,134.0
0.1368449479341507,-1.829004168510437,-1.6649703979492188,1.956752061843872,-0.12803664803504944,-0.20533695816993713,0.11457371711730957,0.05532805249094963,-1.3547613620758057,-0.09133608639240265,0.19999974966049194,-0.2757965624332428,0.38578253984451294,135.0
0.15641246736049652,-1.8302844762802124,-1.667023777961731,1.9583266973495483,-0.12023057788610458,-0.2047695517539978,0.1135212704539299,0.05763023719191551,-1.357276439666748,-0.11625227332115173,0.19999980926513672,-0.27871376276016235,0.3391181230545044,136.0
0.17599573731422424,-1.8314868211746216,-1.6690714359283447,1.959696650505066,-0.11232492327690125,-0.20355747640132904,0.11221205443143845,0.05993308126926422,-1.3598233461380005,-0.12087130546569824,0.1999998688697815,-0.28160470724105835,0.30264410376548767,137.0
0.1955927014350891,-1.832610011100769,-1.6711070537567139,1.960854411125183,-0.10431572049856186,-0.20183983445167542,0.11084886640310287,0.06223583221435547,-1.362402319908142,-0.12281236797571182,0.19999989867210388,-0.2844696342945099,0.42337992787361145,138.0
0.2152012437582016,-1.833653211593628,-1.6731255054473877,1.96200430393219,-0.09602567553520203,-0.20175787806510925,0.10945834964513779,0.06453824043273926,-1.3650133609771729,-0.1430152803659439,0.19999992847442627,-0.28730878233909607,0.2508092522621155,139.0
0.23482128977775574,-1.8346134424209595,-1.6751431226730347,1.9627623558044434,-0.08779222518205643,-0.19931530952453613,0.10785774886608124,0.06684012711048126,-1.3676562309265137,-0.15793032944202423,0.19999994337558746,-0.290122389793396,0.10837914049625397,140.0
0.25444892048835754,-1.835491418838501,-1.6771363019943237,1.9631565809249878,-0.07959146797657013,-0.19492261111736298,0.10609977692365646,0.06914081424474716,-1.3703312873840332,-0.16894154250621796,0.19999995827674866,-0.2929106652736664,0.23316919803619385,141.0
0.2740804851055145,-1.8362873792648315,-1.6790854930877686,1.9635123014450073,-0.07110826671123505,-0.19222001731395721,0.1042233258485794,0.07143976539373398,-1.3730385303497314,-0.1563524603843689,0.19999997317790985,-0.2953365743160248,0.2672455608844757,142.0
0.29371559619903564,-1.836998462677002,-1.681007742881775,1.9637038707733154,-0.06245116516947746,-0.18997123837471008,0.10246448963880539,0.07373616844415665,-1.3757747411727905,-0.15830542147159576,0.19999998807907104,-0.29807794094085693,0.26587092876434326,143.0
0.31335264444351196,-1.8376230001449585,-1.6829074621200562,1.9637008905410767,-0.053660791367292404,-0.18769234418869019,0.10067751258611679,0.07603056728839874,-1.3785427808761597,-0.16921846568584442,0.19999998807907104,-0.299993634223938,0.10853135585784912,144.0
0.3329896628856659,-1.8381595611572266,-1.6847844123840332,1.963322639465332,-0.04493751749396324,-0.18325766921043396,0.09877327084541321,0.07832195609807968,-1.3813345432281494,-0.177275151014328,0.19999998807907104,-0.30269309878349304,0.1877286732196808,145.0
0.3526228964328766,-1.838608980178833,-1.6866170167922974,1.9628357887268066,-0.0359816774725914,-0.1798895299434662,0.09677959233522415,0.08061069995164871,-1.3841581344604492,-0.18322309851646423,0.19999998807907104,-0.3053682744503021,0.3044137954711914,146.0
0.3722512423992157,-1.8389687538146973,-1.6884158849716187,1.962270736694336,-0.026741232722997665,-0.1780981421470642,0.09471743553876877,0.0828964114189148,-1.387013554573059,-0.1866956353187561,0.19999998807907104,-0.30801936984062195,0.1451159417629242,147.0
0.39187395572662354,-1.8392361402511597,-1.6901968717575073,1.9613211154937744,-0.017584504559636116,-0.17412248253822327,0.0926114171743393,0.08517875522375107,-1.3899006843566895,-0.19017788767814636,0.19999998807907104,-0.3106466233730316,0.1978575736284256,148.0
0.4114871621131897,-1.839411973953247,-1.691938042640686,1.9602152109146118,-0.008228003978729248,-0.1708509624004364,0.09046132117509842,0.08745747059583664,-1.3928194046020508,-0.19274869561195374,0.19999998807907104,-0.31325024366378784,0.10253947973251343,149.0
0.43108931183815,-1.839494228363037,-1.6936465501785278,1.9587985277175903,0.001123613677918911,-0.16626550257205963,0.08827614039182663,0.08973227441310883,-1.395769715309143,-0.19464664161205292,0.19999998807907104,-0.31583043932914734,0.20352903008460999,150.0
0.4506773054599762,-1.8394830226898193,-1.6953091621398926,1.9572681188583374,0.010744163766503334,-0.1630401462316513,0.0860624834895134,0.09200292825698853,-1.3987513780593872,-0.1960478127002716,0.19999998807907104,-0.3183874189853668,0.2755299508571625,151.0
0.4702499806880951,-1.839375615119934,-1.6969395875930786,1.9555901288986206,0.020596325397491455,-0.1607791632413864,0.08382520079612732,0.09426920115947723,-1.4017642736434937,-0.1970822513103485,0.19999998807907104,-0.320921391248703,0.28856220841407776,152.0
0.4898058772087097,-1.8391696214675903,-1.69854736328125,1.95370614528656,0.030597051605582237,-0.1586783081293106,0.08156784623861313,0.09653087705373764,-1.4048082828521729,-0.1978459358215332,0.19999998807907104,-0.3234325349330902,0.3957555294036865,153.0
0.5093429088592529,-1.8388636112213135,-1.7001341581344604,1.9516993761062622,0.040886908769607544,-0.15801973640918732,0.07929302006959915,0.09878775477409363,-1.4078831672668457,-0.19840973615646362,0.19999998807907104,-0.32592108845710754,0.42122524976730347,154.0
0.5288599133491516,-1.8384547233581543,-1.7017143964767456,1.9494941234588623,0.051347583532333374,-0.1576891839504242,0.077002614736557,0.10103963315486908,-1.4109888076782227,-0.18413282930850983,0.19999998807907104,-0.3283872604370117,0.44052696228027344,155.0
0.5483548641204834,-1.837941288948059,-1.7032912969589233,1.947084665298462,0.06197095289826393,-0.15760181844234467,0.07484493404626846,0.10328632593154907,-1.4141250848770142,-0.18828587234020233,0.19999998807907104,-0.33083122968673706,0.41482242941856384,156.0
0.5678257346153259,-1.8373215198516846,-1.7048673629760742,1.944449782371521,0.07269040495157242,-0.15714392066001892,0.07263561338186264,0.10552810877561569,-1.4172914028167725,-0.18259672820568085,0.19999998807907104,-0.3332532048225403,0.5183066129684448,157.0
0.5872702598571777,-1.836594581604004,-1.7064387798309326,1.9416872262954712,0.08370820432901382,-0.15807455778121948,0.07047296315431595,0.10776468366384506,-1.4204877614974976,-0.18715181946754456,0.19999998807907104,-0.3356533944606781,0.5676358938217163,158.0
0.6066871285438538,-1.8357574939727783,-1.708019495010376,1.9387582540512085,0.09494353830814362,-0.15965525805950165,0.06825445592403412,0.10999606549739838,-1.4237138032913208,-0.1905146688222885,0.19999998807907104,-0.3380320072174072,0.5277007818222046,159.0
0.6260747313499451,-1.834808111190796,-1.7096160650253296,1.9355939626693726,0.10625318437814713,-0.1606694757938385,0.06599191576242447,0.11222194880247116,-1.4269695281982422,-0.17682142555713654,0.19999998807907104,-0.3403891921043396,0.35789453983306885,160.0
0.6454306840896606,-1.8337455987930298,-1.711222767829895,1.9321070909500122,0.11742089688777924,-0.1593480408191681,0.06385579705238342,0.11444206535816193,-1.4302548170089722,-0.14687831699848175,0.19999998807907104,-0.3427251875400543,0.30554601550102234,161.0
0.6647517681121826,-1.8325713872909546,-1.7128162384033203,1.9283984899520874,0.12863722443580627,-0.15729036927223206,0.06200854480266571,0.11665669083595276,-1.4335691928863525,-0.16078226268291473,0.19999998807907104,-0.34504014253616333,0.4283548593521118,162.0
0.6840357780456543,-1.831284999847412,-1.7143890857696533,1.9246107339859009,0.14020109176635742,-0.1568814218044281,0.06001167371869087,0.11886666715145111,-1.436911702156067,-0.14572811126708984,0.19999998807907104,-0.34733426570892334,0.2917517423629761,163.0
0.7032818794250488,-1.8298829793930054,-1.7159578800201416,1.9205701351165771,0.1516702026128769,-0.15458865463733673,0.058154646307229996,0.12107138335704803,-1.4402825832366943,-0.15993310511112213,0.19999998807907104,-0.34960776567459106,0.24420948326587677,164.0
0.7224875688552856,-1.8283662796020508,-1.7175037860870361,1.9163506031036377,0.1631954163312912,-0.1516246795654297,0.056144822388887405,0.12327119708061218,-1.4436813592910767,-0.15532109141349792,0.19999998807907104,-0.35186079144477844,0.3699302077293396,165.0
0.7416510581970215,-1.8267343044281006,-1.7190200090408325,1.9120376110076904,0.175079345703125,-0.15034666657447815,0.05417025089263916,0.1254654973745346,-1.4471081495285034,-0.16701523959636688,0.19999998807907104,-0.3540935516357422,0.4765298068523407,166.0
0.7607714533805847,-1.8249834775924683,-1.720523476600647,1.9076207876205444,0.18729454278945923,-0.1504935324192047,0.05206780135631561,0.1276542842388153,-1.4505627155303955,-0.17564858496189117,0.19999998807907104,-0.3563062250614166,0.476400762796402,167.0
0.7798476815223694,-1.823110580444336,-1.722028374671936,1.9030312299728394,0.19965071976184845,-0.15061207115650177,0.04986796900629997,0.1298370063304901,-1.4540451765060425,-0.17973412573337555,0.19999998807907104,-0.3584989905357361,0.5689952373504639,168.0
0.798878014087677,-1.8211140632629395,-1.7235344648361206,1.8983057737350464,0.21231792867183685,-0.15196266770362854,0.047616127878427505,0.1320132166147232,-1.4575555324554443,-0.1850384622812271,0.19999998807907104,-0.3606720268726349,0.5330116152763367,169.0
0.8178610801696777,-1.8189908266067505,-1.725054144859314,1.8933794498443604,0.22506020963191986,-0.15279565751552582,0.04530000686645508,0.1341826170682907,-1.461093783378601,-0.18713338673114777,0.19999998807907104,-0.36282551288604736,0.290017306804657,170.0
0.8367948532104492,-1.8167402744293213,-1.7265820503234863,1.8881640434265137,0.23748360574245453,-0.15029582381248474,0.04295160993933678,0.13634486496448517,-1.4646598100662231,-0.19050106406211853,0.19999998807907104,-0.36495962738990784,0.08293958008289337,171.0
0.8556764721870422,-1.8143653869628906,-1.7280850410461426,1.882686972618103,0.24964502453804016,-0.14495202898979187,0.04055813327431679,0.13849972188472748,-1.468253493309021,-0.19298729300498962,0.19999998807907104,-0.36707451939582825,0.11826056241989136,172.0
0.8745033144950867,-1.8118689060211182,-1.7295345067977905,1.877045750617981,0.2620047628879547,-0.14005924761295319,0.038128312677145004,0.14064691960811615,-1.4718748331069946,-0.1948227882385254,0.19999998807907104,-0.3691703975200653,0.27418941259384155,173.0
0.8932737708091736,-1.8092488050460815,-1.7309350967407227,1.8712774515151978,0.2748015820980072,-0.13725553452968597,0.03566858172416687,0.1427861899137497,-1.475523591041565,-0.19617785513401031,0.19999998807907104,-0.37124741077423096,0.15504135191440582,174.0
0.9119865298271179,-1.806500792503357,-1.7323076725006104,1.8652899265289307,0.28749552369117737,-0.13280229270458221,0.03318367525935173,0.1449173092842102,-1.479199767112732,-0.19170860946178436,0.19999998807907104,-0.3733057379722595,0.16883347928524017,175.0
0.9306394457817078,-1.8036258220672607,-1.733635663986206,1.8591266870498657,0.3003487288951874,-0.12850531935691833,0.030731769278645515,0.14704006910324097,-1.482903242111206,-0.19387876987457275,0.19999998807907104,-0.37534552812576294,0.1766134351491928,176.0
0.9492307305335999,-1.8006223440170288,-1.7349207401275635,1.8527913093566895,0.31335020065307617,-0.1242825984954834,0.028246425092220306,0.1491544544696808,-1.4866337776184082,-0.19548092782497406,0.19999998807907104,-0.3773669898509979,0.12833978235721588,177.0
0.9677586555480957,-1.797488808631897,-1.73616361618042,1.8462709188461304,0.3263845145702362,-0.11937249451875687,0.025733258575201035,0.15126024186611176,-1.4903911352157593,-0.1966637372970581,0.19999998807907104,-0.37771597504615784,0.1662794053554535,178.0
0.9862213730812073,-1.7942249774932861,-1.7373573780059814,1.839584469795227,0.33962950110435486,-0.11494489759206772,0.023198924958705902,0.15335676074028015,-1.4941586256027222,-0.19753696024417877,0.19999998807907104,-0.37971609830856323,0.31371647119522095,179.0
1.0046172142028809,-1.7908287048339844,-1.73850679397583,1.832747459411621,0.3533187806606293,-0.11248482018709183,0.02064395509660244,0.15544430911540985,-1.497952938079834,-0.1981816291809082,0.19999998807907104,-0.38169822096824646,0.4350804388523102,180.0
1.022944688796997,-1.7872954607009888,-1.7396316528320312,1.8257488012313843,0.3674040734767914,-0.1116369292140007,0.018070582300424576,0.15752267837524414,-1.5017738342285156,-0.1986575722694397,0.19999998807907104,-0.38366252183914185,0.3833986818790436,181.0
1.041202187538147,-1.7836214303970337,-1.7407480478286743,1.8185653686523438,0.38151684403419495,-0.11005298793315887,0.015480441972613335,0.1595916748046875,-1.505621314048767,-0.19900894165039062,0.19999998807907104,-0.38560912013053894,0.3551633059978485,182.0
1.0593878030776978,-1.7798062562942505,-1.7418485879898071,1.8112030029296875,0.39570602774620056,-0.10805077105760574,0.012874731793999672,0.1616511195898056,-1.5094952583312988,-0.19926834106445312,0.19999998807907104,-0.38753822445869446,0.38652583956718445,183.0
1.0774998664855957,-1.7758492231369019,-1.7429291009902954,1.8036670684814453,0.4101024866104126,-0.10643775761127472,0.010254325345158577,0.16370084881782532,-1.5133954286575317,-0.1615864336490631,0.19999998807907104,-0.38944995403289795,0.32857415080070496,184.0
1.0955365896224976,-1.7717481851577759,-1.7439935207366943,1.7959561347961426,0.4245077073574066,-0.10400305688381195,0.007998593151569366,0.16574068367481232,-1.5173217058181763,-0.17164070904254913,0.19999998807907104,-0.39134448766708374,0.4473106265068054,185.0
1.11349618434906,-1.7675031423568726,-1.7450335025787354,1.788109540939331,0.4393221437931061,-0.10314260423183441,0.0056302607990801334,0.16777192056179047,-1.521273136138916,-0.17906340956687927,0.19999998807907104,-0.39322197437286377,0.408899188041687,186.0
1.1313772201538086,-1.7631099224090576,-1.7460649013519287,1.780118703842163,0.45419085025787354,-0.10172640532255173,0.0031755680684000254,0.1697940230369568,-1.5252498388290405,-0.18454329669475555,0.19999998807907104,-0.39508256316185,0.4245588481426239,187.0
1.149178385734558,-1.7585680484771729,-1.7470821142196655,1.7719765901565552,0.46923699975013733,-0.10048581659793854,0.0006538787856698036,0.17180655896663666,-1.5292518138885498,-0.18858890235424042,0.19999998807907104,-0.3969264030456543,0.4278179109096527,188.0
1.1668981313705444,-1.753875732421875,-1.748086929321289,1.7636795043945312,0.4844321608543396,-0.0992521420121193,-0.0019205184653401375,0.17380915582180023,-1.5332790613174438,-0.19157561659812927,0.19999998807907104,-0.39875367283821106,0.3853136897087097,189.0
1.1845349073410034,-1.7490314245224,-1.7490794658660889,1.7552303075790405,0.4996678829193115,-0.09740559756755829,-0.004537082277238369,0.17580150067806244,-1.537331461906433,-0.18312540650367737,0.19999998807907104,-0.4005644917488098,0.41660380363464355,190.0
1.202087163925171,-1.744034767150879,-1.7500535249710083,1.7466193437576294,0.5151189565658569,-0.09594381600618362,-0.007081484422087669,0.1777833104133606,-1.5414090156555176,-0.187542125582695,0.19999998807907104,-0.4023590087890625,0.45509275794029236,191.0
1.2195533514022827,-1.7388836145401,-1.751012921333313,1.737853765487671,0.5308050513267517,-0.09496414661407471,-0.009682392701506615,0.17975476384162903,-1.5455113649368286,-0.19080281257629395,0.19999998807907104,-0.40413740277290344,0.5015535354614258,192.0
1.2369319200515747,-1.7335755825042725,-1.7519625425338745,1.7289272546768188,0.546747624874115,-0.09457316249608994,-0.01232828851789236,0.18171553313732147,-1.5496383905410767,-0.19284482300281525,0.19999998807907104,-0.4058997929096222,0.5896999835968018,193.0
1.2542212009429932,-1.7281080484390259,-1.7529082298278809,1.7198264598846436,0.5630525350570679,-0.0953328013420105,-0.0150070209056139,0.18366533517837524,-1.5537900924682617,-0.19471760094165802,0.19999998807907104,-0.4076462984085083,0.4732538163661957,194.0
1.2714195251464844,-1.7224775552749634,-1.7538615465164185,1.7105971574783325,0.5792122483253479,-0.0944792628288269,-0.017716925591230392,0.18560393154621124,-1.5579663515090942,-0.17175208032131195,0.19999998807907104,-0.4093770980834961,0.477881520986557,195.0
1.2885254621505737,-1.71668541431427,-1.7548062801361084,1.701211929321289,0.5955270528793335,-0.09364728629589081,-0.020209645852446556,0.18753109872341156,-1.5621670484542847,-0.17914561927318573,0.17970822751522064,-0.4110923409461975,0.42272353172302246,196.0
1.3055375814437866,-1.7107301950454712,-1.7557427883148193,1.6917129755020142,0.6118451356887817,-0.0920320600271225,-0.022787926718592644,0.18924473226070404,-1.566387414932251,-0.1756296455860138,0.17855647206306458,-0.4127921462059021,0.2177150994539261,197.0
1.3224546909332275,-1.7046117782592773,-1.7566630840301514,1.6821459531784058,0.6277570128440857,-0.08761581033468246,-0.025342458859086037,0.19093577563762665,-1.570630669593811,-0.1820082813501358,0.14731919765472412,-0.4144766628742218,0.16484762728214264,198.0
1.3392761945724487,-1.6983342170715332,-1.7575392723083496,1.6724727153778076,0.6436483860015869,-0.08245182782411575,-0.02797064371407032,0.19230346381664276,-1.574888825416565,-0.18651074171066284,0.1616378277540207,-0.41614601016044617,0.020512953400611877,199.0
1.3560009002685547,-1.6918977499008179,-1.7583638429641724,1.6627253293991089,0.6592475771903992,-0.0753123015165329,-0.030654512345790863,0.1938028335571289,-1.5791728496551514,-0.19004139304161072,0.1647564321756363,-0.41780033707618713,-0.1599569171667099,200.0
1.3726282119750977,-1.6853052377700806,-1.7591170072555542,1.6529228687286377,0.6744662523269653,-0.0657089501619339,-0.033384453505277634,0.19532157480716705,-1.5834800004959106,-0.18616439402103424,0.16525164246559143,-0.41943976283073425,-0.26505929231643677,201.0
1.3891574144363403,-1.6785606145858765,-1.759774088859558,1.6430407762527466,0.6895005106925964,-0.05465751513838768,-0.03608638420701027,0.19683316349983215,-1.5878095626831055,-0.1897856891155243,0.13776156306266785,-0.42106443643569946,-0.34857428073883057,202.0
1.4055877923965454,-1.6716656684875488,-1.7603206634521484,1.6330797672271729,0.7044044137001038,-0.04244982451200485,-0.03883327171206474,0.19805796444416046,-1.5921510457992554,-0.19245915114879608,0.1380477100610733,-0.4226745069026947,-0.2885834574699402,203.0
1.4219186305999756,-1.6646215915679932,-1.7607451677322388,1.6229735612869263,0.7195398211479187,-0.03102126717567444,-0.04161624237895012,0.19927330315113068,-1.5965135097503662,-0.19443286955356598,0.14219264686107635,-0.4242700934410095,-0.13376453518867493,204.0
1.4381483793258667,-1.6574262380599976,-1.76105535030365,1.612670660018921,0.73516845703125,-0.021646343171596527,-0.04442860558629036,0.20051749050617218,-1.6008985042572021,-0.19588999450206757,0.12811486423015594,-0.42585131525993347,-0.28695160150527954,205.0
1.454275131225586,-1.6500746011734009,-1.7612718343734741,1.602325201034546,0.7504532933235168,-0.010181223042309284,-0.04726375266909599,0.20160824060440063,-1.6052978038787842,-0.19696573913097382,0.111148402094841,-0.4274183213710785,-0.3909929394721985,206.0
1.470298409461975,-1.6425700187683105,-1.7613736391067505,1.591917634010315,0.7655125260353088,0.002710164524614811,-0.05011674761772156,0.20251654088497162,-1.6097090244293213,-0.19775992631912231,0.10186674445867538,-0.42897123098373413,-0.4969938099384308,207.0
1.4862176179885864,-1.6349148750305176,-1.7613465785980225,1.5814545154571533,0.7803229689598083,0.01705086976289749,-0.052984531968832016,0.2033190280199051,-1.6141347885131836,-0.19834624230861664,0.07661715894937515,-0.43051016330718994,-0.47888100147247314,208.0
1.5020321607589722,-1.6271116733551025,-1.7611761093139648,1.570866584777832,0.795221209526062,0.031171686947345734,-0.05586268752813339,0.20385612547397614,-1.6185656785964966,-0.19877909123897552,0.07896246016025543,-0.4320352375507355,-0.5710368752479553,209.0
1.5177408456802368,-1.619159460067749,-1.7608643770217896,1.5602225065231323,0.8098768591880798,0.04654999077320099,-0.058751337230205536,0.20440329611301422,-1.6230155229568481,-0.1990986466407776,0.07933962345123291,-0.43354660272598267,-0.646895706653595,210.0
1.5333430767059326,-1.6110607385635376,-1.7603988647460938,1.5495173931121826,0.8243362307548523,0.06296677142381668,-0.06164916604757309,0.20494075119495392,-1.6274831295013428,-0.19933456182479858,0.08780045062303543,-0.4350443482398987,-0.7093394994735718,211.0
1.5488382577896118,-1.602817416191101,-1.7597692012786865,1.5387471914291382,0.8386362791061401,0.08024152368307114,-0.0645563155412674,0.20554906129837036,-1.631973385810852,-0.19950872659683228,0.06083317846059799,-0.435541033744812,-0.6612344980239868,212.0
1.564225673675537,-1.5944310426712036,-1.7589668035507202,1.5278376340866089,0.8530973196029663,0.09689180552959442,-0.06746576726436615,0.20587515830993652,-1.6364532709121704,-0.199637308716774,0.0627795085310936,-0.43702083826065063,-0.7016968131065369,213.0
1.5795040130615234,-1.585900068283081,-1.7579978704452515,1.516851544380188,0.8674458265304565,0.11410227417945862,-0.07038155198097229,0.20620690286159515,-1.6409507989883423,-0.19973224401474,0.04572908952832222,-0.43848732113838196,-0.6939204931259155,214.0
1.5946725606918335,-1.5772255659103394,-1.7568567991256714,1.5057553052902222,0.88182133436203,0.13122610747814178,-0.0733005553483963,0.20635470747947693,-1.6454523801803589,-0.19980232417583466,0.03702371567487717,-0.4399406313896179,-0.7480483055114746,215.0
1.6097301244735718,-1.5684072971343994,-1.7555445432662964,1.4945976734161377,0.8960326313972473,0.1490909904241562,-0.0762227326631546,0.2064017653465271,-1.6499627828598022,-0.1998540610074997,0.030871659517288208,-0.4413808584213257,-0.6981140971183777,216.0
1.6246761083602905,-1.559446930885315,-1.7540535926818848,1.4832967519760132,0.9103721976280212,0.1663007140159607,-0.07914768904447556,0.20637348294258118,-1.6544831991195679,-0.19989226758480072,-0.004056140780448914,-0.4428081214427948,-0.7188652753829956,217.0
1.6395090818405151,-1.5503431558609009,-1.7523906230926514,1.4719103574752808,0.92463219165802,0.1838020235300064,-0.08207007497549057,0.20598293840885162,-1.6589897871017456,-0.19992046058177948,0.0026074275374412537,-0.4442225396633148,-0.7685818076133728,218.0
1.6542282104492188,-1.541096806526184,-1.7505526542663574,1.4604636430740356,0.9387012124061584,0.20197834074497223,-0.08499479293823242,0.20564475655555725,-1.6635148525238037,-0.19994127750396729,0.004015888553112745,-0.4456242322921753,-0.7384220361709595,219.0
1.6688328981399536,-1.5317097902297974,-1.7485328912734985,1.4488886594772339,0.9528158903121948,0.21976040303707123,-0.08792110532522202,0.20530647039413452,-1.6680541038513184,-0.19995664060115814,-0.030072789639234543,-0.44701331853866577,-0.739286482334137,220.0
1.6833218336105347,-1.5221816301345825,-1.7463352680206299,1.437213659286499,0.966888427734375,0.23756420612335205,-0.09084244072437286,0.20461438596248627,-1.6725754737854004,-0.1915232539176941,-0.052055370062589645,-0.4483898878097534,-0.7081106901168823,221.0
1.697693943977356,-1.5125128030776978,-1.743959665298462,1.4254063367843628,0.9809846878051758,0.25495636463165283,-0.09367452561855316,0.20368921756744385,-1.6770877838134766,-0.19374193251132965,-0.07374539971351624,-0.44975408911705017,-0.6211013793945312,222.0
1.711948037147522,-1.5027029514312744,-1.7414101362228394,1.4134159088134766,0.9952482581138611,0.2711855471134186,-0.09652260690927505,0.20253430306911469,-1.6815897226333618,-0.19537991285324097,-0.07494810968637466,-0.4511060118675232,-0.3883053660392761,223.0
1.7260822057724,-1.4927505254745483,-1.7386982440948486,1.4010872840881348,1.0100810527801514,0.2842974066734314,-0.09938360750675201,0.20135356485843658,-1.6860997676849365,-0.1965891569852829,-0.06387261301279068,-0.45244577527046204,-0.21115517616271973,224.0
1.7400931119918823,-1.4826496839523315,-1.735855221748352,1.3884645700454712,1.0253198146820068,0.2950376868247986,-0.10225553810596466,0.20026907324790955,-1.6906300783157349,-0.1974819004535675,-0.07764594256877899,-0.45377346873283386,-0.0332469642162323,225.0
